,Unnamed: 0,id,name,lat,lon,first,last,rides
0,0,86,Eckhart Park,41.8964,-87.661,2013-06-27,2022-06-12,59506
1,1,503,Drake Ave & Fullerton Ave,41.9244,-87.7154,2015-06-30,2020-11-07,13529
2,2,142,McClurg Ct & Erie St,41.8945,-87.6179,2015-06-30,2022-06-12,115512
3,3,216,California Ave & Division St,41.903,-87.6975,2013-06-27,2022-06-12,25765
4,4,125,Rush St & Hubbard St,41.8902,-87.6262,2015-06-30,2022-06-12,77179
5,5,173,Mies van der Rohe Way & Chicago Ave,41.8969,-87.6217,2013-06-27,2022-06-12,126044
6,6,35,Streeter Dr & Grand Ave,41.8923,-87.612,2013-06-27,2022-06-12,608321
7,7,434,Ogden Ave & Roosevelt Rd,41.8665,-87.6847,2015-06-30,2022-06-12,13271
8,8,627,LaSalle Dr & Huron St,41.8949,-87.6323,2018-01-01,2022-06-12,49687
9,9,377,Kedzie Ave & Lake St,41.8846,-87.7063,2015-06-30,2022-06-12,6131
10,10,508,Central Park Ave & North Ave,41.9097,-87.7166,2015-06-30,2022-06-12,8349
11,11,374,Western Ave & Walton St,41.8984,-87.6866,2015-06-30,2022-06-12,43483
12,12,321,Wabash Ave & 9th St,41.8708,-87.6257,2013-06-27,2022-06-12,114692
13,13,9,Leavitt St & Archer Ave,41.8288,-87.6806,2015-06-30,2022-06-12,5713
14,14,141,Clark St & Lincoln Ave,41.9157,-87.6346,2013-06-27,2022-06-12,186681
15,15,109,900 W Harrison St,41.8748,-87.6498,2013-06-27,2022-06-12,49334
16,16,424,Museum of Science and Industry,41.7917,-87.5839,2015-06-30,2022-06-12,29958
17,17,347,Ashland Ave & Grace St,41.9507,-87.6687,2013-06-27,2022-06-12,42274
18,18,198,Green St & Madison St,41.8819,-87.6488,2013-06-27,2022-06-12,139902
19,19,344,Ravenswood Ave & Lawrence Ave,41.9691,-87.6742,2013-06-27,2022-06-12,102534
20,20,227,Southport Ave & Waveland Ave,41.9482,-87.6639,2013-06-27,2022-06-12,101634
21,21,661,Evanston Civic Center,42.057,-87.6866,2018-10-01,2022-06-12,3745
22,22,127,Lincoln Ave & Fullerton Ave,41.9259,-87.6493,2013-06-27,2022-06-12,108868
23,23,80,Aberdeen St & Monroe St,41.8804,-87.6555,2013-06-27,2022-06-12,85796
24,24,77,Clinton St & Madison St,41.8822,-87.6411,2013-06-27,2022-06-12,296595
25,25,346,Ada St & Washington Blvd,41.8828,-87.6612,2013-06-27,2022-06-12,65325
26,26,329,Lake Shore Dr & Diversey Pkwy,41.9326,-87.6364,2013-06-27,2022-06-12,115725
27,27,635,Fairbanks St & Superior St,41.8957,-87.6201,2018-07-01,2022-06-12,28645
28,28,659,Leavitt St & Chicago Ave,41.8955,-87.682,2018-07-01,2022-06-12,15470
29,29,342,Wolcott Ave & Polk St,41.8713,-87.6737,2013-06-27,2022-06-12,71157
30,30,161,Rush St & Superior St,41.8958,-87.6259,2015-06-30,2022-06-12,101433
31,31,88,Racine Ave & Randolph St,41.8841,-87.6569,2013-06-27,2022-06-12,51766
32,32,67,Sheffield Ave & Fullerton Ave,41.9256,-87.6537,2013-06-27,2022-06-12,138026
33,33,164,Franklin St & Lake St,41.8858,-87.6355,2013-06-27,2022-06-12,125506
34,34,237,MLK Jr Dr & 29th St,41.8421,-87.617,2013-06-27,2022-06-12,58154
35,35,279,Halsted St & 35th St,41.8307,-87.6472,2013-06-27,2022-06-12,13038
36,36,414,Canal St & Taylor St,41.8703,-87.6395,2015-06-30,2022-06-12,42406
37,37,367,Racine Ave & 35th St,41.8307,-87.656,2015-06-30,2022-06-12,5895
38,38,59,Wabash Ave & Roosevelt Rd,41.8672,-87.626,2013-06-27,2022-06-12,180846
39,39,157,Lake Shore Dr & Wellington Ave,41.9367,-87.6368,2013-06-27,2022-06-12,128870
40,40,13,Wilton Ave & Diversey Pkwy,41.9324,-87.6527,2013-06-27,2022-06-12,117388
41,41,165,Clark St & Grace St,41.9508,-87.6592,2013-06-27,2022-06-12,78556
42,42,313,Lakeview Ave & Fullerton Pkwy,41.9259,-87.639,2013-06-27,2022-06-12,138111
43,43,340,Clark St & Wrightwood Ave,41.9295,-87.6431,2013-06-27,2022-06-12,140798
44,44,26,McClurg Ct & Illinois St,41.8904,-87.6175,2013-06-27,2020-11-07,166300
45,45,254,Pine Grove Ave & Irving Park Rd,41.9544,-87.648,2013-06-27,2022-06-12,99556
46,46,180,Ritchie Ct & Banks St,41.9069,-87.6262,2015-06-30,2022-06-12,69001
47,47,110,Dearborn St & Erie St,41.894,-87.6293,2013-06-27,2022-06-12,208390
48,48,71,Morgan St & Lake St*,41.8855,-87.6523,2013-06-27,2022-06-12,129554
49,49,455,Maplewood Ave & Peterson Ave,41.9902,-87.6934,2015-06-30,2022-06-12,3678
50,50,60,Dayton St & North Ave,41.9106,-87.6494,2013-06-27,2022-06-12,91198
51,51,231,Sheridan Rd & Montrose Ave,41.9617,-87.6546,2013-06-27,2022-06-12,80182
52,52,312,Clarendon Ave & Gordon Ter,41.9579,-87.6495,2013-06-27,2022-06-12,72519
53,53,94,Clark St & Armitage Ave,41.9183,-87.6363,2013-06-27,2022-06-12,197553
54,54,84,Milwaukee Ave & Grand Ave,41.8916,-87.6484,2013-06-27,2022-06-12,107691
55,55,92,Carpenter St & Huron St,41.8946,-87.6534,2013-06-27,2022-06-12,60621
56,56,72,Wabash Ave & 16th St,41.8604,-87.6258,2013-06-27,2022-06-12,71614
57,57,299,Halsted St & Roscoe St,41.9437,-87.649,2013-06-27,2022-06-12,112261
58,58,43,Michigan Ave & Washington St,41.884,-87.6247,2013-06-27,2022-06-12,246603
59,59,176,Clark St & Elm St,41.903,-87.6313,2013-06-27,2022-06-12,228547
60,60,320,Loomis St & Lexington St,41.8722,-87.6615,2013-06-27,2022-06-12,91449
61,61,475,Washtenaw Ave & Lawrence Ave,41.969,-87.696,2015-06-30,2022-06-12,15331
62,62,113,Bissell St & Armitage Ave*,41.9184,-87.6522,2013-06-27,2022-06-12,117945
63,63,188,Greenview Ave & Fullerton Ave,41.9253,-87.6658,2013-06-27,2022-06-12,62090
64,64,129,Blue Island Ave & 18th St,41.8576,-87.6615,2013-06-27,2022-06-12,44422
65,65,247,Shore Dr & 55th St,41.7952,-87.5807,2013-06-27,2022-06-12,70726
66,66,191,Canal St & Monroe St,41.8817,-87.6395,2013-06-27,2022-06-12,116980
67,67,50,Clark St & Ida B Wells Dr,41.8759,-87.6306,2013-06-27,2022-06-12,90086
68,68,289,Wells St & Concord Ln,41.9121,-87.6347,2013-06-27,2022-06-12,215120
69,69,657,Wood St & Augusta Blvd,41.8992,-87.6722,2018-07-01,2022-06-12,19947
70,70,61,Wood St & Milwaukee Ave,41.9077,-87.6726,2013-06-27,2022-06-12,99174
71,71,245,Clarendon Ave & Junior Ter,41.961,-87.6496,2013-06-27,2022-06-12,63332
72,72,517,Clark St & Jarvis Ave,42.016,-87.675,2016-09-30,2022-06-12,5610
73,73,134,Peoria St & Jackson Blvd,41.8776,-87.6496,2013-06-27,2022-06-12,120978
74,74,605,University Library (NU),42.0529,-87.6734,2016-09-30,2022-06-12,16783
75,75,520,Greenview Ave & Jarvis Ave,42.016,-87.6686,2016-09-30,2022-06-12,14590
76,76,296,Broadway & Belmont Ave,41.9401,-87.6455,2013-06-27,2022-06-12,99161
77,77,238,Wolcott (Ravenswood) Ave & Montrose Ave,41.9614,-87.6762,2013-06-27,2022-06-12,36707
78,78,472,Lincoln Ave & Winona St,41.9749,-87.6925,2015-06-30,2022-06-12,13597
79,79,268,Lake Shore Dr & North Blvd,41.9117,-87.6268,2013-06-27,2022-06-12,322413
80,80,526,Oakley Ave & Touhy Ave,42.0123,-87.6882,2016-09-30,2022-06-12,2996
81,81,303,Broadway & Cornelia Ave,41.9455,-87.6464,2013-06-27,2022-06-12,116502
82,82,507,Humboldt Blvd & Armitage Ave,41.9175,-87.7018,2015-06-30,2022-06-12,34001
83,83,210,Ashland Ave & Division St,41.9035,-87.6677,2013-06-27,2022-06-12,145164
84,84,115,Sheffield Ave & Wellington Ave,41.9363,-87.6527,2013-06-27,2022-06-12,114929
85,85,632,Clark St & Newport St,41.9445,-87.6547,2018-10-01,2022-06-12,52964
86,86,406,Lake Park Ave & 35th St,41.8313,-87.6088,2015-06-30,2022-06-12,16462
87,87,144,Larrabee St & Webster Ave,41.9218,-87.6441,2013-06-27,2022-06-12,133509
88,88,76,Lake Shore Dr & Monroe St,41.881,-87.6167,2013-06-27,2022-06-12,388721
89,89,90,Millennium Park,41.881,-87.6241,2013-06-27,2022-06-12,305495
90,90,325,Clark St & Winnemac Ave,41.9733,-87.6678,2013-06-27,2022-06-12,67759
91,91,34,Cannon Dr & Fullerton Ave,41.9268,-87.6344,2013-06-27,2022-06-12,71595
92,92,673,Lincoln Park Conservatory,41.9239,-87.6358,2019-07-01,2022-06-12,35200
93,93,368,Ashland Ave & Archer Ave,41.8392,-87.6656,2015-06-30,2022-06-12,4735
94,94,17,Honore St & Division St,41.9031,-87.6739,2013-06-27,2022-06-12,71352
95,95,186,Ogden Ave & Race Ave,41.8918,-87.6588,2013-06-27,2022-06-12,63879
96,96,504,Campbell Ave & Fullerton Ave,41.9246,-87.6893,2015-06-30,2022-06-12,22123
97,97,276,California Ave & North Ave,41.9104,-87.6972,2013-06-27,2022-06-12,29778
98,98,211,St. Clair St & Erie St,41.8944,-87.6227,2013-06-27,2022-06-12,184051
99,99,212,Wells St & Hubbard St,41.8899,-87.6343,2013-06-27,2022-06-12,153488
100,100,304,Broadway & Waveland Ave,41.9491,-87.6486,2013-06-27,2022-06-12,104368
101,101,464,Damen Ave & Foster Ave,41.9756,-87.6795,2015-06-30,2022-06-12,26896
102,102,183,Damen Ave & Thomas St (Augusta Blvd),41.9013,-87.6774,2013-06-27,2022-06-12,62251
103,103,24,Fairbanks Ct & Grand Ave,41.8918,-87.6206,2013-06-27,2022-06-12,178013
104,104,52,Michigan Ave & Lake St,41.886,-87.6241,2013-06-27,2022-06-12,201397
105,105,248,Woodlawn Ave & 55th St,41.7953,-87.5965,2013-06-27,2022-06-12,35758
106,106,205,Paulina St & 18th St,41.8579,-87.6687,2013-06-27,2022-06-12,31184
107,107,442,California Ave & 23rd Pl,41.8491,-87.6951,2015-06-30,2022-06-12,5825
108,108,208,Laflin St & Cullerton St,41.8549,-87.6636,2013-06-27,2022-06-12,12347
109,109,331,Halsted St & Clybourn Ave,41.9097,-87.6481,2013-06-27,2022-06-12,109353
110,110,623,Michigan Ave & 8th St,41.8728,-87.624,2017-06-30,2022-06-12,76305
111,111,181,LaSalle St & Illinois St,41.8908,-87.6317,2013-06-27,2022-06-12,175516
112,112,202,Halsted St & 18th St,41.8575,-87.6463,2013-06-27,2022-06-12,23852
113,113,255,Indiana Ave & Roosevelt Rd,41.8679,-87.623,2013-06-27,2022-06-12,202598
114,114,598,Elmwood Ave & Austin St,42.0258,-87.6841,2016-09-30,2022-06-12,4846
115,115,519,Wolcott Ave & Fargo Ave,42.017,-87.6777,2016-09-30,2022-06-12,2070
116,116,243,Lincoln Ave & Sunnyside Ave,41.963,-87.6848,2013-06-27,2022-06-12,40934
117,117,154,Southport Ave & Belmont Ave,41.9395,-87.6638,2013-06-27,2022-06-12,57769
118,118,300,Broadway & Barry Ave,41.9377,-87.6441,2013-06-27,2022-06-12,151416
119,119,523,Eastlake Ter & Rogers Ave,42.0209,-87.6651,2016-09-30,2022-06-12,14557
120,120,405,Wentworth Ave & 35th St,41.8308,-87.6325,2016-09-30,2022-06-12,9072
121,121,168,Michigan Ave & 14th St,41.8641,-87.6237,2013-06-27,2022-06-12,83711
122,122,273,Michigan Ave & 18th St,41.8578,-87.6246,2013-06-27,2022-06-12,80159
123,123,2,Buckingham Fountain,41.8765,-87.6205,2015-06-30,2022-06-12,95036
124,124,220,Clark St & Drummond Pl,41.9312,-87.6443,2013-06-27,2022-06-12,129643
125,125,223,Clifton Ave & Armitage Ave,41.9182,-87.6569,2013-06-27,2022-06-12,72078
126,126,123,California Ave & Milwaukee Ave,41.9227,-87.6972,2013-06-27,2022-06-12,81606
127,127,222,Milwaukee Ave & Rockwell St,41.9202,-87.693,2013-06-27,2022-06-12,27672
128,128,193,State St & 29th St,41.8417,-87.6269,2013-06-27,2022-06-12,5984
129,129,305,Western Ave & Division St,41.9029,-87.6873,2013-06-27,2022-06-12,40569
130,130,118,Sedgwick St & North Ave,41.9114,-87.6387,2013-06-27,2022-06-12,108628
131,131,166,Ashland Ave & Wrightwood Ave,41.9288,-87.6685,2013-06-27,2022-06-12,42175
132,132,81,Daley Center Plaza,41.8842,-87.6296,2013-06-27,2022-06-12,208633
133,133,250,Ashland Ave & Wellington Ave,41.9361,-87.6698,2013-06-27,2022-06-12,36864
134,134,581,Commercial Ave & 83rd St,41.7446,-87.5512,2016-09-30,2022-06-12,611
135,135,626,Delano Ct & Roosevelt Rd,41.8675,-87.6322,2017-12-31,2022-06-12,28607
136,136,460,Clark St & Bryn Mawr Ave,41.9836,-87.6692,2015-06-30,2022-06-12,35241
137,137,293,Broadway & Wilson Ave,41.9652,-87.6581,2013-06-27,2022-06-12,52638
138,138,53,Wells St & Huron St,41.8947,-87.6344,2013-06-27,2022-06-12,173644
139,139,69,Damen Ave & Pierce Ave,41.9094,-87.6777,2013-06-27,2022-06-12,159578
140,140,465,Marine Dr & Ainslie St,41.9716,-87.6502,2015-07-31,2022-06-12,43053
141,141,199,Wabash Ave & Grand Ave,41.8915,-87.6268,2013-06-27,2022-06-12,203033
142,142,359,Larrabee St & Division St,41.9035,-87.6434,2015-06-30,2022-06-12,70169
143,143,128,Damen Ave & Chicago Ave,41.8958,-87.6772,2013-06-27,2022-06-12,86467
144,144,306,Sheridan Rd & Buena Ave,41.9585,-87.655,2013-06-27,2022-06-12,52668
145,145,111,Sedgwick St & Huron St,41.8947,-87.6384,2013-06-27,2022-06-12,93682
146,146,350,Ashland Ave & Chicago Ave,41.896,-87.6677,2013-06-27,2022-06-12,56476
147,147,200,MLK Jr Dr & 47th St,41.8099,-87.6163,2013-06-27,2022-06-12,5126
148,148,179,MLK Jr Dr & Pershing Rd,41.8246,-87.6168,2013-06-27,2022-06-12,8989
149,149,336,Cottage Grove Ave & 47th St,41.8099,-87.6068,2013-06-27,2022-06-12,8146
150,150,74,Kingsbury St & Erie St,41.8938,-87.6417,2013-06-27,2022-06-12,159487
151,151,337,Clark St & Chicago Ave,41.8968,-87.6309,2013-06-27,2022-06-12,96588
152,152,153,Southport Ave & Wellington Ave,41.9357,-87.6636,2013-06-27,2022-06-12,96254
153,153,260,Kedzie Ave & Milwaukee Ave,41.9296,-87.7079,2013-06-27,2022-06-12,80526
154,154,236,Sedgwick St & Schiller St,41.9076,-87.6386,2013-06-27,2022-06-12,29329
155,155,194,Wabash Ave & Wacker Pl,41.8869,-87.626,2013-06-27,2022-06-12,112392
156,156,147,Indiana Ave & 26th St,41.8457,-87.6225,2013-06-27,2022-06-12,20895
157,157,332,Burling St & Diversey Pkwy,41.9331,-87.6478,2013-06-27,2022-06-12,84018
158,158,294,Broadway & Berwyn Ave,41.9784,-87.6598,2013-06-27,2022-06-12,52966
159,159,322,Kimbark Ave & 53rd St,41.7996,-87.5947,2013-06-27,2022-06-12,64325
160,160,114,Sheffield Ave & Waveland Ave,41.9494,-87.6545,2013-06-27,2022-06-12,124462
161,161,131,Lincoln Ave & Belmont Ave,41.9394,-87.6684,2013-06-27,2022-06-12,61676
162,162,16,Paulina Ave & North Ave,41.9103,-87.6701,2013-06-27,2022-06-12,63770
163,163,432,Clark St & Lunt Ave,42.0091,-87.6742,2015-06-30,2022-06-12,18346
164,164,107,Desplaines St & Jackson Blvd,41.8783,-87.6439,2015-06-30,2022-06-12,83248
165,165,309,Leavitt St & Armitage Ave,41.9178,-87.6824,2013-06-27,2022-06-12,38268
166,166,206,Halsted St & Archer Ave,41.8472,-87.6468,2013-06-27,2022-06-12,17605
167,167,324,Stockton Dr & Wrightwood Ave,41.9313,-87.6387,2013-06-27,2022-06-12,95231
168,168,54,Ogden Ave & Chicago Ave,41.8964,-87.6541,2013-06-27,2022-06-12,76141
169,169,621,Aberdeen St & Randolph St,41.8841,-87.6543,2018-04-01,2022-06-12,37697
170,170,29,Noble St & Milwaukee Ave,41.9007,-87.6626,2013-06-27,2022-06-12,68710
171,171,214,Damen Ave & Grand Ave,41.8912,-87.6769,2013-06-27,2022-06-12,43960
172,172,290,Kedzie Ave & Palmer Ct,41.9215,-87.7073,2013-06-27,2022-06-12,35775
173,173,620,Orleans St & Chestnut St (NEXT Apts),41.8982,-87.6375,2016-09-30,2022-06-12,45596
174,174,233,Sangamon St & Washington Blvd,41.8832,-87.6511,2013-06-27,2022-06-12,72375
175,175,195,Columbus Dr & Randolph St,41.8847,-87.6195,2013-06-27,2022-06-12,254677
176,176,174,Canal St & Madison St,41.8821,-87.6398,2013-06-27,2022-06-12,232536
177,177,422,DuSable Museum,41.7916,-87.6079,2015-07-31,2022-06-12,5553
178,178,509,Troy St & North Ave,41.9098,-87.7053,2015-06-30,2022-06-12,16712
179,179,152,Lincoln Ave & Diversey Pkwy,41.9322,-87.6586,2013-06-27,2022-06-12,82275
180,180,97,Field Museum,41.8653,-87.6179,2013-06-27,2022-06-12,117139
181,181,498,California Ave & Fletcher St,41.9384,-87.698,2015-06-30,2022-06-12,15289
182,182,130,Damen Ave & Division St,41.9033,-87.6784,2013-06-27,2022-06-12,81443
183,183,510,Spaulding Ave & Division St,41.9027,-87.7092,2015-06-30,2022-06-12,10157
184,184,354,Sheridan Rd & Greenleaf Ave,42.0106,-87.6624,2015-06-30,2022-06-12,14802
185,185,56,Desplaines St & Kinzie St,41.8887,-87.6444,2013-06-27,2022-06-12,174964
186,186,178,State St & 19th St,41.8566,-87.6275,2013-06-27,2022-06-12,26059
187,187,317,Wood St & Taylor St (Temp),41.8692,-87.671,2013-06-27,2022-06-12,48267
188,188,338,Calumet Ave & 18th St,41.8576,-87.6194,2013-06-27,2022-06-12,72213
189,189,381,Western Ave & Monroe St,41.8798,-87.6861,2015-06-30,2022-06-12,10998
190,190,100,Orleans St & Merchandise Mart Plaza,41.8882,-87.6364,2013-06-27,2022-06-12,175554
191,191,182,Wells St & Elm St,41.9032,-87.6343,2015-06-30,2022-06-12,132544
192,192,301,Clark St & Schiller St,41.908,-87.6315,2013-06-27,2022-06-12,131661
193,193,240,Sheridan Rd & Irving Park Rd,41.9542,-87.6544,2013-06-27,2022-06-12,110820
194,194,318,Southport Ave & Irving Park Rd,41.9542,-87.6644,2013-06-27,2022-06-12,50038
195,195,197,Michigan Ave & Madison St,41.8821,-87.6251,2013-06-27,2022-06-12,95694
196,196,263,Rhodes Ave & 32nd St,41.8362,-87.6135,2013-06-27,2022-06-12,22473
197,197,415,Calumet Ave & 51st St,41.8023,-87.6181,2015-06-30,2022-06-12,5127
198,198,106,State St & Pearson St,41.8974,-87.6287,2013-06-27,2022-06-12,92619
199,199,38,Clark St & Lake St,41.886,-87.6309,2015-06-30,2022-06-12,110970
200,200,471,Francisco Ave & Foster Ave,41.9756,-87.7014,2015-06-30,2022-06-12,13382
201,201,145,Mies van der Rohe Way & Chestnut St,41.8986,-87.6219,2015-06-30,2022-06-12,109832
202,202,272,Indiana Ave & 31st St,41.8388,-87.6219,2013-06-27,2022-06-12,27040
203,203,156,Clark St & Wellington Ave,41.9365,-87.6475,2013-06-27,2022-06-12,115546
204,204,31,Franklin St & Chicago Ave,41.8967,-87.6357,2013-06-27,2022-06-12,125287
205,205,14,Morgan St & 18th St,41.8581,-87.6511,2013-06-27,2022-06-12,34601
206,206,41,Federal St & Polk St,41.8721,-87.6295,2015-06-30,2022-06-12,99805
207,207,447,Glenwood Ave & Morse Ave,42.008,-87.6655,2015-06-30,2022-06-12,26022
208,208,159,Claremont Ave & Hirsch St,41.9078,-87.6859,2013-06-27,2022-06-12,22858
209,209,230,Lincoln Ave & Roscoe St*,41.9433,-87.671,2013-06-27,2022-06-12,77686
210,210,101,63rd St Beach,41.781,-87.5761,2015-06-30,2022-06-12,10543
211,211,307,Southport Ave & Clybourn Ave,41.9208,-87.6637,2013-06-27,2022-06-12,63294
212,212,426,Ellis Ave & 60th St,41.7851,-87.6011,2015-06-30,2022-06-12,63995
213,213,36,Franklin St & Jackson Blvd,41.8777,-87.6353,2013-06-27,2022-06-12,173000
214,214,596,Benson Ave & Church St,42.0482,-87.6835,2016-06-30,2022-06-12,30275
215,215,93,Sheffield Ave & Willow St,41.9137,-87.6529,2013-06-27,2022-06-12,81899
216,216,452,Western Ave & Granville Ave,41.9942,-87.6894,2015-06-30,2022-06-12,6724
217,217,225,Halsted St & Dickens Ave,41.9199,-87.6488,2013-06-27,2022-06-12,91233
218,218,15,Racine Ave & 18th St,41.8582,-87.6565,2013-06-27,2022-06-12,41065
219,219,44,State St & Randolph St,41.8847,-87.6277,2013-06-27,2022-06-12,152365
220,220,544,Austin Blvd & Madison St,41.8803,-87.7745,2016-06-30,2022-06-12,1484
221,221,461,Broadway & Ridge Ave,41.984,-87.6603,2015-06-30,2022-06-12,35346
222,222,482,Campbell Ave & Montrose Ave,41.9615,-87.6912,2015-06-30,2022-06-12,18219
223,223,259,California Ave & Francis Pl (Temp),41.9185,-87.6974,2013-06-27,2022-06-12,32463
224,224,150,Fort Dearborn Dr & 31st St,41.8386,-87.6082,2013-06-27,2022-06-12,85233
225,225,192,Canal St & Adams St,41.8793,-87.6399,2013-06-27,2022-06-12,316021
226,226,57,Clinton St & Roosevelt Rd,41.8671,-87.6411,2013-06-27,2022-06-12,60316
227,227,624,Dearborn St & Van Buren St,41.8763,-87.6292,2017-09-30,2022-06-12,29843
228,228,355,South Shore Dr & 67th St,41.7736,-87.5675,2015-06-30,2022-06-12,7234
229,229,454,Broadway & Granville Ave,41.9948,-87.6603,2015-06-30,2022-06-12,39008
230,230,68,Clinton St & Tilden St,41.8759,-87.6408,2013-06-27,2022-06-12,50672
231,231,328,Ellis Ave & 58th St,41.7887,-87.6013,2013-06-27,2022-06-12,46567
232,232,51,Clark St & Randolph St,41.8846,-87.6319,2013-06-27,2022-06-12,133816
233,233,112,Green St & Randolph St*,41.8837,-87.6487,2013-06-27,2022-06-12,118698
234,234,143,Sedgwick St & Webster Ave,41.9222,-87.6389,2013-06-27,2022-06-12,109395
235,235,349,Halsted St & Wrightwood Ave,41.9291,-87.6491,2013-06-27,2022-06-12,97179
236,236,495,Keystone Ave & Montrose Ave,41.9611,-87.729,2015-06-30,2022-06-12,5342
237,237,213,Leavitt St & North Ave,41.9102,-87.6823,2013-06-27,2022-06-12,46435
238,238,672,Franklin St & Illinois St,41.891,-87.6355,2019-07-01,2022-06-12,39277
239,239,42,Wabash Ave & Cermak Rd,41.8526,-87.6265,2013-06-27,2022-06-12,26149
240,240,37,Dearborn St & Adams St,41.8794,-87.6298,2013-06-27,2022-06-12,117164
241,241,418,Ellis Ave & 53rd St,41.7993,-87.601,2015-06-30,2022-06-12,31180
242,242,133,Kingsbury St & Kinzie St,41.8892,-87.6385,2015-06-30,2022-06-12,224433
243,243,73,Jefferson St & Monroe St,41.8804,-87.6427,2013-06-27,2022-06-12,83506
244,244,172,Rush St & Cedar St,41.9023,-87.6277,2015-06-30,2022-06-12,98351
245,245,638,Clinton St & Jackson Blvd,41.8781,-87.6398,2018-07-01,2022-06-12,51950
246,246,334,Lake Shore Dr & Belmont Ave,41.9408,-87.6392,2013-06-27,2022-06-12,139146
247,247,316,Damen Ave & Sunnyside Ave,41.9633,-87.6793,2013-06-27,2022-06-12,24887
248,248,584,Ellis Ave & 83rd St,41.7441,-87.599,2016-09-30,2022-06-12,523
249,249,499,Kosciuszko Park,41.9306,-87.7238,2015-06-30,2022-06-12,13568
250,250,575,Cottage Grove Ave & 78th St,41.7532,-87.605,2016-09-30,2022-06-12,924
251,251,19,Throop (Loomis) St & Taylor St,41.869,-87.6591,2013-06-27,2020-11-07,48553
252,252,28,Larrabee St & Menomonee St,41.9147,-87.6433,2013-06-27,2022-06-12,46771
253,253,563,Ashland Ave & 63rd St,41.7794,-87.6648,2016-06-30,2022-06-12,690
254,254,244,Ravenswood Ave & Irving Park Rd,41.9547,-87.6739,2013-06-27,2022-06-12,40858
255,255,469,St. Louis Ave & Balmoral Ave,41.9804,-87.7161,2015-06-30,2022-06-12,6613
256,256,23,Orleans St & Elm St,41.9029,-87.6377,2013-06-27,2022-06-12,40837
257,257,291,Wells St & Evergreen Ave,41.9067,-87.6348,2013-06-27,2022-06-12,134668
258,258,32,Racine Ave & Congress Pkwy,41.8746,-87.657,2013-06-27,2022-06-12,44859
259,259,85,Michigan Ave & Oak St,41.901,-87.6238,2013-06-27,2022-06-12,310714
260,260,232,Pine Grove Ave & Waveland Ave,41.9493,-87.6463,2013-06-27,2022-06-12,112614
261,261,140,Dearborn Pkwy & Delaware Pl,41.899,-87.6299,2013-06-27,2022-06-12,155625
262,262,47,State St & Kinzie St,41.8892,-87.6278,2013-06-27,2022-06-12,163838
263,263,589,Milwaukee Ave & Cuyler Ave,41.9545,-87.7496,2016-09-30,2022-06-12,3582
264,264,45,Michigan Ave & Ida B Wells Dr,41.8762,-87.6244,2013-06-27,2022-06-12,83586
265,265,117,Wilton Ave & Belmont Ave,41.9402,-87.653,2013-06-27,2022-06-12,165587
266,266,602,Central St & Girard Ave,42.0643,-87.6862,2016-09-30,2022-06-12,7084
267,267,604,Sheridan Rd & Noyes St (NU),42.0582,-87.6774,2016-09-30,2022-06-12,21658
268,268,463,Clark St & Berwyn Ave,41.978,-87.668,2015-06-30,2022-06-12,56082
269,269,487,California Ave & Byron St,41.9522,-87.6981,2015-07-31,2022-06-12,11288
270,270,20,Sheffield Ave & Kingsbury St,41.9105,-87.6531,2013-06-27,2022-06-12,91024
271,271,160,Campbell Ave & North Ave,41.9105,-87.6896,2013-06-27,2022-06-12,35849
272,272,46,Wells St & Walton St,41.8999,-87.6344,2013-06-27,2022-06-12,72366
273,273,486,Oakley Ave & Irving Park Rd,41.9543,-87.6861,2015-06-30,2022-06-12,14591
274,274,366,Loomis St & Archer Ave,41.8416,-87.6574,2015-06-30,2022-06-12,8062
275,275,429,Cottage Grove Ave & 67th St,41.7737,-87.6056,2015-06-30,2022-06-12,1782
276,276,21,Aberdeen St & Jackson Blvd,41.8777,-87.6548,2013-06-27,2022-06-12,87705
277,277,496,Avers Ave & Belmont Ave,41.9394,-87.7236,2015-06-30,2022-06-12,9605
278,278,283,LaSalle St & Jackson Blvd,41.8782,-87.6319,2013-06-27,2022-06-12,173006
279,279,217,Elizabeth (May) St & Fulton St,41.8866,-87.658,2013-06-27,2022-06-12,55848
280,280,292,Southport Ave & Clark St,41.9571,-87.6642,2013-06-27,2022-06-12,25012
281,281,119,Ashland Ave & Lake St,41.8859,-87.6672,2013-06-27,2022-06-12,39348
282,282,351,Cottage Grove Ave & 51st St,41.803,-87.6066,2013-06-27,2022-06-12,7739
283,283,481,California Ave & Montrose Ave,41.9611,-87.6954,2015-07-31,2022-06-12,14795
284,284,253,Winthrop Ave & Lawrence Ave,41.9688,-87.6577,2013-06-27,2022-06-12,38264
285,285,302,Sheffield Ave & Wrightwood Ave,41.9287,-87.6538,2013-06-27,2022-06-12,86051
286,286,298,Lincoln Ave & Belle Plaine Ave,41.956,-87.6803,2013-06-27,2022-06-12,40340
287,287,138,Clybourn Ave & Division St,41.9046,-87.6406,2013-06-27,2022-06-12,52690
288,288,493,Western Ave & Roscoe St,41.943,-87.6873,2015-06-30,2022-06-12,20615
289,289,5,State St & Harrison St,41.8741,-87.6277,2013-06-27,2022-06-12,72331
290,290,224,Halsted St & Willow St,41.9139,-87.6488,2013-06-27,2022-06-12,66072
291,291,645,Archer (Damen) Ave & 37th St,41.8267,-87.6831,2019-01-01,2022-06-12,2037
292,292,196,Cityfront Plaza Dr & Pioneer Ct,41.8906,-87.6221,2013-06-27,2022-06-12,108302
293,293,108,Halsted St & Polk St,41.8718,-87.6466,2013-06-27,2022-06-12,68434
294,294,122,Ogden Ave & Congress Pkwy,41.875,-87.6733,2013-06-27,2022-06-12,21017
295,295,258,Logan Blvd & Elston Ave,41.9295,-87.6842,2013-06-27,2022-06-12,41158
296,296,457,Clark St & Elmdale Ave,41.9905,-87.6698,2015-06-30,2022-06-12,18999
297,297,7,Field Blvd & South Water St,41.8863,-87.6175,2015-06-30,2022-06-12,79881
298,298,126,Clark St & North Ave,41.912,-87.6319,2013-06-27,2022-06-12,100916
299,299,287,Franklin St & Monroe St,41.8803,-87.6352,2013-06-27,2022-06-12,211873
300,300,264,Stetson Ave & South Water St,41.8868,-87.6223,2013-06-27,2022-06-12,107935
301,301,297,Paulina St & Montrose Ave,41.9615,-87.6714,2013-06-27,2022-06-12,22368
302,302,121,Blackstone Ave & Hyde Park Blvd,41.8026,-87.5904,2013-06-27,2022-06-12,28894
303,303,343,Racine Ave & Wrightwood Ave,41.9289,-87.659,2013-06-27,2022-06-12,48473
304,304,158,Milwaukee Ave & Wabansia Ave,41.9126,-87.6814,2013-06-27,2022-06-12,78626
305,305,631,Malcolm X College,41.8776,-87.6739,2018-07-01,2022-06-12,5531
306,306,480,Albany Ave & Montrose Ave,41.961,-87.7059,2015-06-30,2022-06-12,9563
307,307,628,Walsh Park,41.9146,-87.668,2018-07-01,2022-06-12,20164
308,308,491,Talman Ave & Addison St,41.9466,-87.6946,2015-06-30,2022-06-12,16550
309,309,459,Lakefront Trail & Bryn Mawr Ave,41.984,-87.6523,2015-06-30,2022-06-12,88337
310,310,310,Damen Ave & Charleston St,41.9201,-87.6779,2013-06-27,2022-06-12,39239
311,311,417,Cornell Ave & Hyde Park Blvd,41.8024,-87.5869,2015-06-30,2022-06-12,45180
312,312,149,Calumet Ave & 33rd St,41.8349,-87.6179,2013-06-27,2022-06-12,29590
313,313,462,Winchester (Ravenswood) Ave & Balmoral Ave,41.9798,-87.6775,2015-06-30,2022-06-12,14090
314,314,256,Broadway & Sheridan Rd,41.9528,-87.65,2013-06-27,2022-06-12,70034
315,315,190,Southport Ave & Wrightwood Ave,41.9288,-87.6639,2013-06-27,2022-06-12,68456
316,316,478,Rockwell St & Eastwood Ave,41.9659,-87.6936,2015-06-30,2022-06-12,17799
317,317,451,Sheridan Rd & Loyola Ave,42.001,-87.6612,2015-06-30,2022-06-12,29251
318,318,497,Kimball Ave & Belmont Ave,41.9394,-87.7116,2015-06-30,2022-06-12,13795
319,319,490,Troy St & Elston Ave,41.9452,-87.7066,2015-06-30,2022-06-12,14582
320,320,500,Central Park Ave & Elbridge Ave,41.9353,-87.7169,2015-06-30,2022-06-12,10708
321,321,98,LaSalle St & Washington St,41.8827,-87.6325,2013-06-27,2022-06-12,108241
322,322,532,Austin Blvd & Lake St,41.8879,-87.7744,2016-06-30,2022-06-12,2832
323,323,251,Clarendon Ave & Leland Ave,41.968,-87.65,2013-06-27,2022-06-12,40836
324,324,458,Broadway & Thorndale Ave,41.9897,-87.6601,2015-06-30,2022-06-12,35015
325,325,315,Elston Ave & Wabansia Ave,41.9129,-87.6642,2013-06-27,2022-06-12,25190
326,326,603,Chicago Ave & Sheridan Rd,42.0505,-87.6778,2016-09-30,2022-06-12,18261
327,327,383,Paulina St & Flournoy St,41.873,-87.6691,2015-06-30,2022-06-12,46558
328,328,394,Clark St & 9th St (AMLI),41.8708,-87.6312,2015-08-31,2022-06-12,33844
329,329,48,Larrabee St & Kingsbury St,41.8978,-87.6429,2013-06-27,2022-06-12,157846
330,330,515,Paulina St & Howard St,42.0192,-87.6736,2016-09-30,2022-06-12,12377
331,331,226,Racine Ave & Belmont Ave,41.9397,-87.6589,2013-06-27,2022-06-12,76342
332,332,261,Hermitage Ave & Polk St,41.8715,-87.6699,2013-06-27,2022-06-12,39473
333,333,89,Financial Pl & Ida B Wells Dr,41.875,-87.6331,2015-06-30,2022-06-12,62002
334,334,488,Pulaski Rd & Eddy St (Temp),41.9463,-87.731,2015-06-30,2022-06-12,3624
335,335,352,Jeffery Blvd & 67th St,41.7735,-87.5771,2015-06-30,2022-06-12,4342
336,336,382,Western Ave & Congress Pkwy,41.8747,-87.6864,2015-06-30,2022-06-12,15419
337,337,288,Larrabee St & Armitage Ave,41.9181,-87.6437,2013-06-27,2022-06-12,64025
338,338,423,University Ave & 57th St,41.7915,-87.5999,2015-06-30,2022-06-12,83838
339,339,295,Broadway & Argyle St,41.9738,-87.6597,2013-06-27,2022-06-12,46009
340,340,327,Sheffield Ave & Webster Ave,41.9215,-87.6538,2013-06-27,2022-06-12,101111
341,341,22,May St & Taylor St,41.8695,-87.6555,2013-06-27,2022-06-12,68350
342,342,410,Prairie Ave & 43rd St,41.8167,-87.6194,2015-06-30,2022-06-12,4802
343,343,308,Seeley Ave & Roscoe St,41.9434,-87.6796,2013-06-27,2022-06-12,34314
344,344,622,California Ave & Cortez St,41.9004,-87.6967,2017-06-30,2022-06-12,22586
345,345,30,Ashland Ave & Augusta Blvd,41.8996,-87.6677,2013-06-27,2022-06-12,49260
346,346,215,Damen Ave & Madison St,41.8814,-87.6749,2013-06-27,2022-06-12,21707
347,347,96,Desplaines St & Randolph St,41.8846,-87.6446,2015-06-30,2022-06-12,76718
348,348,58,Marshfield Ave & Cortland St,41.916,-87.6689,2013-06-27,2022-06-12,114908
349,349,124,Damen Ave & Cullerton St,41.855,-87.6757,2013-06-27,2022-06-12,16890
350,350,39,Wabash Ave & Adams St,41.8795,-87.6257,2015-06-30,2022-06-12,79306
351,351,453,Clark St & Schreiber Ave,41.9993,-87.6714,2015-06-30,2022-06-12,13622
352,352,163,Damen Ave & Clybourn Ave,41.9319,-87.6779,2013-06-27,2022-06-12,30338
353,353,333,Ashland Ave & Blackhawk St,41.9071,-87.6673,2013-06-27,2022-06-12,61005
354,354,175,Wells St & Polk St,41.8726,-87.6335,2013-06-27,2022-06-12,80298
355,355,601,Central St Metra,42.0636,-87.6987,2016-06-30,2022-06-12,7721
356,356,540,Laramie Ave & Madison St,41.8802,-87.7553,2016-06-30,2022-06-12,830
357,357,239,Western Ave & Leland Ave,41.9665,-87.6884,2013-06-27,2022-06-12,47521
358,358,323,Sheridan Rd & Lawrence Ave,41.9695,-87.6547,2013-06-27,2022-06-12,32619
359,359,341,Adler Planetarium,41.8661,-87.6073,2013-06-27,2022-06-12,146615
360,360,146,Loomis St & Jackson Blvd,41.8779,-87.662,2013-06-27,2022-06-12,41268
361,361,456,2112 W Peterson Ave,41.9912,-87.6836,2015-06-30,2022-06-12,4669
362,362,203,Western Ave & 21st St,41.8541,-87.6858,2013-06-27,2022-06-12,11422
363,363,148,State St & 33rd St,41.8347,-87.6258,2013-06-27,2022-06-12,54362
364,364,425,Harper Ave & 59th St,41.7879,-87.5883,2015-06-30,2022-06-12,20250
365,365,477,Manor Ave & Leland Ave,41.9659,-87.7008,2015-06-30,2022-06-12,9961
366,366,660,Sheridan Rd & Columbia Ave,42.0046,-87.6614,2018-10-01,2022-06-12,11073
367,367,228,Damen Ave & Melrose Ave,41.9406,-87.6785,2013-06-27,2022-06-12,26166
368,368,229,Southport Ave & Roscoe St,41.9437,-87.664,2013-06-27,2022-06-12,113523
369,369,91,Clinton St & Washington Blvd,41.8834,-87.6412,2013-06-27,2022-06-12,330001
370,370,234,Clark St & Montrose Ave,41.9616,-87.666,2013-06-27,2022-06-12,39987
371,371,501,Richmond St & Diversey Ave,41.9319,-87.7012,2015-06-30,2022-06-12,16514
372,372,49,Dearborn St & Monroe St,41.8813,-87.6295,2013-06-27,2022-06-12,176454
373,373,413,Woodlawn Ave & Lake Park Ave,41.8141,-87.597,2015-06-30,2022-06-12,9299
374,374,280,Morgan St & 31st St,41.8378,-87.6511,2013-06-27,2022-06-12,18636
375,375,619,Keystone Ave & Fullerton Ave,41.9246,-87.7279,2016-09-30,2022-06-12,5123
376,376,27,Larrabee St & North Ave,41.9102,-87.6435,2013-06-27,2022-06-12,42529
377,377,6,Dusable Harbor,41.887,-87.6128,2015-06-30,2022-06-12,132667
378,378,184,State St & 35th St,41.8309,-87.628,2013-06-27,2022-06-12,24371
379,379,448,Warren Park East,42.0046,-87.6807,2015-06-30,2022-06-12,6096
380,380,370,Calumet Ave & 21st St,41.8542,-87.6192,2015-06-30,2022-06-12,25870
381,381,286,Franklin St & Adams St (Temp),41.8794,-87.6355,2013-06-27,2022-06-12,105106
382,382,494,Kedzie Ave & Bryn Mawr Ave,41.9824,-87.7089,2015-06-30,2022-06-12,5428
383,383,257,Lincoln Ave & Waveland Ave,41.9488,-87.6753,2013-06-27,2022-06-12,36594
384,384,345,Lake Park Ave & 56th St,41.7932,-87.5878,2013-06-27,2022-06-12,41697
385,385,66,Clinton St & Lake St,41.8856,-87.6418,2013-06-27,2022-06-12,171133
386,386,319,Greenview Ave & Diversey Pkwy,41.9326,-87.6659,2013-06-27,2022-06-12,37463
387,387,209,Normal Ave & Archer Ave,41.8495,-87.6406,2013-06-27,2022-06-12,10352
388,388,278,Wallace St & 35th St,41.8306,-87.6413,2013-06-27,2022-06-12,13136
389,389,636,Orleans St & Hubbard St,41.89,-87.6366,2018-07-01,2022-06-12,30893
390,390,242,Damen Ave & Leland Ave,41.9671,-87.679,2013-06-27,2022-06-12,43736
391,391,597,Chicago Ave & Washington St,42.0326,-87.6791,2016-06-30,2022-06-12,19023
392,392,550,Central Ave & Chicago Ave,41.895,-87.7649,2016-09-30,2022-06-12,1626
393,393,450,Warren Park West,42.0018,-87.6888,2015-06-30,2022-06-12,5896
394,394,402,Shields Ave & 31st St,41.8385,-87.6354,2015-06-30,2022-06-12,16484
395,395,484,Monticello Ave & Irving Park Rd,41.954,-87.7191,2015-06-30,2022-06-12,9096
396,396,533,Central Park Blvd & 5th Ave,41.8757,-87.7155,2016-06-30,2022-06-12,1054
397,397,511,Albany Ave & Bloomingdale Ave,41.914,-87.7051,2015-06-30,2022-06-12,31384
398,398,116,Western Ave & Winnebago Ave,41.9155,-87.687,2013-06-27,2022-06-12,66123
399,399,241,Morgan St & Polk St,41.8717,-87.651,2013-06-27,2022-06-12,93716
400,400,219,Damen Ave & Cortland St,41.916,-87.6773,2013-06-27,2022-06-12,79908
401,401,282,Halsted St & Maxwell St,41.8649,-87.6471,2013-06-27,2022-06-12,54403
402,402,420,Ellis Ave & 55th St,41.7943,-87.6015,2015-06-30,2022-06-12,57516
403,403,75,Canal St & Jackson Blvd,41.8772,-87.6394,2013-06-27,2022-06-12,141228
404,404,271,Cottage Grove Ave & 43rd St,41.8165,-87.6066,2013-06-27,2022-06-12,5983
405,405,505,Winchester Ave & Elston Ave,41.9241,-87.6765,2015-06-30,2022-06-12,19908
406,406,430,MLK Jr Dr & 63rd St,41.7801,-87.6159,2015-06-30,2022-06-12,1557
407,407,252,Greenwood Ave & 47th St,41.8098,-87.5994,2013-06-27,2022-06-12,14435
408,408,185,Stave St & Armitage Ave,41.9177,-87.6914,2013-06-27,2022-06-12,24762
409,409,411,Halsted St & 47th Pl,41.8081,-87.6456,2015-06-30,2022-06-12,2930
410,410,33,State St & Van Buren St,41.8772,-87.6278,2013-06-27,2022-06-12,100104
411,411,502,California Ave & Altgeld St,41.9267,-87.6977,2015-06-30,2022-06-12,21707
412,412,246,Ashland Ave & Belle Plaine Ave,41.9561,-87.6688,2013-06-27,2022-06-12,23141
413,413,99,Lake Shore Dr & Ohio St,41.8926,-87.6145,2013-06-27,2022-06-12,146150
414,414,339,Emerald Ave & 31st St,41.8382,-87.6451,2013-06-27,2022-06-12,28858
415,415,326,Clark St & Leland Ave,41.9671,-87.6674,2013-06-27,2022-06-12,48809
416,416,284,Michigan Ave & Jackson Blvd,41.8779,-87.6241,2013-06-27,2022-06-12,132056
417,417,427,Cottage Grove Ave & 63rd St,41.7806,-87.6061,2015-06-30,2022-06-12,4812
418,418,506,Spaulding Ave & Armitage Ave,41.9171,-87.7102,2015-06-30,2022-06-12,24597
419,419,40,LaSalle St & Adams St,41.8793,-87.632,2015-06-30,2022-06-12,55097
420,420,103,Clinton St & Polk St,41.8715,-87.6409,2015-06-30,2022-06-12,13282
421,421,559,Racine Ave & Garfield Blvd,41.7942,-87.6551,2016-06-30,2022-06-12,934
422,422,25,Michigan Ave & Pearson St,41.8977,-87.6235,2013-06-27,2022-06-12,111728
423,423,55,Halsted St & Roosevelt Rd,41.8673,-87.6486,2013-06-27,2022-06-12,41354
424,424,87,Racine Ave & Fullerton Ave,41.9256,-87.6584,2013-06-27,2022-06-12,78098
425,425,527,Western Ave & Howard St,42.0189,-87.69,2016-09-30,2022-06-12,4191
426,426,467,Western Ave & Lunt Ave,42.0086,-87.6905,2015-06-30,2022-06-12,8555
427,427,285,Wood St & Hubbard St,41.8899,-87.6715,2013-06-27,2022-06-12,32535
428,428,637,Wood St & Chicago Ave,41.8956,-87.6721,2018-07-01,2022-06-12,19564
429,429,489,Drake Ave & Addison St,41.9473,-87.7176,2015-06-30,2022-06-12,9384
430,430,207,Emerald Ave & 28th St,41.8436,-87.6454,2013-06-27,2022-06-12,17291
431,431,375,Sacramento Blvd & Franklin Blvd,41.8905,-87.7026,2015-06-30,2022-06-12,2981
432,432,522,Bosworth Ave & Howard St,42.0195,-87.6696,2016-09-30,2022-06-12,4354
433,433,485,Sawyer Ave & Irving Park Rd,41.9536,-87.7093,2015-06-30,2022-06-12,7823
434,434,443,Millard Ave & 26th St,41.8446,-87.7159,2015-06-30,2022-06-12,1942
435,435,204,Prairie Ave & Garfield Blvd,41.7949,-87.6187,2013-06-27,2022-06-12,11723
436,436,658,Leavitt St & Division St,41.903,-87.6838,2018-10-01,2022-06-12,11967
437,437,376,Artesian Ave & Hubbard St,41.8895,-87.6882,2015-06-30,2022-06-12,33960
438,438,335,Calumet Ave & 35th St,41.8314,-87.618,2013-06-27,2022-06-12,9913
439,439,666,Cherry Ave & Blackhawk St,41.9072,-87.6556,2019-07-01,2022-06-12,4001
440,440,419,Lake Park Ave & 53rd St,41.7995,-87.5864,2015-06-30,2022-06-12,33780
441,441,407,State St & Pershing Rd,41.823,-87.6266,2015-06-30,2022-06-12,1588
442,442,137,Morgan Ave & 14th Pl,41.8624,-87.6511,2013-06-27,2022-06-12,37643
443,443,449,Clark St & Columbia Ave,42.0045,-87.6724,2015-06-30,2022-06-12,13223
444,444,440,Central Park Ave & 24th St,41.8481,-87.7151,2015-06-30,2022-06-12,874
445,445,136,Racine Ave & 13th St,41.8651,-87.657,2013-06-27,2022-06-12,9002
446,446,518,Conservatory Dr & Lake St,41.8855,-87.7169,2016-06-30,2022-06-12,4351
447,447,364,Larrabee St & Oak St,41.9002,-87.643,2015-06-30,2022-06-12,57177
448,448,330,Lincoln Ave & Addison St,41.9462,-87.6733,2013-06-27,2022-06-12,22116
449,449,653,Cornell Dr & Hayes Dr,41.7806,-87.5848,2018-10-01,2022-06-12,1401
450,450,431,Eberhart Ave & 61st St,41.7841,-87.6133,2015-06-30,2022-06-12,2078
451,451,18,Wacker Dr & Washington St,41.8831,-87.6373,2015-06-30,2022-06-12,95111
452,452,267,Lake Park Ave & 47th St,41.8094,-87.5919,2013-06-27,2022-06-12,21459
453,453,438,Central Park Ave & Ogden Ave,41.8542,-87.7154,2015-06-30,2022-05-11,2830
454,454,62,McCormick Place,41.8514,-87.6188,2013-06-27,2022-06-12,49133
455,455,373,Kedzie Ave & Chicago Ave,41.8955,-87.7061,2015-06-30,2022-06-12,5382
456,456,171,May St & Cullerton St,41.8551,-87.6541,2013-06-27,2022-06-12,14389
457,457,558,Ashland Ave & Garfield Blvd,41.7928,-87.6644,2016-06-30,2022-06-12,513
458,458,546,Damen Ave & Pershing Rd,41.8232,-87.6766,2016-06-30,2022-06-12,2141
459,459,551,Hoyne Ave & 47th St,41.8082,-87.6772,2016-06-30,2022-06-12,1291
460,460,594,Western Blvd & 48th Pl,41.8057,-87.6834,2016-06-30,2022-06-12,1653
461,461,281,Western Ave & 24th St,41.8485,-87.6851,2013-06-27,2022-06-12,5330
462,462,385,Princeton Ave & Garfield Blvd,41.795,-87.6331,2015-06-30,2022-06-12,2540
463,463,11,Jeffery Blvd & 71st St,41.7666,-87.5764,2015-06-30,2022-06-12,2700
464,464,437,Washtenaw Ave & Ogden Ave,41.8619,-87.6935,2015-06-30,2022-06-12,6660
465,465,365,Halsted St & North Branch St,41.8994,-87.6485,2015-06-30,2022-06-12,15685
466,466,446,Western Ave & 28th St,41.8415,-87.6851,2015-06-30,2022-06-12,1561
467,467,552,Ashland Ave & McDowell Ave,41.8089,-87.6645,2016-06-30,2022-06-12,2150
468,468,557,Seeley Ave & Garfield Blvd,41.7941,-87.6755,2016-09-30,2022-06-12,308
469,469,170,Clinton St & 18th St,41.858,-87.6408,2013-06-27,2022-06-12,22706
470,470,590,Kilbourn Ave & Irving Park Rd,41.9537,-87.7406,2016-09-30,2022-06-12,3383
471,471,433,Kedzie Ave & Harrison St,41.8736,-87.7049,2015-06-30,2022-06-12,1335
472,472,625,Chicago Ave & Dempster St,42.0417,-87.6807,2017-09-30,2020-11-07,6643
473,473,599,Valli Produce - Evanston Plaza,42.0397,-87.6994,2016-09-30,2022-06-12,4163
474,474,585,Cottage Grove Ave & 83rd St,41.7434,-87.6048,2016-09-30,2022-06-12,1145
475,475,314,Ravenswood Ave & Berteau Ave,41.9579,-87.6736,2013-06-27,2022-06-12,29685
476,476,348,California Ave & 21st St,41.8538,-87.6957,2013-06-27,2022-06-12,7637
477,477,265,Cottage Grove Ave & Oakwood Blvd,41.823,-87.6071,2013-06-27,2022-06-12,12160
478,478,600,Dodge Ave & Church St,42.0483,-87.6982,2016-06-30,2022-06-12,5206
479,479,408,Union Ave & Root St,41.8191,-87.6433,2015-06-30,2022-06-12,2411
480,480,571,Vernon Ave & 75th St,41.7584,-87.6141,2016-09-30,2022-06-12,928
481,481,468,Budlong Woods Library,41.9837,-87.6964,2015-06-30,2022-06-12,5517
482,482,135,Halsted St & 21st St,41.8538,-87.6466,2013-06-27,2022-06-12,12718
483,483,378,California Ave & Lake St,41.8845,-87.6963,2015-06-30,2022-06-12,5480
484,484,132,Wentworth Ave & 24th St (Temp),41.8501,-87.6321,2013-06-27,2022-06-12,12660
485,485,547,Ashland Ave & Pershing Rd,41.8235,-87.6656,2016-06-30,2022-06-12,1714
486,486,277,Ashland Ave & Grand Ave,41.8911,-87.6666,2013-06-27,2022-06-12,37691
487,487,120,Wentworth Ave & Cermak Rd,41.853,-87.6306,2013-06-27,2022-06-12,47675
488,488,3,Shedd Aquarium,41.8672,-87.6154,2015-06-30,2022-06-12,185117
489,489,548,Morgan St & Pershing Rd,41.8236,-87.6509,2016-06-30,2022-06-12,668
490,490,177,Theater on the Lake,41.9263,-87.6308,2013-06-27,2022-06-12,328851
491,491,369,Wood St & 35th St,41.8301,-87.6703,2015-06-30,2022-06-12,3721
492,492,169,Canal St & Harrison St,41.8743,-87.6396,2013-06-27,2022-06-12,29415
493,493,274,Racine Ave & 15th St,41.8613,-87.6566,2013-06-27,2022-06-12,19788
494,494,524,Austin Blvd & Chicago Ave,41.8949,-87.7747,2016-09-30,2022-06-12,1304
495,495,311,Leavitt St & Lawrence Ave,41.9689,-87.684,2013-06-27,2022-06-12,23596
496,496,439,Kedzie Ave & 21st St,41.8535,-87.7051,2015-06-30,2022-06-12,2763
497,497,403,Wentworth Ave & 33rd St,41.8345,-87.6318,2015-06-30,2022-06-12,13134
498,498,412,Princeton Ave & 47th St,41.8093,-87.6334,2015-06-30,2022-06-12,2489
499,499,595,Wabash Ave & 87th St,41.7366,-87.6226,2016-09-30,2022-06-12,1089
500,500,466,Ridge Blvd & Touhy Ave,42.0121,-87.6829,2015-06-30,2022-06-12,4640
501,501,416,Dorchester Ave & 49th St,41.8058,-87.5925,2015-06-30,2022-06-12,7129
502,502,654,Racine Ave & Washington Blvd,41.8831,-87.657,2018-10-01,2022-06-12,15348
503,503,470,Kedzie Ave & Foster Ave,41.9757,-87.7093,2015-06-30,2022-06-12,7357
504,504,586,MLK Jr Dr & 83rd St,41.7431,-87.6148,2016-09-30,2022-06-12,629
505,505,663,Lincolnwood Dr & Central St,42.0649,-87.7153,2018-10-01,2022-06-12,2581
506,506,201,Indiana Ave & 40th St,41.8217,-87.6216,2013-06-27,2022-06-12,3785
507,507,587,Wabash Ave & 83rd St,41.7433,-87.6228,2016-09-30,2022-06-12,434
508,508,514,Ridge Blvd & Howard St,42.0193,-87.6845,2016-09-30,2022-06-12,3913
509,509,492,Leavitt St & Addison St,41.9467,-87.6834,2015-06-30,2022-06-12,14293
510,510,573,State St & 79th St,41.7508,-87.6244,2016-09-30,2022-06-12,1738
511,511,275,Ashland Ave & 13th St,41.8652,-87.6665,2013-06-27,2022-06-12,16656
512,512,400,Cottage Grove Ave & 71st St,41.7657,-87.605,2015-06-30,2022-06-12,935
513,513,162,Damen Ave & Wellington Ave,41.9359,-87.6784,2013-06-27,2022-06-12,33604
514,514,474,Christiana Ave & Lawrence Ave,41.9684,-87.7118,2015-06-30,2022-06-12,10356
515,515,539,Cicero Ave & Quincy St,41.8776,-87.7454,2016-06-30,2022-06-12,559
516,516,593,Halsted St & 59th St,41.7875,-87.6449,2016-09-30,2022-06-12,287
517,517,428,Dorchester Ave & 63rd St,41.7804,-87.5914,2015-06-30,2022-06-12,4657
518,518,525,Glenwood Ave & Touhy Ave,42.0127,-87.6661,2016-09-30,2022-06-12,7577
519,519,541,Central Ave & Harrison St,41.873,-87.7645,2016-06-30,2022-06-12,755
520,520,441,Kedzie Ave & 24th St,41.8482,-87.7054,2015-06-30,2022-06-12,1301
521,521,435,Kedzie Ave & Roosevelt Rd,41.8665,-87.7065,2015-06-30,2022-06-12,2464
522,522,421,MLK Jr Dr & 56th St,41.7934,-87.6159,2015-06-30,2022-06-12,2189
523,523,12,South Shore Dr & 71st St,41.7664,-87.5657,2015-06-30,2022-06-12,8340
524,524,588,South Chicago Ave & 83rd St,41.7439,-87.5752,2016-09-30,2022-06-12,372
525,525,664,Leavitt St & Belmont Ave,41.9394,-87.6833,2018-10-01,2022-06-12,10143
526,526,646,State St & 54th St,41.7966,-87.6259,2018-10-01,2022-06-12,693
527,527,483,Avondale Ave & Irving Park Rd,41.9534,-87.732,2015-06-30,2022-06-12,10648
528,528,393,Calumet Ave & 71st St,41.7655,-87.6169,2015-06-30,2022-06-12,530
529,529,479,Drake Ave & Montrose Ave,41.9612,-87.7166,2015-06-30,2022-06-12,8895
530,530,167,Damen Ave & Coulter St,41.8492,-87.6756,2013-06-27,2022-06-12,3906
531,531,528,Pulaski Rd & Lake St,41.8854,-87.7265,2016-06-30,2022-06-12,1154
532,532,536,Kostner Ave & Lake St,41.8859,-87.7354,2016-06-30,2022-06-12,423
533,533,530,Laramie Ave & Kinzie St,41.8878,-87.7555,2016-06-30,2022-06-12,709
534,534,529,Cicero Ave & Lake St,41.8868,-87.7453,2016-06-30,2022-06-12,796
535,535,476,Kedzie Ave & Leland Ave,41.9667,-87.7081,2015-06-30,2022-06-12,9124
536,536,592,Knox Ave & Montrose Ave,41.9606,-87.7454,2016-09-30,2022-06-12,3524
537,537,399,South Shore Dr & 74th St,41.7622,-87.5593,2015-06-30,2022-06-12,3830
538,538,353,Clark St & Touhy Ave,42.0126,-87.6744,2015-06-30,2022-06-12,4900
539,539,401,Shields Ave & 28th Pl,41.8427,-87.6355,2015-06-30,2022-06-12,9056
540,540,583,Stony Island Ave & 82nd St,41.7466,-87.586,2016-09-30,2022-06-12,838
541,541,662,Dodge Ave & Mulford St,42.0235,-87.6996,2018-10-01,2022-06-12,2007
542,542,395,Jeffery Blvd & 76th St,41.7571,-87.5758,2015-06-30,2022-06-12,1167
543,543,564,Racine Ave & 65th St,41.7754,-87.6543,2016-09-30,2022-06-12,262
544,544,396,Yates Blvd & 75th St,41.7588,-87.5664,2015-06-30,2022-06-12,1246
545,545,562,Racine Ave & 61st St,41.7832,-87.6544,2016-09-30,2022-06-12,154
546,546,444,Albany Ave & 26th St,41.8445,-87.702,2015-06-30,2022-06-12,1708
548,548,270,Stony Island Ave & 75th St,41.7587,-87.5869,2015-06-30,2022-06-12,1745
549,549,579,Phillips Ave & 79th St,41.7518,-87.5652,2016-09-30,2022-06-12,1092
550,550,591,Kilbourn Ave & Milwaukee Ave,41.9488,-87.74,2016-09-30,2022-06-12,2988
551,551,95,Stony Island Ave & 64th St,41.7789,-87.5866,2015-06-30,2022-06-12,2775
552,552,568,Vincennes Ave & 75th St,41.758,-87.6312,2016-06-30,2022-06-12,351
553,553,534,Karlov Ave & Madison St,41.8809,-87.7279,2016-06-30,2022-06-12,851
554,554,543,Laramie Ave & Gladys Ave,41.8758,-87.7553,2016-06-30,2022-06-12,464
555,555,640,Bernard St & Elston Ave,41.9499,-87.7139,2018-10-01,2022-06-12,3708
556,556,641,Central Park Ave & Bloomingdale Ave,41.9142,-87.7168,2018-10-01,2022-06-12,8988
557,557,388,Halsted St & 63rd St,41.7794,-87.6446,2015-06-30,2022-06-12,1663
558,558,535,Pulaski Rd & Congress Pkwy,41.8743,-87.7257,2016-06-30,2022-06-12,895
559,559,356,Stony Island Ave & 71st St,41.7665,-87.5865,2015-06-30,2022-06-12,2245
560,560,630,Kildare Ave & Montrose Ave,41.9611,-87.7357,2018-07-01,2022-06-12,2196
561,561,644,Western Ave & Fillmore St,41.8686,-87.6862,2018-10-01,2022-06-12,12804
562,562,574,Vernon Ave & 79th St,41.7509,-87.6138,2016-09-30,2022-06-12,707
563,563,218,Wells St & 19th St,41.8568,-87.6339,2013-06-27,2022-06-12,15112
564,564,577,Stony Island Ave & South Chicago Ave,41.7512,-87.5853,2016-09-30,2022-06-12,650
565,565,390,Wentworth Ave & 63rd St,41.7801,-87.6297,2015-06-30,2022-06-12,1605
566,566,262,Halsted St & 37th St,41.8271,-87.6457,2013-06-27,2022-06-12,4889
567,567,570,Evans Ave & 75th St,41.7585,-87.6064,2016-09-30,2022-06-12,1156
568,568,572,State St & 76th St,41.757,-87.6246,2016-06-30,2022-06-12,492
569,569,650,Eggleston Ave & 69th St,41.7689,-87.6359,2018-10-01,2022-06-12,430
570,570,545,Kostner Ave & Adams St,41.8779,-87.7357,2016-06-30,2022-06-12,851
571,571,569,Woodlawn Ave & 75th St,41.7592,-87.5958,2016-09-30,2022-06-12,311
572,572,651,Michigan Ave & 71st St,41.7653,-87.6217,2018-10-01,2022-06-12,295
573,573,102,Stony Island Ave & 67th St,41.7735,-87.5853,2015-06-30,2022-06-12,2786
574,574,656,Damen Ave & Walnut (Lake) St,41.886,-87.677,2018-10-01,2022-06-12,7601
575,575,655,Hoyne Ave & Balmoral Ave,41.9799,-87.6819,2018-10-01,2022-06-12,6230
576,576,384,Halsted St & 51st St,41.8018,-87.6452,2015-06-30,2022-06-12,532
577,577,436,Fairfield Ave & Roosevelt Rd,41.8666,-87.6945,2015-06-30,2022-06-12,3852
578,578,639,Lakefront Trail & Wilson Ave,41.9658,-87.6454,2018-07-01,2022-06-12,27419
579,579,392,Perry Ave & 69th St,41.7693,-87.6282,2015-06-30,2022-06-12,1011
580,580,531,Central Ave & Lake St,41.8877,-87.7655,2016-09-30,2022-06-12,1059
581,581,643,Smith Park,41.892,-87.6894,2018-07-01,2022-06-12,5773
582,582,556,Throop St & 52nd St,41.7997,-87.6572,2016-06-30,2022-06-12,314
583,583,554,Damen Ave & 51st St,41.8009,-87.6747,2016-06-30,2022-06-12,488
584,584,642,Latrobe Ave & Chicago Ave,41.8947,-87.7569,2019-04-01,2022-06-12,467
585,585,567,May St & 69th St,41.7689,-87.6529,2016-09-30,2022-06-12,610
586,586,561,Damen Ave & 59th St,41.786,-87.6742,2016-06-30,2022-06-12,468
587,587,565,Ashland Ave & 66th St,41.7741,-87.6638,2016-06-30,2022-06-12,356
588,588,542,Central Ave & Madison St,41.8801,-87.7632,2016-06-30,2022-06-12,990
589,589,538,Cicero Ave & Flournoy St,41.8721,-87.7466,2016-06-30,2022-06-12,305
590,590,445,California Ave & 26th St,41.844,-87.6953,2015-06-30,2022-06-12,1807
591,591,386,Halsted St & 56th St,41.7929,-87.645,2015-06-30,2022-06-12,627
592,592,409,Shields Ave & 43rd St,41.8162,-87.6348,2015-06-30,2022-06-12,516
593,593,648,Carpenter St & 63rd St,41.7799,-87.6509,2018-10-01,2022-06-12,104
594,594,555,Ashland Ave & 50th St,41.803,-87.6647,2016-06-30,2022-06-12,621
595,595,398,Rainbow Beach,41.7579,-87.5494,2015-06-30,2022-06-12,1588
596,596,578,Bennett Ave & 79th St,41.7518,-87.5785,2016-09-30,2022-06-12,494
597,597,580,Exchange Ave & 79th St,41.7517,-87.5528,2016-09-30,2022-06-12,1160
598,598,391,Halsted St & 69th St,41.7691,-87.6446,2015-06-30,2022-06-12,642
599,599,549,Marshfield Ave & 44th St,41.814,-87.6666,2016-09-30,2022-06-12,997
600,600,649,Stewart Ave & 63rd St,41.7798,-87.6348,2018-10-01,2022-06-12,392
601,601,4,Burnham Harbor,41.8563,-87.6133,2015-06-30,2022-06-12,112401
602,602,249,Montrose Harbor,41.964,-87.6382,2013-06-27,2022-06-12,127740
603,603,652,Rhodes Ave & 71st St,41.766,-87.6117,2019-04-01,2022-06-12,210
604,604,560,Marshfield Ave & 59th St,41.7868,-87.6662,2016-06-30,2022-06-12,297
605,605,582,Phillips Ave & 83rd St,41.7445,-87.5651,2016-09-30,2022-06-12,503
606,606,576,Greenwood Ave & 79th St,41.7513,-87.5976,2016-09-30,2022-06-12,725
607,607,537,Kenton Ave & Madison St,41.8807,-87.741,2016-06-30,2022-06-12,432
608,608,553,Elizabeth St & 47th St,41.8084,-87.6565,2016-06-30,2022-06-12,588
609,609,647,Elizabeth St & 59th St,41.7867,-87.6559,2019-01-01,2022-06-12,131
610,610,566,Ashland Ave & 69th St,41.7687,-87.6641,2016-06-30,2020-10-31,249
611,611,665,South Chicago Ave & Elliot Ave,41.747363,-87.580046,2019-01-01,2022-06-12,112
612,612,681.0,Halsted St & 78th St,41.752487,-87.643902,2020-07-09,2022-06-12,289
613,614,677.0,Stewart Ave & 83rd St,41.743717,-87.634088,2020-07-09,2022-06-12,347
614,615,683.0,Ashland Ave & 78th St,41.75223483333333,-87.66386033333333,2020-07-09,2022-06-12,350
615,617,678.0,Halsted St & 73rd St,41.761605,-87.644161,2020-07-09,2022-06-12,249
617,619,690.0,State St & 95th St,41.72162083333333,-87.62284616666666,2020-08-20,2022-06-12,1081
618,620,687.0,Loomis Blvd & 84th St,41.741642166666665,-87.65841433333334,2020-08-20,2022-06-12,404
619,621,684.0,Prospect Sq & 91st St,41.7279095,-87.66762416666667,2020-08-20,2022-06-12,625
620,622,696.0,Indiana Ave & 103rd St,41.707169666666665,-87.6183555,2020-08-20,2022-06-12,304
621,623,689.0,Elizabeth St & 92nd St,41.72682666666667,-87.65429816666666,2020-08-20,2022-06-12,418
622,624,692.0,Marquette Ave & 89th St,41.73375583333333,-87.55853966666666,2020-08-20,2022-06-12,285
623,625,693.0,Baltimore Ave & 87th St,41.73733766666667,-87.54854733333333,2020-08-20,2022-06-12,397
624,626,697.0,Oglesby Ave & 100th St,41.71328166666667,-87.56587966666666,2020-08-20,2022-06-12,280
625,627,682.0,Eberhart Ave & 91st St,41.72928366666667,-87.611748,2020-08-20,2022-06-12,384
626,628,685.0,Summit Ave & 86th St,41.73787583333333,-87.64484383333334,2020-08-20,2022-06-12,227
627,629,694.0,Houston Ave & 92nd St,41.72819466666667,-87.549638,2020-08-19,2022-06-12,324
628,630,695.0,Dauphin Ave & 103rd St,41.70731966666666,-87.6077885,2020-08-20,2022-06-12,228
629,631,700.0,Halsted St & 96th St,41.719752,-87.6428315,2020-08-20,2022-06-12,347
630,632,698.0,Cottage Grove Ave & 111th Pl,41.69167433333333,-87.609987,2020-08-20,2022-06-12,375
631,633,686.0,East End Ave & 87th St,41.736815,-87.582801,2020-08-20,2022-06-12,311
632,634,712.0,Wentworth Ave & 104th St,41.70536533333333,-87.62890533333334,2020-09-20,2022-06-12,166
633,635,701.0,Constance Ave & 95th St,41.72208,-87.57897783333334,2020-09-17,2022-06-12,201
634,636,714.0,State St & 123rd St,41.67066583333333,-87.622708,2020-09-17,2022-06-12,338
635,637,716.0,Eberhart Ave & 131st St,41.657873,-87.61078233333333,2020-09-17,2022-06-12,195
636,638,717.0,Big Marsh Park,41.685933,-87.57369366666667,2020-09-17,2022-06-12,490
637,639,705.0,Stony Island Ave & 90th St,41.731379,-87.58585683333334,2020-09-07,2022-06-12,369
638,640,706.0,Dauphin Ave & 87th St,41.7365145,-87.6012605,2020-09-17,2022-06-12,413
639,641,711.0,Halsted St & 111th St,41.692410333333335,-87.64263233333334,2020-09-17,2022-06-12,349
640,642,713.0,Major Taylor Trail & 115th St,41.684974833333335,-87.64531916666667,2020-09-17,2022-06-12,423
641,643,702.0,Greenwood Ave & 91st St,41.72864516666667,-87.59724216666666,2020-09-17,2022-06-12,175
642,645,709.0,Halsted St & 104th St,41.7050445,-87.642274,2020-09-17,2022-06-12,318
643,646,703.0,Greenwood Ave & 97th St,41.718730666666666,-87.59700566666666,2020-09-17,2022-06-12,490
644,647,699.0,Vernon Ave & 107th St,41.70024433333333,-87.61231366666667,2020-09-17,2022-06-12,250
645,648,707.0,Torrence Ave  & 106th St,41.702890833333335,-87.55989016666666,2020-09-17,2022-06-12,198
646,649,691.0,Eggleston Ave & 92nd St,41.72761883333333,-87.634883,2020-09-17,2022-06-17,401
647,650,718.0,Ewing Ave & Burnham Greenway,41.71262166666666,-87.5345395,2020-09-17,2022-06-12,485
648,651,708.0,Clyde Ave & 87th St,41.73719016666666,-87.57271283333333,2020-09-17,2022-06-12,275
649,652,720.0,Torrence Ave & 126th Pl,41.66628516666667,-87.55710416666666,2020-09-29,2022-06-12,124
650,653,721.0,Walden Pkwy & 100th St,41.71223883333333,-87.66767933333334,2020-09-29,2022-06-12,532
651,654,710.0,Burnham Greenway & 105th St,41.704575,-87.528231,2020-09-17,2022-06-12,374
652,655,715.0,Major Taylor Trail & 124th St,41.66872866666667,-87.63721216666667,2020-09-17,2022-06-12,213
653,656,719.0,Avenue O & 118th St,41.68100983333333,-87.538001,2020-09-29,2022-06-12,222
654,657,723.0,Hale Ave & 107th St,41.6992185,-87.66888533333334,2020-10-31,2022-06-12,446
655,658,731.0,Bradley Park,41.7179115,-87.56462216666667,2020-10-31,2022-06-25,212
656,659,722.0,Commercial Ave & 130th St,41.659161,-87.55072266666667,2020-10-31,2022-06-12,242
657,660,726.0,Vincennes Ave & 104th St,41.7049455,-87.65711616666667,2020-10-31,2022-06-12,226
658,661,728.0,Western Ave & 111th St,41.691214333333335,-87.68133116666667,2020-10-31,2022-06-12,447
659,662,727.0,Ada St & 113th St,41.687573666666665,-87.6554335,2020-10-31,2022-06-12,176
660,663,730.0,Lawndale Ave & 111th St,41.691305,-87.71281766666667,2020-10-15,2022-06-27,353
661,665,724.0,Homewood Ave & 115th St,41.68457033333333,-87.6708795,2020-10-07,2022-06-12,306
662,666,732.0,Hegewisch Metra Station,41.64864766666667,-87.54625466666667,2020-11-01,2022-06-12,119
663,722,13139,Throop St & Taylor St,41.868968,-87.659141,2020-12-27,2022-06-12,10553
664,781,20252.0,W Oakdale Ave & N Broadway,41.94,-87.64,2020-12-27,2022-06-12,3104
666,994,E011,Dodge Ave & Main St,42.03463185161588,-87.69918769598006,2020-12-27,2022-06-12,722
667,1027,KA1504000090,St. Louis Ave & Fullerton Ave,41.92481559681187,-87.71449506282805,2020-12-27,2022-06-12,4554
668,1067,20246.0,N Green St & W Lake St,41.89,-87.65,2020-12-27,2022-06-12,4932
669,1089,TA1306000013,New St & Illinois St,41.89084704062381,-87.61861681938171,2020-12-27,2022-06-12,36441
670,1187,20243,Michigan Ave & 114th St,41.68701033333333,-87.62120233333333,2020-12-10,2022-06-12,146
671,1191,20254.0,W Armitage Ave & N Sheffield Ave,41.92,-87.65,2020-12-05,2022-06-12,1968
672,1311,20225,Commercial Ave & 100th St,41.71330583333334,-87.55117416666667,2021-01-25,2022-06-12,110
673,1312,20253.0,N Paulina St & Lincoln Ave,41.94,-87.67,2021-01-20,2022-06-12,344
674,1314,20257.0,N Southport Ave & W Newport Ave,41.94,-87.66,2021-01-13,2022-06-12,845
675,1316,20247.0,W Washington Blvd & N Peoria St,41.88,-87.65,2021-01-23,2022-06-12,420
676,1317,20204,Kedzie Ave & 110th St,41.69242283333333,-87.70094966666667,2021-01-23,2022-06-12,191
677,1322,20256.0,N Sheffield Ave & W Wellington Ave,41.94,-87.65,2021-01-07,2022-06-12,1357
678,1327,20251.0,N Carpenter St & W Lake St,41.89,-87.65,2021-01-12,2022-06-12,1087
679,1329,20214,Avenue O & 134th St,41.65191333333333,-87.53950833333333,2021-02-23,2022-06-12,158
680,1331,20245,Ashland Ave & 74th St,41.759236,-87.663474,2021-03-05,2022-06-12,213
681,1333,20123,Western Ave & 104th St,41.70458710218908,-87.68120348453522,2021-03-16,2022-06-12,359
682,1336,20106,Chicago State University,41.71895833333333,-87.60837733333334,2021-03-16,2022-06-12,900
683,1337,20.0,Damen Ave & Wabansia Ave,41.91,-87.68,2021-03-16,2022-06-12,2256
684,1344,20212,Altgeld Gardens,41.6570855,-87.5988655,2021-04-29,2022-06-12,146
685,1346,202480.0,Hampden Ct & Diversey Ave,41.93,-87.64,2021-04-03,2022-06-12,1767
686,1350,20224,Calumet Park,41.713729666666666,-87.53087516666666,2021-04-12,2022-06-12,594
687,1351,201022,Loomis St & 89th St,41.73237975329554,-87.65806943178177,2021-05-30,2022-06-12,252
688,1353,20202,W 103rd St & S Avers Ave,41.71,-87.72,2021-05-02,2022-06-12,208
689,1356,DIVVY 001,WEST CHI-WATSON,41.894792,-87.730906,2021-06-13,2022-06-12,101
690,1357,20237,Yates Blvd & 93rd St,41.726164,-87.5663105,2021-06-13,2022-06-12,172
691,1358,20134,Maryland Ave & 104th St,41.71,-87.6,2021-06-13,2022-06-12,147
692,1361,322,Cicero Ave & Grace St,41.95,-87.75,2021-07-02,2022-06-12,162
693,1363,368.0,Tripp Ave & 31st St,41.84,-87.73,2021-07-02,2022-06-12,154
694,1364,362.0,Lawndale Ave & 16th St,41.86,-87.72,2021-07-02,2022-06-12,131
695,1365,366.0,Spaulding Ave & 16th St,41.86,-87.71,2021-07-02,2022-06-12,150
696,1366,364.0,Homan Ave & Fillmore St,41.87,-87.71,2021-07-14,2022-06-12,155
697,1367,356,Lavergne & Fullerton,41.92,-87.75,2021-07-02,2022-06-12,415
699,1369,358,Kilpatrick Ave & Parker Ave,41.93,-87.74,2021-07-02,2022-06-12,487
700,1370,329.0,Central Park Ave & Douglas Blvd,41.86,-87.72,2021-07-02,2022-06-12,158
701,1371,316,Lamon Ave & Belmont Ave,41.94,-87.75,2021-07-02,2022-06-12,573
702,1372,317,Long Ave & Belmont Ave,41.94,-87.76,2021-07-02,2022-06-12,370
703,1373,353,Meade Ave & Diversey Ave,41.93,-87.78,2021-07-27,2022-06-12,228
704,1374,313,Long Ave & Belden Ave,41.92,-87.76,2021-07-23,2022-06-12,341
705,1376,473,Mason Ave & Belmont Ave,41.94,-87.77,2021-07-30,2022-06-12,189
706,1379,330.0,Keeler Ave & Roosevelt Rd,41.87,-87.73,2021-07-31,2022-06-12,117
707,1380,331.0,Pulaski Rd & 21st St,41.85,-87.72,2021-07-27,2022-06-12,249
708,1381,355,Central Ave & Parker Ave,41.93,-87.77,2021-07-31,2022-06-12,222
709,1382,334.0,Lawndale Ave & 30th St,41.84,-87.72,2021-08-10,2022-06-12,137
710,1383,324,Meade Ave & Addison St,41.95,-87.78,2021-08-10,2022-06-12,229
711,1384,360,Kilbourn & Roscoe,41.94,-87.74,2021-08-10,2022-06-12,402
712,1385,351,Mulligan Ave & Wellington Ave,41.93,-87.78,2021-08-10,2022-06-12,500
713,1386,312,Lockwood Ave & Wrightwood Ave,41.93,-87.76,2021-08-10,2022-06-12,454
714,1387,327,Plainfield & Irving Park,41.95,-87.83,2021-08-10,2022-06-12,102
715,1388,397,Narragansett Ave & School St,41.94,-87.79,2021-08-10,2022-06-12,251
716,1389,396,Central Ave & Roscoe St,41.94,-87.77,2021-08-10,2022-06-12,314
717,1390,398,Long & Irving Park,41.95,-87.76,2021-08-10,2022-06-12,744
718,1391,335.0,Komensky Ave & 31st St,41.84,-87.73,2021-08-10,2022-06-12,212
719,1392,359,Kilbourn & Belden,41.92,-87.74,2021-08-10,2022-06-12,381
720,1393,321,Kostner Ave & Wrightwood Ave,41.93,-87.74,2021-08-10,2022-06-12,467
721,1396,325,Harlem Ave & Grace St,41.95,-87.81,2021-08-31,2022-06-12,114
722,1397,393,Oketo Ave & Addison St,41.94,-87.81,2021-08-25,2022-06-12,148
723,1398,319,Roscoe & Harlem,41.94,-87.81,2021-08-10,2022-06-12,104
724,1399,357,Lamon Ave & Armitage Ave,41.92,-87.75,2021-08-10,2022-06-12,349
725,1400,352,Sayre & Diversey,41.93,-87.8,2021-08-10,2022-06-12,168
726,1401,320,Orange & Addison,41.94,-87.82,2021-09-28,2022-06-12,294
727,1402,326,Harlem & Irving Park,41.95,-87.81,2021-09-28,2022-06-12,414
728,1404,314,Narragansett & Wrightwood,41.93,-87.79,2021-09-28,2022-06-12,709
729,1405,302,Lamon Ave & Chicago Ave,41.9,-87.75,2021-09-28,2022-06-12,120
730,1406,379,Rockwell St & Archer Ave,41.82,-87.69,2021-09-29,2022-06-12,264
731,1407,384,Kedzie Ave & 52nd St,41.8,-87.7,2021-09-28,2022-06-12,185
732,1410,378,Nordica & Medill,41.92,-87.8,2021-09-28,2022-06-12,159
733,1411,323,Narragansett & Irving Park,41.95,-87.79,2021-09-28,2022-06-12,309
734,1414,361,Kenosha & Wellington,41.93,-87.73,2021-09-09,2022-06-12,238
735,1415,318,Oak Park & Wellington,41.93,-87.8,2021-09-28,2022-06-12,282
736,1416,382,Kedzie Ave & 48th Pl,41.8,-87.7,2021-09-28,2022-06-12,533
737,1417,309,Narragansett & McLean,41.92,-87.79,2021-09-28,2022-06-12,131
738,1418,341,Archer Ave & 43rd St,41.82,-87.7,2021-09-30,2022-06-12,126
739,1419,301,Monticello Ave & Chicago Ave,41.9,-87.72,2021-09-28,2022-06-12,113
740,1424,304,Lavergne Ave & Division St,41.9,-87.75,2021-09-28,2022-06-12,101
741,1425,385,St Louis Ave & Norman Bobbins Ave,41.79,-87.71,2021-09-28,2022-06-12,114
742,1428,303,Kildare Ave & Division St,41.9,-87.73,2021-09-28,2022-06-12,124
743,1429,20260.0,Ping Tom Park (East),41.86,-87.63,2021-09-28,2022-06-12,103
744,1430,339,Sacramento Ave & Pershing Rd,41.82,-87.7,2021-09-30,2022-06-12,154
745,1433,445,Western Ave & Gunnison St,41.97,-87.69,2021-10-29,2022-06-12,305
746,1434,386,Rockwell St & 57th St,41.79,-87.69,2021-10-03,2022-06-12,104
747,1435,471,Damen Ave & 33rd St,41.83,-87.68,2021-10-22,2022-06-12,131
748,1437,20255.0,N Damen Ave & W Chicago Ave,41.9,-87.68,2021-10-22,2022-06-12,163
749,1438,406,Kostner Ave & 63rd St,41.78,-87.73,2021-10-22,2022-06-12,125
750,1439,344,Springfield Ave & 47th St,41.81,-87.72,2021-10-22,2022-06-12,100
751,1440,343,Pulaski Rd & 51st St,41.8,-87.72,2021-10-22,2022-06-12,468
752,1443,407,Tripp Ave & 65th St,41.77,-87.73,2021-10-22,2022-06-12,148
753,1444,430,Troy St & Grace St,41.95,-87.71,2021-10-22,2022-06-12,452
754,1446,347,Komensky Ave & 55th St,41.79,-87.72,2021-10-22,2022-06-12,108
755,1447,346,Kedzie Ave & 57th St,41.79,-87.7,2021-10-22,2022-06-12,195
756,1448,370,Central Park & Augusta Blvd,41.9,-87.72,2021-10-22,2022-06-12,137
757,1449,400,Lawler Ave & 50th St,41.8,-87.75,2021-10-27,2022-06-12,186
758,1450,369,Central Park Ave & Ohio St,41.89,-87.72,2021-10-16,2022-06-12,152
759,1451,434,Albany Ave & Belmont Ave,41.94,-87.71,2021-10-28,2022-06-12,276
760,1452,428,Milwaukee Ave & Fullerton Ave,41.92,-87.7,2021-10-22,2022-06-12,1328
761,1454,345,Artesian Ave & 55th St,41.79,-87.69,2021-10-06,2022-06-12,122
762,1457,442,Lincoln Ave & Balmoral Ave,41.98,-87.69,2021-10-22,2022-06-12,443
763,1464,387,St Louis Ave & 59th St,41.79,-87.71,2021-10-21,2022-06-12,143
764,1465,374,Kilpatrick Ave & Grand Ave,41.91,-87.74,2021-11-27,2022-06-12,177
765,1466,443,California Ave & Winona St,41.97,-87.7,2021-11-27,2022-06-12,291
766,1467,475,Whipple/Irving Park,41.95,-87.7,2021-11-27,2022-06-12,168
767,1469,431,Western Ave & Grace St,41.95,-87.69,2021-11-27,2022-06-12,315
768,1470,435,Rockwell St & Fletcher St,41.94,-87.69,2021-11-27,2022-06-12,657
769,1471,458,Washtenaw Ave & Peterson Ave,41.99,-87.7,2021-11-27,2022-06-12,123
770,1472,472,Elston Ave & George St,41.93,-87.69,2021-11-27,2022-06-12,530
771,1473,462,Lincoln Ave & Peterson Ave,41.99,-87.71,2021-11-27,2022-06-12,180
772,1474,429,Francisco Ave & Bloomingdale Ave,41.91,-87.7,2021-11-11,2022-06-12,231
773,1475,444,N Shore Channel Trail & Argyle Ave,41.97,-87.7,2021-11-19,2022-06-12,305
774,1476,436,Kedzie Ave & George St,41.93,-87.71,2021-11-27,2022-06-12,467
775,1478,425,Rockwell St & Cermak Rd,41.85,-87.69,2021-11-27,2022-06-12,293
776,1479,446,Francisco Ave & Montrose Ave,41.96,-87.7,2021-11-27,2022-06-12,428
777,1480,441,Virginia Ave & Catalpa Ave,41.98,-87.7,2021-11-27,2022-06-12,144
778,1483,433,Elston Ave & Henderson St,41.94,-87.7,2021-11-20,2022-06-12,239
779,1493,464,Western Ave & Ardmore Ave,41.99,-87.69,2021-11-21,2022-06-12,114
780,1494,432,Sacramento Blvd & Addison St,41.95,-87.7,2021-11-27,2022-06-12,292
781,1496,420,Washtenaw Ave & Polk St,41.87,-87.69,2021-11-08,2022-06-12,144
782,1497,381,Francisco Ave & 47th St,41.81,-87.7,2021-11-27,2022-06-12,107
783,1499,21544,State St & Chicago Ave,41.896932,-87.62876016666667,2021-12-07,2022-06-12,6558
784,1504,474,Fullerton & Monitor,41.92,-87.77,2022-01-13,2022-06-12,130
785,1508,20219,Burnham Greenway & 112th St,41.69177385116831,-87.53043115139008,2022-02-13,2022-06-12,256
786,1511,439,Campbell Ave & Irving Park Rd,41.95,-87.69,2022-03-21,2022-06-12,112
787,1525,547,Cicero Ave & Wrightwood Ave,41.93,-87.75,2022-05-23,2022-06-12,125
788,1530,768,Hyde Park Blvd & 55th St,41.8,-87.59,2022-05-23,2022-06-12,113
789,1557,504,Milwaukee Ave & Diversey Ave,41.93,-87.71,2022-05-23,2022-06-12,236
790,1559,516,Kenton Ave & Palmer St,41.92,-87.74,2022-05-23,2022-06-12,141
791,1563,509,Mozart Elementary School,41.92,-87.72,2022-05-23,2022-06-12,128
792,1567,507,Hamlin Ave & Fullerton Ave,41.92,-87.72,2022-05-23,2022-06-12,117
793,1849,675,HQ QR,41.8899,-87.6803,2020-01-21,2020-03-08,3767
