,Unnamed: 0,id,name,lat,lon,first,last,rides
0,0,86,Eckhart Park,41.8964,-87.661,2013-06-27,2022-05-11,58130
1,1,503,Drake Ave & Fullerton Ave,41.9244,-87.7154,2015-06-30,2020-11-07,13529
2,2,142,McClurg Ct & Erie St,41.8945,-87.6179,2015-06-30,2022-05-11,113429
3,3,216,California Ave & Division St,41.903,-87.6975,2013-06-27,2022-05-11,25096
4,4,125,Rush St & Hubbard St,41.8902,-87.6262,2015-06-30,2022-05-11,75898
5,5,173,Mies van der Rohe Way & Chicago Ave,41.8969,-87.6217,2013-06-27,2022-05-11,124019
6,6,35,Streeter Dr & Grand Ave,41.8923,-87.612,2013-06-27,2022-05-11,595902
7,7,434,Ogden Ave & Roosevelt Rd,41.8665,-87.6847,2015-06-30,2022-05-11,13001
8,8,627,LaSalle Dr & Huron St,41.8949,-87.6323,2018-01-01,2022-05-11,47883
9,9,377,Kedzie Ave & Lake St,41.8846,-87.7063,2015-06-30,2022-05-11,5978
10,10,508,Central Park Ave & North Ave,41.9097,-87.7166,2015-06-30,2022-05-11,8168
11,11,374,Western Ave & Walton St,41.8984,-87.6866,2015-06-30,2022-05-11,42261
12,12,321,Wabash Ave & 9th St,41.8708,-87.6257,2013-06-27,2022-05-11,112620
13,13,9,Leavitt St & Archer Ave,41.8288,-87.6806,2015-06-30,2022-05-11,5556
14,14,141,Clark St & Lincoln Ave,41.9157,-87.6346,2013-06-27,2022-05-11,182059
15,15,109,900 W Harrison St,41.8748,-87.6498,2013-06-27,2022-05-11,48242
16,16,424,Museum of Science and Industry,41.7917,-87.5839,2015-06-30,2022-05-11,29304
17,17,347,Ashland Ave & Grace St,41.9507,-87.6687,2013-06-27,2022-05-11,41275
18,18,198,Green St & Madison St,41.8819,-87.6488,2013-06-27,2022-05-11,136682
19,19,344,Ravenswood Ave & Lawrence Ave,41.9691,-87.6742,2013-06-27,2022-05-11,100612
20,20,227,Southport Ave & Waveland Ave,41.9482,-87.6639,2013-06-27,2022-05-11,98869
21,21,661,Evanston Civic Center,42.057,-87.6866,2018-10-01,2022-05-11,3537
22,22,127,Lincoln Ave & Fullerton Ave,41.9259,-87.6493,2013-06-27,2022-05-11,105979
23,23,80,Aberdeen St & Monroe St,41.8804,-87.6555,2013-06-27,2022-05-11,84575
24,24,77,Clinton St & Madison St,41.8822,-87.6411,2013-06-27,2022-05-11,293396
25,25,346,Ada St & Washington Blvd,41.8828,-87.6612,2013-06-27,2022-05-11,64236
26,26,329,Lake Shore Dr & Diversey Pkwy,41.9326,-87.6364,2013-06-27,2022-05-11,111890
27,27,635,Fairbanks St & Superior St,41.8957,-87.6201,2018-07-01,2022-05-11,27632
28,28,659,Leavitt St & Chicago Ave,41.8955,-87.682,2018-07-01,2022-05-11,14817
29,29,342,Wolcott Ave & Polk St,41.8713,-87.6737,2013-06-27,2022-05-11,70102
30,30,161,Rush St & Superior St,41.8958,-87.6259,2015-06-30,2022-05-11,99156
31,31,88,Racine Ave & Randolph St,41.8841,-87.6569,2013-06-27,2022-05-11,50930
32,32,67,Sheffield Ave & Fullerton Ave,41.9256,-87.6537,2013-06-27,2022-05-11,134877
33,33,164,Franklin St & Lake St,41.8858,-87.6355,2013-06-27,2022-05-11,123612
34,34,237,MLK Jr Dr & 29th St,41.8421,-87.617,2013-06-27,2022-05-11,57195
35,35,279,Halsted St & 35th St,41.8307,-87.6472,2013-06-27,2022-05-11,12679
36,36,414,Canal St & Taylor St,41.8703,-87.6395,2015-06-30,2022-05-11,41435
37,37,367,Racine Ave & 35th St,41.8307,-87.656,2015-06-30,2022-05-11,5745
38,38,59,Wabash Ave & Roosevelt Rd,41.8672,-87.626,2013-06-27,2022-05-11,177850
39,39,157,Lake Shore Dr & Wellington Ave,41.9367,-87.6368,2013-06-27,2022-05-11,125564
40,40,13,Wilton Ave & Diversey Pkwy,41.9324,-87.6527,2013-06-27,2022-05-11,114926
41,41,165,Clark St & Grace St,41.9508,-87.6592,2013-06-27,2022-05-11,76419
42,42,313,Lakeview Ave & Fullerton Pkwy,41.9259,-87.639,2013-06-27,2022-05-11,134481
43,43,340,Clark St & Wrightwood Ave,41.9295,-87.6431,2013-06-27,2022-05-11,136955
44,44,26,McClurg Ct & Illinois St,41.8904,-87.6175,2013-06-27,2020-11-07,166300
45,45,254,Pine Grove Ave & Irving Park Rd,41.9544,-87.648,2013-06-27,2022-05-11,97297
46,46,180,Ritchie Ct & Banks St,41.9069,-87.6262,2015-06-30,2022-05-11,67122
47,47,110,Dearborn St & Erie St,41.894,-87.6293,2013-06-27,2022-05-11,204930
48,48,71,Morgan St & Lake St*,41.8855,-87.6523,2013-06-27,2022-05-11,125741
49,49,455,Maplewood Ave & Peterson Ave,41.9902,-87.6934,2015-06-30,2022-05-11,3561
50,50,60,Dayton St & North Ave,41.9106,-87.6494,2013-06-27,2022-05-11,89607
51,51,231,Sheridan Rd & Montrose Ave,41.9617,-87.6546,2013-06-27,2022-05-11,78211
52,52,312,Clarendon Ave & Gordon Ter,41.9579,-87.6495,2013-06-27,2022-05-11,70739
53,53,94,Clark St & Armitage Ave,41.9183,-87.6363,2013-06-27,2022-05-11,192839
54,54,84,Milwaukee Ave & Grand Ave,41.8916,-87.6484,2013-06-27,2022-05-11,105557
55,55,92,Carpenter St & Huron St,41.8946,-87.6534,2013-06-27,2022-05-11,59112
56,56,72,Wabash Ave & 16th St,41.8604,-87.6258,2013-06-27,2022-05-11,70516
57,57,299,Halsted St & Roscoe St,41.9437,-87.649,2013-06-27,2022-05-11,108967
58,58,43,Michigan Ave & Washington St,41.884,-87.6247,2013-06-27,2022-05-11,243291
59,59,176,Clark St & Elm St,41.903,-87.6313,2013-06-27,2022-05-11,223688
60,60,320,Loomis St & Lexington St,41.8722,-87.6615,2013-06-27,2022-05-11,89217
61,61,475,Washtenaw Ave & Lawrence Ave,41.969,-87.696,2015-06-30,2022-05-11,14845
62,62,113,Bissell St & Armitage Ave*,41.9184,-87.6522,2013-06-27,2022-05-11,114500
63,63,188,Greenview Ave & Fullerton Ave,41.9253,-87.6658,2013-06-27,2022-05-11,60191
64,64,129,Blue Island Ave & 18th St,41.8576,-87.6615,2013-06-27,2022-05-11,43563
65,65,247,Shore Dr & 55th St,41.7952,-87.5807,2013-06-27,2022-05-11,68906
66,66,191,Canal St & Monroe St,41.8817,-87.6395,2013-06-27,2022-05-11,115775
67,67,50,Clark St & Ida B Wells Dr,41.8759,-87.6306,2013-06-27,2022-05-11,89325
68,68,289,Wells St & Concord Ln,41.9121,-87.6347,2013-06-27,2022-05-11,209532
69,69,657,Wood St & Augusta Blvd,41.8992,-87.6722,2018-07-01,2022-05-11,19076
70,70,61,Wood St & Milwaukee Ave,41.9077,-87.6726,2013-06-27,2022-05-11,96874
71,71,245,Clarendon Ave & Junior Ter,41.961,-87.6496,2013-06-27,2022-05-11,61419
72,72,517,Clark St & Jarvis Ave,42.016,-87.675,2016-09-30,2022-05-11,5437
73,73,134,Peoria St & Jackson Blvd,41.8776,-87.6496,2013-06-27,2022-05-11,118774
74,74,605,University Library (NU),42.0529,-87.6734,2016-09-30,2022-05-11,16401
75,75,520,Greenview Ave & Jarvis Ave,42.016,-87.6686,2016-09-30,2022-05-11,14057
76,76,296,Broadway & Belmont Ave,41.9401,-87.6455,2013-06-27,2022-05-11,96674
77,77,238,Wolcott (Ravenswood) Ave & Montrose Ave,41.9614,-87.6762,2013-06-27,2022-05-11,35938
78,78,472,Lincoln Ave & Winona St,41.9749,-87.6925,2015-06-30,2022-05-11,13195
79,79,268,Lake Shore Dr & North Blvd,41.9117,-87.6268,2013-06-27,2022-05-11,314462
80,80,526,Oakley Ave & Touhy Ave,42.0123,-87.6882,2016-09-30,2022-05-11,2900
81,81,303,Broadway & Cornelia Ave,41.9455,-87.6464,2013-06-27,2022-05-11,113262
82,82,507,Humboldt Blvd & Armitage Ave,41.9175,-87.7018,2015-06-30,2022-05-11,33150
83,83,210,Ashland Ave & Division St,41.9035,-87.6677,2013-06-27,2022-05-11,141760
84,84,115,Sheffield Ave & Wellington Ave,41.9363,-87.6527,2013-06-27,2022-05-11,112218
85,85,632,Clark St & Newport St,41.9445,-87.6547,2018-10-01,2022-05-11,49390
86,86,406,Lake Park Ave & 35th St,41.8313,-87.6088,2015-06-30,2022-05-11,16060
87,87,144,Larrabee St & Webster Ave,41.9218,-87.6441,2013-06-27,2022-05-11,129844
88,88,76,Lake Shore Dr & Monroe St,41.881,-87.6167,2013-06-27,2022-05-11,382008
89,89,90,Millennium Park,41.881,-87.6241,2013-06-27,2022-05-11,300273
90,90,325,Clark St & Winnemac Ave,41.9733,-87.6678,2013-06-27,2022-05-11,65613
91,91,34,Cannon Dr & Fullerton Ave,41.9268,-87.6344,2013-06-27,2022-05-11,70377
92,92,673,Lincoln Park Conservatory,41.9239,-87.6358,2019-07-01,2022-05-11,33177
93,93,368,Ashland Ave & Archer Ave,41.8392,-87.6656,2015-06-30,2022-05-11,4557
94,94,17,Honore St & Division St,41.9031,-87.6739,2013-06-27,2022-05-11,69609
95,95,186,Ogden Ave & Race Ave,41.8918,-87.6588,2013-06-27,2022-05-11,62585
96,96,504,Campbell Ave & Fullerton Ave,41.9246,-87.6893,2015-06-30,2022-05-11,21554
97,97,276,California Ave & North Ave,41.9104,-87.6972,2013-06-27,2022-05-11,28975
98,98,211,St. Clair St & Erie St,41.8944,-87.6227,2013-06-27,2022-05-11,180834
99,99,212,Wells St & Hubbard St,41.8899,-87.6343,2013-06-27,2022-05-11,149965
100,100,304,Broadway & Waveland Ave,41.9491,-87.6486,2013-06-27,2022-05-11,101448
101,101,464,Damen Ave & Foster Ave,41.9756,-87.6795,2015-06-30,2022-05-11,26245
102,102,183,Damen Ave & Thomas St (Augusta Blvd),41.9013,-87.6774,2013-06-27,2022-05-11,61144
103,103,24,Fairbanks Ct & Grand Ave,41.8918,-87.6206,2013-06-27,2022-05-11,175281
104,104,52,Michigan Ave & Lake St,41.886,-87.6241,2013-06-27,2022-05-11,198595
105,105,248,Woodlawn Ave & 55th St,41.7953,-87.5965,2013-06-27,2022-05-11,34669
106,106,205,Paulina St & 18th St,41.8579,-87.6687,2013-06-27,2022-05-11,30536
107,107,442,California Ave & 23rd Pl,41.8491,-87.6951,2015-06-30,2022-05-11,5712
108,108,208,Laflin St & Cullerton St,41.8549,-87.6636,2013-06-27,2022-05-11,11910
109,109,331,Halsted St & Clybourn Ave,41.9097,-87.6481,2013-06-27,2022-05-11,106358
110,110,623,Michigan Ave & 8th St,41.8728,-87.624,2017-06-30,2022-05-11,73666
111,111,181,LaSalle St & Illinois St,41.8908,-87.6317,2013-06-27,2022-05-11,172343
112,112,202,Halsted St & 18th St,41.8575,-87.6463,2013-06-27,2022-05-11,23309
113,113,255,Indiana Ave & Roosevelt Rd,41.8679,-87.623,2013-06-27,2022-05-11,198490
114,114,598,Elmwood Ave & Austin St,42.0258,-87.6841,2016-09-30,2022-05-11,4710
115,115,519,Wolcott Ave & Fargo Ave,42.017,-87.6777,2016-09-30,2022-05-11,1975
116,116,243,Lincoln Ave & Sunnyside Ave,41.963,-87.6848,2013-06-27,2022-05-11,40014
117,117,154,Southport Ave & Belmont Ave,41.9395,-87.6638,2013-06-27,2022-05-11,55874
118,118,300,Broadway & Barry Ave,41.9377,-87.6441,2013-06-27,2022-05-11,147074
119,119,523,Eastlake Ter & Rogers Ave,42.0209,-87.6651,2016-09-30,2022-05-11,14218
120,120,405,Wentworth Ave & 35th St,41.8308,-87.6325,2016-09-30,2022-05-11,8723
121,121,168,Michigan Ave & 14th St,41.8641,-87.6237,2013-06-27,2022-05-11,81916
122,122,273,Michigan Ave & 18th St,41.8578,-87.6246,2013-06-27,2022-05-11,78710
123,123,2,Buckingham Fountain,41.8765,-87.6205,2015-06-30,2022-05-11,92814
124,124,220,Clark St & Drummond Pl,41.9312,-87.6443,2013-06-27,2022-05-11,126380
125,125,223,Clifton Ave & Armitage Ave,41.9182,-87.6569,2013-06-27,2022-05-11,70524
126,126,123,California Ave & Milwaukee Ave,41.9227,-87.6972,2013-06-27,2022-05-11,79606
127,127,222,Milwaukee Ave & Rockwell St,41.9202,-87.693,2013-06-27,2022-05-11,26921
128,128,193,State St & 29th St,41.8417,-87.6269,2013-06-27,2022-05-11,5846
129,129,305,Western Ave & Division St,41.9029,-87.6873,2013-06-27,2022-05-11,39761
130,130,118,Sedgwick St & North Ave,41.9114,-87.6387,2013-06-27,2022-05-11,106206
131,131,166,Ashland Ave & Wrightwood Ave,41.9288,-87.6685,2013-06-27,2022-05-11,41141
132,132,81,Daley Center Plaza,41.8842,-87.6296,2013-06-27,2022-05-11,206885
133,133,250,Ashland Ave & Wellington Ave,41.9361,-87.6698,2013-06-27,2022-05-11,35899
134,134,581,Commercial Ave & 83rd St,41.7446,-87.5512,2016-09-30,2022-05-11,557
135,135,626,Delano Ct & Roosevelt Rd,41.8675,-87.6322,2017-12-31,2022-05-11,27559
136,136,460,Clark St & Bryn Mawr Ave,41.9836,-87.6692,2015-06-30,2022-05-11,34053
137,137,293,Broadway & Wilson Ave,41.9652,-87.6581,2013-06-27,2022-05-11,50988
138,138,53,Wells St & Huron St,41.8947,-87.6344,2013-06-27,2022-05-11,170170
139,139,69,Damen Ave & Pierce Ave,41.9094,-87.6777,2013-06-27,2022-05-11,156469
140,140,465,Marine Dr & Ainslie St,41.9716,-87.6502,2015-07-31,2022-05-11,41698
141,141,199,Wabash Ave & Grand Ave,41.8915,-87.6268,2013-06-27,2022-05-11,198945
142,142,359,Larrabee St & Division St,41.9035,-87.6434,2015-06-30,2022-05-11,68624
143,143,128,Damen Ave & Chicago Ave,41.8958,-87.6772,2013-06-27,2022-05-11,84935
144,144,306,Sheridan Rd & Buena Ave,41.9585,-87.655,2013-06-27,2022-05-11,51380
145,145,111,Sedgwick St & Huron St,41.8947,-87.6384,2013-06-27,2022-05-11,91962
146,146,350,Ashland Ave & Chicago Ave,41.896,-87.6677,2013-06-27,2022-05-11,55610
147,147,200,MLK Jr Dr & 47th St,41.8099,-87.6163,2013-06-27,2022-05-11,5036
148,148,179,MLK Jr Dr & Pershing Rd,41.8246,-87.6168,2013-06-27,2022-05-11,8792
149,149,336,Cottage Grove Ave & 47th St,41.8099,-87.6068,2013-06-27,2022-05-11,7935
150,150,74,Kingsbury St & Erie St,41.8938,-87.6417,2013-06-27,2022-05-11,157215
151,151,337,Clark St & Chicago Ave,41.8968,-87.6309,2013-06-27,2022-05-11,94670
152,152,153,Southport Ave & Wellington Ave,41.9357,-87.6636,2013-06-27,2022-05-11,94328
153,153,260,Kedzie Ave & Milwaukee Ave,41.9296,-87.7079,2013-06-27,2022-05-11,78360
154,154,236,Sedgwick St & Schiller St,41.9076,-87.6386,2013-06-27,2022-05-11,28576
155,155,194,Wabash Ave & Wacker Pl,41.8869,-87.626,2013-06-27,2022-05-11,110472
156,156,147,Indiana Ave & 26th St,41.8457,-87.6225,2013-06-27,2022-05-11,20554
157,157,332,Burling St & Diversey Pkwy,41.9331,-87.6478,2013-06-27,2022-05-11,81739
158,158,294,Broadway & Berwyn Ave,41.9784,-87.6598,2013-06-27,2022-05-11,51726
159,159,322,Kimbark Ave & 53rd St,41.7996,-87.5947,2013-06-27,2022-05-11,62421
160,160,114,Sheffield Ave & Waveland Ave,41.9494,-87.6545,2013-06-27,2022-05-11,121111
161,161,131,Lincoln Ave & Belmont Ave,41.9394,-87.6684,2013-06-27,2022-05-11,60604
162,162,16,Paulina Ave & North Ave,41.9103,-87.6701,2013-06-27,2022-05-11,62392
163,163,432,Clark St & Lunt Ave,42.0091,-87.6742,2015-06-30,2022-05-11,17856
164,164,107,Desplaines St & Jackson Blvd,41.8783,-87.6439,2015-06-30,2022-05-11,81864
165,165,309,Leavitt St & Armitage Ave,41.9178,-87.6824,2013-06-27,2022-05-11,37479
166,166,206,Halsted St & Archer Ave,41.8472,-87.6468,2013-06-27,2022-05-11,17290
167,167,324,Stockton Dr & Wrightwood Ave,41.9313,-87.6387,2013-06-27,2022-05-11,92593
168,168,54,Ogden Ave & Chicago Ave,41.8964,-87.6541,2013-06-27,2022-05-11,74525
169,169,621,Aberdeen St & Randolph St,41.8841,-87.6543,2018-04-01,2022-05-11,36352
170,170,29,Noble St & Milwaukee Ave,41.9007,-87.6626,2013-06-27,2022-05-11,67507
171,171,214,Damen Ave & Grand Ave,41.8912,-87.6769,2013-06-27,2022-05-11,43180
172,172,290,Kedzie Ave & Palmer Ct,41.9215,-87.7073,2013-06-27,2022-05-11,35086
173,173,620,Orleans St & Chestnut St (NEXT Apts),41.8982,-87.6375,2016-09-30,2022-05-11,44300
174,174,233,Sangamon St & Washington Blvd,41.8832,-87.6511,2013-06-27,2022-05-11,71128
175,175,195,Columbus Dr & Randolph St,41.8847,-87.6195,2013-06-27,2022-05-11,252220
176,176,174,Canal St & Madison St,41.8821,-87.6398,2013-06-27,2022-05-11,230680
177,177,422,DuSable Museum,41.7916,-87.6079,2015-07-31,2022-05-11,5370
178,178,509,Troy St & North Ave,41.9098,-87.7053,2015-06-30,2022-05-11,16212
179,179,152,Lincoln Ave & Diversey Pkwy,41.9322,-87.6586,2013-06-27,2022-05-11,80003
180,180,97,Field Museum,41.8653,-87.6179,2013-06-27,2022-05-11,115877
181,181,498,California Ave & Fletcher St,41.9384,-87.698,2015-06-30,2022-05-11,14697
182,182,130,Damen Ave & Division St,41.9033,-87.6784,2013-06-27,2022-05-11,80159
183,183,510,Spaulding Ave & Division St,41.9027,-87.7092,2015-06-30,2022-05-11,9703
184,184,354,Sheridan Rd & Greenleaf Ave,42.0106,-87.6624,2015-06-30,2022-05-11,14424
185,185,56,Desplaines St & Kinzie St,41.8887,-87.6444,2013-06-27,2022-05-11,172254
186,186,178,State St & 19th St,41.8566,-87.6275,2013-06-27,2022-05-11,25638
187,187,317,Wood St & Taylor St (Temp),41.8692,-87.671,2013-06-27,2022-05-11,47577
188,188,338,Calumet Ave & 18th St,41.8576,-87.6194,2013-06-27,2022-05-11,70842
189,189,381,Western Ave & Monroe St,41.8798,-87.6861,2015-06-30,2022-05-11,10666
190,190,100,Orleans St & Merchandise Mart Plaza,41.8882,-87.6364,2013-06-27,2022-05-11,173528
191,191,182,Wells St & Elm St,41.9032,-87.6343,2015-06-30,2022-05-11,127691
192,192,301,Clark St & Schiller St,41.908,-87.6315,2013-06-27,2022-05-11,128672
193,193,240,Sheridan Rd & Irving Park Rd,41.9542,-87.6544,2013-06-27,2022-05-11,108251
194,194,318,Southport Ave & Irving Park Rd,41.9542,-87.6644,2013-06-27,2022-05-11,48961
195,195,197,Michigan Ave & Madison St,41.8821,-87.6251,2013-06-27,2022-05-11,94222
196,196,263,Rhodes Ave & 32nd St,41.8362,-87.6135,2013-06-27,2022-05-11,21870
197,197,415,Calumet Ave & 51st St,41.8023,-87.6181,2015-06-30,2022-05-11,4941
198,198,106,State St & Pearson St,41.8974,-87.6287,2013-06-27,2022-05-11,91451
199,199,38,Clark St & Lake St,41.886,-87.6309,2015-06-30,2022-05-11,108892
200,200,471,Francisco Ave & Foster Ave,41.9756,-87.7014,2015-06-30,2022-05-11,13051
201,201,145,Mies van der Rohe Way & Chestnut St,41.8986,-87.6219,2015-06-30,2022-05-11,107522
202,202,272,Indiana Ave & 31st St,41.8388,-87.6219,2013-06-27,2022-05-11,26684
203,203,156,Clark St & Wellington Ave,41.9365,-87.6475,2013-06-27,2022-05-11,112923
204,204,31,Franklin St & Chicago Ave,41.8967,-87.6357,2013-06-27,2022-05-11,123210
205,205,14,Morgan St & 18th St,41.8581,-87.6511,2013-06-27,2022-05-11,33762
206,206,41,Federal St & Polk St,41.8721,-87.6295,2015-06-30,2022-05-11,97350
207,207,447,Glenwood Ave & Morse Ave,42.008,-87.6655,2015-06-30,2022-05-11,25340
208,208,159,Claremont Ave & Hirsch St,41.9078,-87.6859,2013-06-27,2022-05-11,22436
209,209,230,Lincoln Ave & Roscoe St*,41.9433,-87.671,2013-06-27,2022-05-11,75749
210,210,101,63rd St Beach,41.781,-87.5761,2015-06-30,2022-05-11,10344
211,211,307,Southport Ave & Clybourn Ave,41.9208,-87.6637,2013-06-27,2022-05-11,61747
212,212,426,Ellis Ave & 60th St,41.7851,-87.6011,2015-06-30,2022-05-11,62615
213,213,36,Franklin St & Jackson Blvd,41.8777,-87.6353,2013-06-27,2022-05-11,170991
214,214,596,Benson Ave & Church St,42.0482,-87.6835,2016-06-30,2022-05-11,29816
215,215,93,Sheffield Ave & Willow St,41.9137,-87.6529,2013-06-27,2022-05-11,80335
216,216,452,Western Ave & Granville Ave,41.9942,-87.6894,2015-06-30,2022-05-11,6511
217,217,225,Halsted St & Dickens Ave,41.9199,-87.6488,2013-06-27,2022-05-11,88808
218,218,15,Racine Ave & 18th St,41.8582,-87.6565,2013-06-27,2022-05-11,40087
219,219,44,State St & Randolph St,41.8847,-87.6277,2013-06-27,2022-05-11,149829
220,220,544,Austin Blvd & Madison St,41.8803,-87.7745,2016-06-30,2022-05-11,1410
221,221,461,Broadway & Ridge Ave,41.984,-87.6603,2015-06-30,2022-05-11,34303
222,222,482,Campbell Ave & Montrose Ave,41.9615,-87.6912,2015-06-30,2022-05-11,17795
223,223,259,California Ave & Francis Pl (Temp),41.9185,-87.6974,2013-06-27,2022-05-11,31677
224,224,150,Fort Dearborn Dr & 31st St,41.8386,-87.6082,2013-06-27,2022-05-11,83796
225,225,192,Canal St & Adams St,41.8793,-87.6399,2013-06-27,2022-05-11,313324
226,226,57,Clinton St & Roosevelt Rd,41.8671,-87.6411,2013-06-27,2022-05-11,59261
227,227,624,Dearborn St & Van Buren St,41.8763,-87.6292,2017-09-30,2022-05-11,29028
228,228,355,South Shore Dr & 67th St,41.7736,-87.5675,2015-06-30,2022-05-11,7048
229,229,454,Broadway & Granville Ave,41.9948,-87.6603,2015-06-30,2022-05-11,37869
230,230,68,Clinton St & Tilden St,41.8759,-87.6408,2013-06-27,2022-05-11,50161
231,231,328,Ellis Ave & 58th St,41.7887,-87.6013,2013-06-27,2022-05-11,45708
232,232,51,Clark St & Randolph St,41.8846,-87.6319,2013-06-27,2022-05-11,131905
233,233,112,Green St & Randolph St*,41.8837,-87.6487,2013-06-27,2022-05-11,115662
234,234,143,Sedgwick St & Webster Ave,41.9222,-87.6389,2013-06-27,2022-05-11,107313
235,235,349,Halsted St & Wrightwood Ave,41.9291,-87.6491,2013-06-27,2022-05-11,94079
236,236,495,Keystone Ave & Montrose Ave,41.9611,-87.729,2015-06-30,2022-05-11,5199
237,237,213,Leavitt St & North Ave,41.9102,-87.6823,2013-06-27,2022-05-11,45456
238,238,672,Franklin St & Illinois St,41.891,-87.6355,2019-07-01,2022-05-11,37452
239,239,42,Wabash Ave & Cermak Rd,41.8526,-87.6265,2013-06-27,2022-05-11,25600
240,240,37,Dearborn St & Adams St,41.8794,-87.6298,2013-06-27,2022-05-11,115959
241,241,418,Ellis Ave & 53rd St,41.7993,-87.601,2015-06-30,2022-05-11,30441
242,242,133,Kingsbury St & Kinzie St,41.8892,-87.6385,2015-06-30,2022-05-11,220147
243,243,73,Jefferson St & Monroe St,41.8804,-87.6427,2013-06-27,2022-05-11,82588
244,244,172,Rush St & Cedar St,41.9023,-87.6277,2015-06-30,2022-05-11,95738
245,245,638,Clinton St & Jackson Blvd,41.8781,-87.6398,2018-07-01,2022-05-11,49909
246,246,334,Lake Shore Dr & Belmont Ave,41.9408,-87.6392,2013-06-27,2022-05-11,135785
247,247,316,Damen Ave & Sunnyside Ave,41.9633,-87.6793,2013-06-27,2022-05-11,24308
248,248,584,Ellis Ave & 83rd St,41.7441,-87.599,2016-09-30,2022-05-11,500
249,249,499,Kosciuszko Park,41.9306,-87.7238,2015-06-30,2022-05-11,13188
250,250,575,Cottage Grove Ave & 78th St,41.7532,-87.605,2016-09-30,2022-05-11,899
251,251,19,Throop (Loomis) St & Taylor St,41.869,-87.6591,2013-06-27,2020-11-07,48553
252,252,28,Larrabee St & Menomonee St,41.9147,-87.6433,2013-06-27,2022-05-11,45886
253,253,563,Ashland Ave & 63rd St,41.7794,-87.6648,2016-06-30,2022-05-11,648
254,254,244,Ravenswood Ave & Irving Park Rd,41.9547,-87.6739,2013-06-27,2022-05-11,40017
255,255,469,St. Louis Ave & Balmoral Ave,41.9804,-87.7161,2015-06-30,2022-05-11,6536
256,256,23,Orleans St & Elm St,41.9029,-87.6377,2013-06-27,2022-05-11,40033
257,257,291,Wells St & Evergreen Ave,41.9067,-87.6348,2013-06-27,2022-05-11,131567
258,258,32,Racine Ave & Congress Pkwy,41.8746,-87.657,2013-06-27,2022-05-11,43898
259,259,85,Michigan Ave & Oak St,41.901,-87.6238,2013-06-27,2022-05-11,303846
260,260,232,Pine Grove Ave & Waveland Ave,41.9493,-87.6463,2013-06-27,2022-05-11,109602
261,261,140,Dearborn Pkwy & Delaware Pl,41.899,-87.6299,2013-06-27,2022-05-11,152677
262,262,47,State St & Kinzie St,41.8892,-87.6278,2013-06-27,2022-05-11,161804
263,263,589,Milwaukee Ave & Cuyler Ave,41.9545,-87.7496,2016-09-30,2022-05-11,3464
264,264,45,Michigan Ave & Ida B Wells Dr,41.8762,-87.6244,2013-06-27,2022-05-11,82295
265,265,117,Wilton Ave & Belmont Ave,41.9402,-87.653,2013-06-27,2022-05-11,161766
266,266,602,Central St & Girard Ave,42.0643,-87.6862,2016-09-30,2022-05-11,6920
267,267,604,Sheridan Rd & Noyes St (NU),42.0582,-87.6774,2016-09-30,2022-05-11,21067
268,268,463,Clark St & Berwyn Ave,41.978,-87.668,2015-06-30,2022-05-11,54445
269,269,487,California Ave & Byron St,41.9522,-87.6981,2015-07-31,2022-05-11,10866
270,270,20,Sheffield Ave & Kingsbury St,41.9105,-87.6531,2013-06-27,2022-05-11,89238
271,271,160,Campbell Ave & North Ave,41.9105,-87.6896,2013-06-27,2022-05-11,34796
272,272,46,Wells St & Walton St,41.8999,-87.6344,2013-06-27,2022-05-11,70857
273,273,486,Oakley Ave & Irving Park Rd,41.9543,-87.6861,2015-06-30,2022-05-11,14197
274,274,366,Loomis St & Archer Ave,41.8416,-87.6574,2015-06-30,2022-05-11,7834
275,275,429,Cottage Grove Ave & 67th St,41.7737,-87.6056,2015-06-30,2022-05-11,1726
276,276,21,Aberdeen St & Jackson Blvd,41.8777,-87.6548,2013-06-27,2022-05-11,86220
277,277,496,Avers Ave & Belmont Ave,41.9394,-87.7236,2015-06-30,2022-05-11,9220
278,278,283,LaSalle St & Jackson Blvd,41.8782,-87.6319,2013-06-27,2022-05-11,171424
279,279,217,Elizabeth (May) St & Fulton St,41.8866,-87.658,2013-06-27,2022-05-11,55012
280,280,292,Southport Ave & Clark St,41.9571,-87.6642,2013-06-27,2022-05-11,24432
281,281,119,Ashland Ave & Lake St,41.8859,-87.6672,2013-06-27,2022-05-11,38513
282,282,351,Cottage Grove Ave & 51st St,41.803,-87.6066,2013-06-27,2022-05-11,7488
283,283,481,California Ave & Montrose Ave,41.9611,-87.6954,2015-07-31,2022-05-11,14224
284,284,253,Winthrop Ave & Lawrence Ave,41.9688,-87.6577,2013-06-27,2022-05-11,37323
285,285,302,Sheffield Ave & Wrightwood Ave,41.9287,-87.6538,2013-06-27,2022-05-11,83009
286,286,298,Lincoln Ave & Belle Plaine Ave,41.956,-87.6803,2013-06-27,2022-05-11,39446
287,287,138,Clybourn Ave & Division St,41.9046,-87.6406,2013-06-27,2022-05-11,51615
288,288,493,Western Ave & Roscoe St,41.943,-87.6873,2015-06-30,2022-05-11,20041
289,289,5,State St & Harrison St,41.8741,-87.6277,2013-06-27,2022-05-11,71267
290,290,224,Halsted St & Willow St,41.9139,-87.6488,2013-06-27,2022-05-11,64295
291,291,645,Archer (Damen) Ave & 37th St,41.8267,-87.6831,2019-01-01,2022-05-11,1940
292,292,196,Cityfront Plaza Dr & Pioneer Ct,41.8906,-87.6221,2013-06-27,2022-05-11,106600
293,293,108,Halsted St & Polk St,41.8718,-87.6466,2013-06-27,2022-05-11,67022
294,294,122,Ogden Ave & Congress Pkwy,41.875,-87.6733,2013-06-27,2022-05-11,20566
295,295,258,Logan Blvd & Elston Ave,41.9295,-87.6842,2013-06-27,2022-05-11,40316
296,296,457,Clark St & Elmdale Ave,41.9905,-87.6698,2015-06-30,2022-05-11,18487
297,297,7,Field Blvd & South Water St,41.8863,-87.6175,2015-06-30,2022-05-11,77999
298,298,126,Clark St & North Ave,41.912,-87.6319,2013-06-27,2022-05-11,98861
299,299,287,Franklin St & Monroe St,41.8803,-87.6352,2013-06-27,2022-05-11,210269
300,300,264,Stetson Ave & South Water St,41.8868,-87.6223,2013-06-27,2022-05-11,106262
301,301,297,Paulina St & Montrose Ave,41.9615,-87.6714,2013-06-27,2022-05-11,21734
302,302,121,Blackstone Ave & Hyde Park Blvd,41.8026,-87.5904,2013-06-27,2022-05-11,28214
303,303,343,Racine Ave & Wrightwood Ave,41.9289,-87.659,2013-06-27,2022-05-11,47248
304,304,158,Milwaukee Ave & Wabansia Ave,41.9126,-87.6814,2013-06-27,2022-05-11,76830
305,305,631,Malcolm X College,41.8776,-87.6739,2018-07-01,2022-05-11,5339
306,306,480,Albany Ave & Montrose Ave,41.961,-87.7059,2015-06-30,2022-05-11,9268
307,307,628,Walsh Park,41.9146,-87.668,2018-07-01,2022-05-11,18886
308,308,491,Talman Ave & Addison St,41.9466,-87.6946,2015-06-30,2022-05-11,16030
309,309,459,Lakefront Trail & Bryn Mawr Ave,41.984,-87.6523,2015-06-30,2022-05-11,85961
310,310,310,Damen Ave & Charleston St,41.9201,-87.6779,2013-06-27,2022-05-11,38265
311,311,417,Cornell Ave & Hyde Park Blvd,41.8024,-87.5869,2015-06-30,2022-05-11,43881
312,312,149,Calumet Ave & 33rd St,41.8349,-87.6179,2013-06-27,2022-05-11,29008
313,313,462,Winchester (Ravenswood) Ave & Balmoral Ave,41.9798,-87.6775,2015-06-30,2022-05-11,13777
314,314,256,Broadway & Sheridan Rd,41.9528,-87.65,2013-06-27,2022-05-11,67933
315,315,190,Southport Ave & Wrightwood Ave,41.9288,-87.6639,2013-06-27,2022-05-11,66548
316,316,478,Rockwell St & Eastwood Ave,41.9659,-87.6936,2015-06-30,2022-05-11,17339
317,317,451,Sheridan Rd & Loyola Ave,42.001,-87.6612,2015-06-30,2022-05-11,28621
318,318,497,Kimball Ave & Belmont Ave,41.9394,-87.7116,2015-06-30,2022-05-11,13429
319,319,490,Troy St & Elston Ave,41.9452,-87.7066,2015-06-30,2022-05-11,14231
320,320,500,Central Park Ave & Elbridge Ave,41.9353,-87.7169,2015-06-30,2022-05-11,10260
321,321,98,LaSalle St & Washington St,41.8827,-87.6325,2013-06-27,2022-05-11,107137
322,322,532,Austin Blvd & Lake St,41.8879,-87.7744,2016-06-30,2022-05-11,2740
323,323,251,Clarendon Ave & Leland Ave,41.968,-87.65,2013-06-27,2022-05-11,39710
324,324,458,Broadway & Thorndale Ave,41.9897,-87.6601,2015-06-30,2022-05-11,33991
325,325,315,Elston Ave & Wabansia Ave,41.9129,-87.6642,2013-06-27,2022-05-11,24715
326,326,603,Chicago Ave & Sheridan Rd,42.0505,-87.6778,2016-09-30,2022-05-11,17551
327,327,383,Paulina St & Flournoy St,41.873,-87.6691,2015-06-30,2022-05-11,45450
328,328,394,Clark St & 9th St (AMLI),41.8708,-87.6312,2015-08-31,2022-05-11,32963
329,329,48,Larrabee St & Kingsbury St,41.8978,-87.6429,2013-06-27,2022-05-11,155631
330,330,515,Paulina St & Howard St,42.0192,-87.6736,2016-09-30,2022-05-11,12034
331,331,226,Racine Ave & Belmont Ave,41.9397,-87.6589,2013-06-27,2022-05-11,74060
332,332,261,Hermitage Ave & Polk St,41.8715,-87.6699,2013-06-27,2022-05-11,38909
333,333,89,Financial Pl & Ida B Wells Dr,41.875,-87.6331,2015-06-30,2022-05-11,60725
334,334,488,Pulaski Rd & Eddy St (Temp),41.9463,-87.731,2015-06-30,2022-05-11,3530
335,335,352,Jeffery Blvd & 67th St,41.7735,-87.5771,2015-06-30,2022-05-11,4240
336,336,382,Western Ave & Congress Pkwy,41.8747,-87.6864,2015-06-30,2022-05-11,14916
337,337,288,Larrabee St & Armitage Ave,41.9181,-87.6437,2013-06-27,2022-05-11,62657
338,338,423,University Ave & 57th St,41.7915,-87.5999,2015-06-30,2022-05-11,81826
339,339,295,Broadway & Argyle St,41.9738,-87.6597,2013-06-27,2022-05-11,44630
340,340,327,Sheffield Ave & Webster Ave,41.9215,-87.6538,2013-06-27,2022-05-11,98559
341,341,22,May St & Taylor St,41.8695,-87.6555,2013-06-27,2022-05-11,66896
342,342,410,Prairie Ave & 43rd St,41.8167,-87.6194,2015-06-30,2022-05-11,4628
343,343,308,Seeley Ave & Roscoe St,41.9434,-87.6796,2013-06-27,2022-05-11,33400
344,344,622,California Ave & Cortez St,41.9004,-87.6967,2017-06-30,2022-05-11,21510
345,345,30,Ashland Ave & Augusta Blvd,41.8996,-87.6677,2013-06-27,2022-05-11,48270
346,346,215,Damen Ave & Madison St,41.8814,-87.6749,2013-06-27,2022-05-11,21336
347,347,96,Desplaines St & Randolph St,41.8846,-87.6446,2015-06-30,2022-05-11,74975
348,348,58,Marshfield Ave & Cortland St,41.916,-87.6689,2013-06-27,2022-05-11,113595
349,349,124,Damen Ave & Cullerton St,41.855,-87.6757,2013-06-27,2022-05-11,16455
350,350,39,Wabash Ave & Adams St,41.8795,-87.6257,2015-06-30,2022-05-11,78043
351,351,453,Clark St & Schreiber Ave,41.9993,-87.6714,2015-06-30,2022-05-11,13184
352,352,163,Damen Ave & Clybourn Ave,41.9319,-87.6779,2013-06-27,2022-05-11,29648
353,353,333,Ashland Ave & Blackhawk St,41.9071,-87.6673,2013-06-27,2022-05-11,59562
354,354,175,Wells St & Polk St,41.8726,-87.6335,2013-06-27,2022-05-11,78985
355,355,601,Central St Metra,42.0636,-87.6987,2016-06-30,2022-05-11,7512
356,356,540,Laramie Ave & Madison St,41.8802,-87.7553,2016-06-30,2022-05-11,785
357,357,239,Western Ave & Leland Ave,41.9665,-87.6884,2013-06-27,2022-05-11,46384
358,358,323,Sheridan Rd & Lawrence Ave,41.9695,-87.6547,2013-06-27,2022-05-11,31469
359,359,341,Adler Planetarium,41.8661,-87.6073,2013-06-27,2022-05-11,144025
360,360,146,Loomis St & Jackson Blvd,41.8779,-87.662,2013-06-27,2022-05-11,40406
361,361,456,2112 W Peterson Ave,41.9912,-87.6836,2015-06-30,2022-05-11,4549
362,362,203,Western Ave & 21st St,41.8541,-87.6858,2013-06-27,2022-05-11,11199
363,363,148,State St & 33rd St,41.8347,-87.6258,2013-06-27,2022-05-11,53387
364,364,425,Harper Ave & 59th St,41.7879,-87.5883,2015-06-30,2022-05-11,19750
365,365,477,Manor Ave & Leland Ave,41.9659,-87.7008,2015-06-30,2022-05-11,9682
366,366,660,Sheridan Rd & Columbia Ave,42.0046,-87.6614,2018-10-01,2022-05-11,10515
367,367,228,Damen Ave & Melrose Ave,41.9406,-87.6785,2013-06-27,2022-05-11,25611
368,368,229,Southport Ave & Roscoe St,41.9437,-87.664,2013-06-27,2022-05-11,110427
369,369,91,Clinton St & Washington Blvd,41.8834,-87.6412,2013-06-27,2022-05-11,326831
370,370,234,Clark St & Montrose Ave,41.9616,-87.666,2013-06-27,2022-05-11,39028
371,371,501,Richmond St & Diversey Ave,41.9319,-87.7012,2015-06-30,2022-05-11,16008
372,372,49,Dearborn St & Monroe St,41.8813,-87.6295,2013-06-27,2022-05-11,174063
373,373,413,Woodlawn Ave & Lake Park Ave,41.8141,-87.597,2015-06-30,2022-05-11,9048
374,374,280,Morgan St & 31st St,41.8378,-87.6511,2013-06-27,2022-05-11,18135
375,375,619,Keystone Ave & Fullerton Ave,41.9246,-87.7279,2016-09-30,2022-05-11,4943
376,376,27,Larrabee St & North Ave,41.9102,-87.6435,2013-06-27,2022-05-11,41331
377,377,6,Dusable Harbor,41.887,-87.6128,2015-06-30,2022-05-11,129211
378,378,184,State St & 35th St,41.8309,-87.628,2013-06-27,2022-05-11,23903
379,379,448,Warren Park East,42.0046,-87.6807,2015-06-30,2022-05-11,5874
380,380,370,Calumet Ave & 21st St,41.8542,-87.6192,2015-06-30,2022-05-11,25112
381,381,286,Franklin St & Adams St (Temp),41.8794,-87.6355,2013-06-27,2022-05-11,103926
382,382,494,Kedzie Ave & Bryn Mawr Ave,41.9824,-87.7089,2015-06-30,2022-05-11,5283
383,383,257,Lincoln Ave & Waveland Ave,41.9488,-87.6753,2013-06-27,2022-05-11,35930
384,384,345,Lake Park Ave & 56th St,41.7932,-87.5878,2013-06-27,2022-05-11,40690
385,385,66,Clinton St & Lake St,41.8856,-87.6418,2013-06-27,2022-05-11,168796
386,386,319,Greenview Ave & Diversey Pkwy,41.9326,-87.6659,2013-06-27,2022-05-11,36429
387,387,209,Normal Ave & Archer Ave,41.8495,-87.6406,2013-06-27,2022-05-11,10193
388,388,278,Wallace St & 35th St,41.8306,-87.6413,2013-06-27,2022-05-11,12837
389,389,636,Orleans St & Hubbard St,41.89,-87.6366,2018-07-01,2022-05-11,29719
390,390,242,Damen Ave & Leland Ave,41.9671,-87.679,2013-06-27,2022-05-11,42957
391,391,597,Chicago Ave & Washington St,42.0326,-87.6791,2016-06-30,2022-05-11,18519
392,392,550,Central Ave & Chicago Ave,41.895,-87.7649,2016-09-30,2022-05-11,1579
393,393,450,Warren Park West,42.0018,-87.6888,2015-06-30,2022-05-11,5642
394,394,402,Shields Ave & 31st St,41.8385,-87.6354,2015-06-30,2022-05-11,16165
395,395,484,Monticello Ave & Irving Park Rd,41.954,-87.7191,2015-06-30,2022-05-11,8853
396,396,533,Central Park Blvd & 5th Ave,41.8757,-87.7155,2016-06-30,2022-05-11,1001
397,397,511,Albany Ave & Bloomingdale Ave,41.914,-87.7051,2015-06-30,2022-05-11,30685
398,398,116,Western Ave & Winnebago Ave,41.9155,-87.687,2013-06-27,2022-05-11,64516
399,399,241,Morgan St & Polk St,41.8717,-87.651,2013-06-27,2022-05-11,92457
400,400,219,Damen Ave & Cortland St,41.916,-87.6773,2013-06-27,2022-05-11,78012
401,401,282,Halsted St & Maxwell St,41.8649,-87.6471,2013-06-27,2022-05-11,53288
402,402,420,Ellis Ave & 55th St,41.7943,-87.6015,2015-06-30,2022-05-11,56010
403,403,75,Canal St & Jackson Blvd,41.8772,-87.6394,2013-06-27,2022-05-11,139927
404,404,271,Cottage Grove Ave & 43rd St,41.8165,-87.6066,2013-06-27,2022-05-11,5801
405,405,505,Winchester Ave & Elston Ave,41.9241,-87.6765,2015-06-30,2022-05-11,19298
406,406,430,MLK Jr Dr & 63rd St,41.7801,-87.6159,2015-06-30,2022-05-11,1465
407,407,252,Greenwood Ave & 47th St,41.8098,-87.5994,2013-06-27,2022-05-11,14099
408,408,185,Stave St & Armitage Ave,41.9177,-87.6914,2013-06-27,2022-05-11,24101
409,409,411,Halsted St & 47th Pl,41.8081,-87.6456,2015-06-30,2022-05-11,2862
410,410,33,State St & Van Buren St,41.8772,-87.6278,2013-06-27,2022-05-11,99043
411,411,502,California Ave & Altgeld St,41.9267,-87.6977,2015-06-30,2022-05-11,21098
412,412,246,Ashland Ave & Belle Plaine Ave,41.9561,-87.6688,2013-06-27,2022-05-11,22679
413,413,99,Lake Shore Dr & Ohio St,41.8926,-87.6145,2013-06-27,2022-05-11,142917
414,414,339,Emerald Ave & 31st St,41.8382,-87.6451,2013-06-27,2022-05-11,28100
415,415,326,Clark St & Leland Ave,41.9671,-87.6674,2013-06-27,2022-05-11,47378
416,416,284,Michigan Ave & Jackson Blvd,41.8779,-87.6241,2013-06-27,2022-05-11,130194
417,417,427,Cottage Grove Ave & 63rd St,41.7806,-87.6061,2015-06-30,2022-05-11,4627
418,418,506,Spaulding Ave & Armitage Ave,41.9171,-87.7102,2015-06-30,2022-05-11,23851
419,419,40,LaSalle St & Adams St,41.8793,-87.632,2015-06-30,2022-05-11,54495
420,420,103,Clinton St & Polk St,41.8715,-87.6409,2015-06-30,2022-05-11,13121
421,421,559,Racine Ave & Garfield Blvd,41.7942,-87.6551,2016-06-30,2022-05-11,876
422,422,25,Michigan Ave & Pearson St,41.8977,-87.6235,2013-06-27,2022-05-11,110350
423,423,55,Halsted St & Roosevelt Rd,41.8673,-87.6486,2013-06-27,2022-05-11,40636
424,424,87,Racine Ave & Fullerton Ave,41.9256,-87.6584,2013-06-27,2022-05-11,75635
425,425,527,Western Ave & Howard St,42.0189,-87.69,2016-09-30,2022-05-11,4012
426,426,467,Western Ave & Lunt Ave,42.0086,-87.6905,2015-06-30,2022-05-11,8346
427,427,285,Wood St & Hubbard St,41.8899,-87.6715,2013-06-27,2022-05-11,31754
428,428,637,Wood St & Chicago Ave,41.8956,-87.6721,2018-07-01,2022-05-11,18570
429,429,489,Drake Ave & Addison St,41.9473,-87.7176,2015-06-30,2022-05-11,9173
430,430,207,Emerald Ave & 28th St,41.8436,-87.6454,2013-06-27,2022-05-11,16943
431,431,375,Sacramento Blvd & Franklin Blvd,41.8905,-87.7026,2015-06-30,2022-05-11,2926
432,432,522,Bosworth Ave & Howard St,42.0195,-87.6696,2016-09-30,2022-05-11,4200
433,433,485,Sawyer Ave & Irving Park Rd,41.9536,-87.7093,2015-06-30,2022-05-11,7636
434,434,443,Millard Ave & 26th St,41.8446,-87.7159,2015-06-30,2022-05-11,1862
435,435,204,Prairie Ave & Garfield Blvd,41.7949,-87.6187,2013-06-27,2022-05-31,11486
436,436,658,Leavitt St & Division St,41.903,-87.6838,2018-10-01,2022-05-11,11194
437,437,376,Artesian Ave & Hubbard St,41.8895,-87.6882,2015-06-30,2022-05-11,33470
438,438,335,Calumet Ave & 35th St,41.8314,-87.618,2013-06-27,2022-05-11,9680
439,439,666,Cherry Ave & Blackhawk St,41.9072,-87.6556,2019-07-01,2022-05-11,3752
440,440,419,Lake Park Ave & 53rd St,41.7995,-87.5864,2015-06-30,2022-05-11,32682
441,441,407,State St & Pershing Rd,41.823,-87.6266,2015-06-30,2022-05-11,1537
442,442,137,Morgan Ave & 14th Pl,41.8624,-87.6511,2013-06-27,2022-05-11,36996
443,443,449,Clark St & Columbia Ave,42.0045,-87.6724,2015-06-30,2022-05-11,12857
444,444,440,Central Park Ave & 24th St,41.8481,-87.7151,2015-06-30,2022-05-11,825
445,445,136,Racine Ave & 13th St,41.8651,-87.657,2013-06-27,2022-05-11,8837
446,446,518,Conservatory Dr & Lake St,41.8855,-87.7169,2016-06-30,2022-05-11,4223
447,447,364,Larrabee St & Oak St,41.9002,-87.643,2015-06-30,2022-05-11,56056
448,448,330,Lincoln Ave & Addison St,41.9462,-87.6733,2013-06-27,2022-05-11,21611
449,449,653,Cornell Dr & Hayes Dr,41.7806,-87.5848,2018-10-01,2022-05-11,1393
450,450,431,Eberhart Ave & 61st St,41.7841,-87.6133,2015-06-30,2022-05-11,2005
451,451,18,Wacker Dr & Washington St,41.8831,-87.6373,2015-06-30,2022-05-11,93981
452,452,267,Lake Park Ave & 47th St,41.8094,-87.5919,2013-06-27,2022-05-11,21054
453,453,438,Central Park Ave & Ogden Ave,41.8542,-87.7154,2015-06-30,2022-05-11,2719
454,454,62,McCormick Place,41.8514,-87.6188,2013-06-27,2022-05-11,48169
455,455,373,Kedzie Ave & Chicago Ave,41.8955,-87.7061,2015-06-30,2022-05-11,5244
456,456,171,May St & Cullerton St,41.8551,-87.6541,2013-06-27,2022-05-11,14015
457,457,558,Ashland Ave & Garfield Blvd,41.7928,-87.6644,2016-06-30,2022-05-11,493
458,458,546,Damen Ave & Pershing Rd,41.8232,-87.6766,2016-06-30,2022-05-11,2036
459,459,551,Hoyne Ave & 47th St,41.8082,-87.6772,2016-06-30,2022-05-11,1250
460,460,594,Western Blvd & 48th Pl,41.8057,-87.6834,2016-06-30,2022-05-11,1596
461,461,281,Western Ave & 24th St,41.8485,-87.6851,2013-06-27,2022-05-11,5212
462,462,385,Princeton Ave & Garfield Blvd,41.795,-87.6331,2015-06-30,2022-05-11,2459
463,463,11,Jeffery Blvd & 71st St,41.7666,-87.5764,2015-06-30,2022-05-11,2629
464,464,437,Washtenaw Ave & Ogden Ave,41.8619,-87.6935,2015-06-30,2022-05-11,6490
465,465,365,Halsted St & North Branch St,41.8994,-87.6485,2015-06-30,2022-05-11,15341
466,466,446,Western Ave & 28th St,41.8415,-87.6851,2015-06-30,2022-05-11,1511
467,467,552,Ashland Ave & McDowell Ave,41.8089,-87.6645,2016-06-30,2022-05-11,2102
468,468,557,Seeley Ave & Garfield Blvd,41.7941,-87.6755,2016-09-30,2022-05-11,279
469,469,170,Clinton St & 18th St,41.858,-87.6408,2013-06-27,2022-05-11,22217
470,470,590,Kilbourn Ave & Irving Park Rd,41.9537,-87.7406,2016-09-30,2022-05-11,3293
471,471,433,Kedzie Ave & Harrison St,41.8736,-87.7049,2015-06-30,2022-05-11,1311
472,472,625,Chicago Ave & Dempster St,42.0417,-87.6807,2017-09-30,2020-11-07,6643
473,473,599,Valli Produce - Evanston Plaza,42.0397,-87.6994,2016-09-30,2022-05-11,4026
474,474,585,Cottage Grove Ave & 83rd St,41.7434,-87.6048,2016-09-30,2022-05-11,1098
475,475,314,Ravenswood Ave & Berteau Ave,41.9579,-87.6736,2013-06-27,2022-05-11,29087
476,476,348,California Ave & 21st St,41.8538,-87.6957,2013-06-27,2022-05-11,7478
477,477,265,Cottage Grove Ave & Oakwood Blvd,41.823,-87.6071,2013-06-27,2022-05-11,11976
478,478,600,Dodge Ave & Church St,42.0483,-87.6982,2016-06-30,2022-05-11,5089
479,479,408,Union Ave & Root St,41.8191,-87.6433,2015-06-30,2022-05-11,2362
480,480,571,Vernon Ave & 75th St,41.7584,-87.6141,2016-09-30,2022-05-11,888
481,481,468,Budlong Woods Library,41.9837,-87.6964,2015-06-30,2022-05-11,5345
482,482,135,Halsted St & 21st St,41.8538,-87.6466,2013-06-27,2022-05-11,12415
483,483,378,California Ave & Lake St,41.8845,-87.6963,2015-06-30,2022-05-11,5323
484,484,132,Wentworth Ave & 24th St (Temp),41.8501,-87.6321,2013-06-27,2022-05-11,12390
485,485,547,Ashland Ave & Pershing Rd,41.8235,-87.6656,2016-06-30,2022-05-11,1665
486,486,277,Ashland Ave & Grand Ave,41.8911,-87.6666,2013-06-27,2022-05-11,36832
487,487,120,Wentworth Ave & Cermak Rd,41.853,-87.6306,2013-06-27,2022-05-11,46302
488,488,3,Shedd Aquarium,41.8672,-87.6154,2015-06-30,2022-05-11,181529
489,489,548,Morgan St & Pershing Rd,41.8236,-87.6509,2016-06-30,2022-05-11,644
490,490,177,Theater on the Lake,41.9263,-87.6308,2013-06-27,2022-05-11,322875
491,491,369,Wood St & 35th St,41.8301,-87.6703,2015-06-30,2022-05-11,3611
492,492,169,Canal St & Harrison St,41.8743,-87.6396,2013-06-27,2022-05-11,29015
493,493,274,Racine Ave & 15th St,41.8613,-87.6566,2013-06-27,2022-05-11,19350
494,494,524,Austin Blvd & Chicago Ave,41.8949,-87.7747,2016-09-30,2022-05-11,1263
495,495,311,Leavitt St & Lawrence Ave,41.9689,-87.684,2013-06-27,2022-05-11,23161
496,496,439,Kedzie Ave & 21st St,41.8535,-87.7051,2015-06-30,2022-05-11,2693
497,497,403,Wentworth Ave & 33rd St,41.8345,-87.6318,2015-06-30,2022-05-11,12795
498,498,412,Princeton Ave & 47th St,41.8093,-87.6334,2015-06-30,2022-05-11,2383
499,499,595,Wabash Ave & 87th St,41.7366,-87.6226,2016-09-30,2022-05-11,1031
500,500,466,Ridge Blvd & Touhy Ave,42.0121,-87.6829,2015-06-30,2022-05-11,4542
501,501,416,Dorchester Ave & 49th St,41.8058,-87.5925,2015-06-30,2022-05-11,6904
502,502,654,Racine Ave & Washington Blvd,41.8831,-87.657,2018-10-01,2022-05-11,14539
503,503,470,Kedzie Ave & Foster Ave,41.9757,-87.7093,2015-06-30,2022-05-11,7211
504,504,586,MLK Jr Dr & 83rd St,41.7431,-87.6148,2016-09-30,2022-05-11,608
505,505,663,Lincolnwood Dr & Central St,42.0649,-87.7153,2018-10-01,2022-05-11,2477
506,506,201,Indiana Ave & 40th St,41.8217,-87.6216,2013-06-27,2022-05-11,3729
507,507,587,Wabash Ave & 83rd St,41.7433,-87.6228,2016-09-30,2022-05-11,420
508,508,514,Ridge Blvd & Howard St,42.0193,-87.6845,2016-09-30,2022-05-11,3770
509,509,492,Leavitt St & Addison St,41.9467,-87.6834,2015-06-30,2022-05-11,13852
510,510,573,State St & 79th St,41.7508,-87.6244,2016-09-30,2022-05-11,1647
511,511,275,Ashland Ave & 13th St,41.8652,-87.6665,2013-06-27,2022-05-11,16302
512,512,400,Cottage Grove Ave & 71st St,41.7657,-87.605,2015-06-30,2022-05-11,888
513,513,162,Damen Ave & Wellington Ave,41.9359,-87.6784,2013-06-27,2022-05-11,32800
514,514,474,Christiana Ave & Lawrence Ave,41.9684,-87.7118,2015-06-30,2022-05-11,10036
515,515,539,Cicero Ave & Quincy St,41.8776,-87.7454,2016-06-30,2022-05-11,530
516,516,593,Halsted St & 59th St,41.7875,-87.6449,2016-09-30,2022-05-11,277
517,517,428,Dorchester Ave & 63rd St,41.7804,-87.5914,2015-06-30,2022-05-11,4509
518,518,525,Glenwood Ave & Touhy Ave,42.0127,-87.6661,2016-09-30,2022-05-11,7267
519,519,541,Central Ave & Harrison St,41.873,-87.7645,2016-06-30,2022-05-11,742
520,520,441,Kedzie Ave & 24th St,41.8482,-87.7054,2015-06-30,2022-05-11,1251
521,521,435,Kedzie Ave & Roosevelt Rd,41.8665,-87.7065,2015-06-30,2022-05-11,2389
522,522,421,MLK Jr Dr & 56th St,41.7934,-87.6159,2015-06-30,2022-05-11,2124
523,523,12,South Shore Dr & 71st St,41.7664,-87.5657,2015-06-30,2022-05-11,8063
524,524,588,South Chicago Ave & 83rd St,41.7439,-87.5752,2016-09-30,2022-05-11,358
525,525,664,Leavitt St & Belmont Ave,41.9394,-87.6833,2018-10-01,2022-05-11,9473
526,526,646,State St & 54th St,41.7966,-87.6259,2018-10-01,2022-05-11,647
527,527,483,Avondale Ave & Irving Park Rd,41.9534,-87.732,2015-06-30,2022-05-11,10299
528,528,393,Calumet Ave & 71st St,41.7655,-87.6169,2015-06-30,2022-05-11,519
529,529,479,Drake Ave & Montrose Ave,41.9612,-87.7166,2015-06-30,2022-05-11,8670
530,530,167,Damen Ave & Coulter St,41.8492,-87.6756,2013-06-27,2022-05-11,3765
531,531,528,Pulaski Rd & Lake St,41.8854,-87.7265,2016-06-30,2022-05-11,1111
532,532,536,Kostner Ave & Lake St,41.8859,-87.7354,2016-06-30,2022-05-11,405
533,533,530,Laramie Ave & Kinzie St,41.8878,-87.7555,2016-06-30,2022-05-11,655
534,534,529,Cicero Ave & Lake St,41.8868,-87.7453,2016-06-30,2022-05-11,762
535,535,476,Kedzie Ave & Leland Ave,41.9667,-87.7081,2015-06-30,2022-05-11,8895
536,536,592,Knox Ave & Montrose Ave,41.9606,-87.7454,2016-09-30,2022-05-11,3339
537,537,399,South Shore Dr & 74th St,41.7622,-87.5593,2015-06-30,2022-05-11,3751
538,538,353,Clark St & Touhy Ave,42.0126,-87.6744,2015-06-30,2022-05-11,4730
539,539,401,Shields Ave & 28th Pl,41.8427,-87.6355,2015-06-30,2022-05-11,8761
540,540,583,Stony Island Ave & 82nd St,41.7466,-87.586,2016-09-30,2022-05-11,802
541,541,662,Dodge Ave & Mulford St,42.0235,-87.6996,2018-10-01,2022-05-11,1921
542,542,395,Jeffery Blvd & 76th St,41.7571,-87.5758,2015-06-30,2022-05-11,1129
543,543,564,Racine Ave & 65th St,41.7754,-87.6543,2016-09-30,2022-05-11,252
544,544,396,Yates Blvd & 75th St,41.7588,-87.5664,2015-06-30,2022-05-11,1189
545,545,562,Racine Ave & 61st St,41.7832,-87.6544,2016-09-30,2022-05-11,140
546,546,444,Albany Ave & 26th St,41.8445,-87.702,2015-06-30,2022-05-11,1658
548,548,270,Stony Island Ave & 75th St,41.7587,-87.5869,2015-06-30,2022-05-11,1683
549,549,579,Phillips Ave & 79th St,41.7518,-87.5652,2016-09-30,2022-05-11,1035
550,550,591,Kilbourn Ave & Milwaukee Ave,41.9488,-87.74,2016-09-30,2022-05-11,2907
551,551,95,Stony Island Ave & 64th St,41.7789,-87.5866,2015-06-30,2022-05-11,2705
552,552,568,Vincennes Ave & 75th St,41.758,-87.6312,2016-06-30,2022-05-11,343
553,553,534,Karlov Ave & Madison St,41.8809,-87.7279,2016-06-30,2022-05-11,786
554,554,543,Laramie Ave & Gladys Ave,41.8758,-87.7553,2016-06-30,2022-05-11,444
555,555,640,Bernard St & Elston Ave,41.9499,-87.7139,2018-10-01,2022-05-11,3404
556,556,641,Central Park Ave & Bloomingdale Ave,41.9142,-87.7168,2018-10-01,2022-05-11,8520
557,557,388,Halsted St & 63rd St,41.7794,-87.6446,2015-06-30,2022-05-13,1608
558,558,535,Pulaski Rd & Congress Pkwy,41.8743,-87.7257,2016-06-30,2022-05-11,862
559,559,356,Stony Island Ave & 71st St,41.7665,-87.5865,2015-06-30,2022-05-11,2180
560,560,630,Kildare Ave & Montrose Ave,41.9611,-87.7357,2018-07-01,2022-05-11,2057
561,561,644,Western Ave & Fillmore St,41.8686,-87.6862,2018-10-01,2022-05-11,12168
562,562,574,Vernon Ave & 79th St,41.7509,-87.6138,2016-09-30,2022-05-11,681
563,563,218,Wells St & 19th St,41.8568,-87.6339,2013-06-27,2022-05-11,14741
564,564,577,Stony Island Ave & South Chicago Ave,41.7512,-87.5853,2016-09-30,2022-05-11,628
565,565,390,Wentworth Ave & 63rd St,41.7801,-87.6297,2015-06-30,2022-05-11,1511
566,566,262,Halsted St & 37th St,41.8271,-87.6457,2013-06-27,2022-05-11,4806
567,567,570,Evans Ave & 75th St,41.7585,-87.6064,2016-09-30,2022-05-11,1121
568,568,572,State St & 76th St,41.757,-87.6246,2016-06-30,2022-05-11,478
569,569,650,Eggleston Ave & 69th St,41.7689,-87.6359,2018-10-01,2022-05-11,410
570,570,545,Kostner Ave & Adams St,41.8779,-87.7357,2016-06-30,2022-05-11,799
571,571,569,Woodlawn Ave & 75th St,41.7592,-87.5958,2016-09-30,2022-05-11,289
572,572,651,Michigan Ave & 71st St,41.7653,-87.6217,2018-10-01,2022-05-11,282
573,573,102,Stony Island Ave & 67th St,41.7735,-87.5853,2015-06-30,2022-05-11,2724
574,574,656,Damen Ave & Walnut (Lake) St,41.886,-87.677,2018-10-01,2022-05-11,7152
575,575,655,Hoyne Ave & Balmoral Ave,41.9799,-87.6819,2018-10-01,2022-05-11,5873
576,576,384,Halsted St & 51st St,41.8018,-87.6452,2015-06-30,2022-05-11,472
577,577,436,Fairfield Ave & Roosevelt Rd,41.8666,-87.6945,2015-06-30,2022-05-11,3763
578,578,639,Lakefront Trail & Wilson Ave,41.9658,-87.6454,2018-07-01,2022-05-11,25861
579,579,392,Perry Ave & 69th St,41.7693,-87.6282,2015-06-30,2022-05-11,974
580,580,531,Central Ave & Lake St,41.8877,-87.7655,2016-09-30,2022-05-11,1021
581,581,643,Smith Park,41.892,-87.6894,2018-07-01,2022-05-11,5513
582,582,556,Throop St & 52nd St,41.7997,-87.6572,2016-06-30,2022-05-11,298
583,583,554,Damen Ave & 51st St,41.8009,-87.6747,2016-06-30,2022-05-11,467
584,584,642,Latrobe Ave & Chicago Ave,41.8947,-87.7569,2019-04-01,2022-05-11,430
585,585,567,May St & 69th St,41.7689,-87.6529,2016-09-30,2022-05-11,552
586,586,561,Damen Ave & 59th St,41.786,-87.6742,2016-06-30,2022-05-11,433
587,587,565,Ashland Ave & 66th St,41.7741,-87.6638,2016-06-30,2022-05-11,351
588,588,542,Central Ave & Madison St,41.8801,-87.7632,2016-06-30,2022-05-11,934
589,589,538,Cicero Ave & Flournoy St,41.8721,-87.7466,2016-06-30,2022-05-11,281
590,590,445,California Ave & 26th St,41.844,-87.6953,2015-06-30,2022-05-11,1734
591,591,386,Halsted St & 56th St,41.7929,-87.645,2015-06-30,2022-05-11,606
592,592,409,Shields Ave & 43rd St,41.8162,-87.6348,2015-06-30,2022-05-11,503
593,594,555,Ashland Ave & 50th St,41.803,-87.6647,2016-06-30,2022-05-11,599
594,595,398,Rainbow Beach,41.7579,-87.5494,2015-06-30,2022-05-11,1532
595,596,578,Bennett Ave & 79th St,41.7518,-87.5785,2016-09-30,2022-05-11,478
596,597,580,Exchange Ave & 79th St,41.7517,-87.5528,2016-09-30,2022-05-11,1104
597,598,391,Halsted St & 69th St,41.7691,-87.6446,2015-06-30,2022-05-11,626
598,599,549,Marshfield Ave & 44th St,41.814,-87.6666,2016-09-30,2022-05-11,931
599,600,649,Stewart Ave & 63rd St,41.7798,-87.6348,2018-10-01,2022-05-11,366
600,601,4,Burnham Harbor,41.8563,-87.6133,2015-06-30,2022-05-11,110716
601,602,249,Montrose Harbor,41.964,-87.6382,2013-06-27,2022-05-11,123772
602,603,652,Rhodes Ave & 71st St,41.766,-87.6117,2019-04-01,2022-05-11,196
603,604,560,Marshfield Ave & 59th St,41.7868,-87.6662,2016-06-30,2022-05-11,272
604,605,582,Phillips Ave & 83rd St,41.7445,-87.5651,2016-09-30,2022-05-11,476
605,606,576,Greenwood Ave & 79th St,41.7513,-87.5976,2016-09-30,2022-05-11,706
606,607,537,Kenton Ave & Madison St,41.8807,-87.741,2016-06-30,2022-05-11,414
607,608,553,Elizabeth St & 47th St,41.8084,-87.6565,2016-06-30,2022-05-11,573
608,609,647,Elizabeth St & 59th St,41.7867,-87.6559,2019-01-01,2022-05-11,121
609,610,566,Ashland Ave & 69th St,41.7687,-87.6641,2016-06-30,2020-10-31,249
610,611,665,South Chicago Ave & Elliot Ave,41.747363,-87.580046,2019-01-01,2022-05-11,110
611,612,681.0,Halsted St & 78th St,41.752487,-87.643902,2020-07-09,2022-05-11,245
612,614,677.0,Stewart Ave & 83rd St,41.743717,-87.634088,2020-07-09,2022-05-11,329
613,615,683.0,Ashland Ave & 78th St,41.75223483333333,-87.66386033333333,2020-07-09,2022-05-11,332
614,617,678.0,Halsted St & 73rd St,41.761605,-87.644161,2020-07-09,2022-05-11,214
616,619,690.0,State St & 95th St,41.72162083333333,-87.62284616666666,2020-08-20,2022-05-11,986
617,620,687.0,Loomis Blvd & 84th St,41.741642166666665,-87.65841433333334,2020-08-20,2022-05-11,380
618,621,684.0,Prospect Sq & 91st St,41.7279095,-87.66762416666667,2020-08-20,2022-05-11,603
619,622,696.0,Indiana Ave & 103rd St,41.707169666666665,-87.6183555,2020-08-20,2022-05-11,271
620,623,689.0,Elizabeth St & 92nd St,41.72682666666667,-87.65429816666666,2020-08-20,2022-05-11,397
621,624,692.0,Marquette Ave & 89th St,41.73375583333333,-87.55853966666666,2020-08-20,2022-05-11,264
622,625,693.0,Baltimore Ave & 87th St,41.73733766666667,-87.54854733333333,2020-08-20,2022-05-11,365
623,626,697.0,Oglesby Ave & 100th St,41.71328166666667,-87.56587966666666,2020-08-20,2022-05-11,230
624,627,682.0,Eberhart Ave & 91st St,41.72928366666667,-87.611748,2020-08-20,2022-05-11,351
625,628,685.0,Summit Ave & 86th St,41.73787583333333,-87.64484383333334,2020-08-20,2022-05-11,219
626,629,694.0,Houston Ave & 92nd St,41.72819466666667,-87.549638,2020-08-19,2022-05-11,287
627,630,695.0,Dauphin Ave & 103rd St,41.70731966666666,-87.6077885,2020-08-20,2022-05-11,205
628,631,700.0,Halsted St & 96th St,41.719752,-87.6428315,2020-08-20,2022-05-11,333
629,632,698.0,Cottage Grove Ave & 111th Pl,41.69167433333333,-87.609987,2020-08-20,2022-05-11,331
630,633,686.0,East End Ave & 87th St,41.736815,-87.582801,2020-08-20,2022-05-11,292
631,634,712.0,Wentworth Ave & 104th St,41.70536533333333,-87.62890533333334,2020-09-20,2022-05-11,154
632,635,701.0,Constance Ave & 95th St,41.72208,-87.57897783333334,2020-09-17,2022-05-11,181
633,636,714.0,State St & 123rd St,41.67066583333333,-87.622708,2020-09-17,2022-05-11,322
634,637,716.0,Eberhart Ave & 131st St,41.657873,-87.61078233333333,2020-09-17,2022-05-11,169
635,638,717.0,Big Marsh Park,41.685933,-87.57369366666667,2020-09-17,2022-05-11,448
636,639,705.0,Stony Island Ave & 90th St,41.731379,-87.58585683333334,2020-09-07,2022-05-11,341
637,640,706.0,Dauphin Ave & 87th St,41.7365145,-87.6012605,2020-09-17,2022-05-11,387
638,641,711.0,Halsted St & 111th St,41.692410333333335,-87.64263233333334,2020-09-17,2022-05-29,328
639,642,713.0,Major Taylor Trail & 115th St,41.684974833333335,-87.64531916666667,2020-09-17,2022-05-11,402
640,643,702.0,Greenwood Ave & 91st St,41.72864516666667,-87.59724216666666,2020-09-17,2022-05-11,164
641,645,709.0,Halsted St & 104th St,41.7050445,-87.642274,2020-09-17,2022-05-11,285
642,646,703.0,Greenwood Ave & 97th St,41.718730666666666,-87.59700566666666,2020-09-17,2022-05-11,474
643,647,699.0,Vernon Ave & 107th St,41.70024433333333,-87.61231366666667,2020-09-17,2022-05-11,232
644,648,707.0,Torrence Ave & 106th St,41.702890833333335,-87.55989016666666,2020-09-17,2022-05-11,160
645,649,691.0,Eggleston Ave & 92nd St,41.72761883333333,-87.634883,2020-09-17,2022-05-11,387
646,650,718.0,Ewing Ave & Burnham Greenway,41.71262166666666,-87.5345395,2020-09-17,2022-05-11,373
647,651,708.0,Clyde Ave & 87th St,41.73719016666666,-87.57271283333333,2020-09-17,2022-05-11,241
648,652,720.0,Torrence Ave & 126th Pl,41.66628516666667,-87.55710416666666,2020-09-29,2022-05-11,114
649,653,721.0,Walden Pkwy & 100th St,41.71223883333333,-87.66767933333334,2020-09-29,2022-05-11,486
650,654,710.0,Burnham Greenway & 105th St,41.704575,-87.528231,2020-09-17,2022-05-11,335
651,655,715.0,Major Taylor Trail & 124th St,41.66872866666667,-87.63721216666667,2020-09-17,2022-05-11,189
652,656,719.0,Avenue O & 118th St,41.68100983333333,-87.538001,2020-09-29,2022-05-11,196
653,657,723.0,Hale Ave & 107th St,41.6992185,-87.66888533333334,2020-10-31,2022-05-11,401
654,658,731.0,Bradley Park,41.7179115,-87.56462216666667,2020-10-31,2022-05-11,178
655,659,722.0,Commercial Ave & 130th St,41.659161,-87.55072266666667,2020-10-31,2022-05-11,214
656,660,726.0,Vincennes Ave & 104th St,41.7049455,-87.65711616666667,2020-10-31,2022-05-11,214
657,661,728.0,Western Ave & 111th St,41.691214333333335,-87.68133116666667,2020-10-31,2022-05-11,392
658,662,727.0,Ada St & 113th St,41.687573666666665,-87.6554335,2020-10-31,2022-05-11,169
659,663,730.0,Lawndale Ave & 111th St,41.691305,-87.71281766666667,2020-10-15,2022-05-11,327
660,665,724.0,Homewood Ave & 115th St,41.68457033333333,-87.6708795,2020-10-07,2022-05-11,272
661,666,732.0,Hegewisch Metra Station,41.64864766666667,-87.54625466666667,2020-11-01,2022-05-11,108
662,722,13139,Throop St & Taylor St,41.868968,-87.659141,2020-12-27,2022-05-11,9585
663,781,20252.0,W Oakdale Ave & N Broadway,41.94,-87.64,2020-12-27,2022-05-11,2742
665,994,E011,Dodge Ave & Main St,42.03463185161588,-87.69918769598006,2020-12-27,2022-05-11,600
666,1027,KA1504000090,St. Louis Ave & Fullerton Ave,41.92481559681187,-87.71449506282805,2020-12-27,2022-05-11,4011
667,1067,20246.0,N Green St & W Lake St,41.89,-87.65,2020-12-27,2022-05-11,4076
668,1089,TA1306000013,New St & Illinois St,41.89084704062381,-87.61861681938171,2020-12-27,2022-05-11,33509
669,1187,20243,Michigan Ave & 114th St,41.68701033333333,-87.62120233333333,2020-12-10,2022-05-11,129
670,1191,20254.0,W Armitage Ave & N Sheffield Ave,41.92,-87.65,2020-12-05,2022-05-11,1700
671,1311,20225,Commercial Ave & 100th St,41.71330583333334,-87.55117416666667,2021-01-25,2022-05-11,101
672,1312,20253.0,N Paulina St & Lincoln Ave,41.94,-87.67,2021-01-20,2022-05-11,301
673,1314,20257.0,N Southport Ave & W Newport Ave,41.94,-87.66,2021-01-13,2022-05-11,718
674,1316,20247.0,W Washington Blvd & N Peoria St,41.88,-87.65,2021-01-23,2022-05-11,359
675,1317,20204,Kedzie Ave & 110th St,41.69242283333333,-87.70094966666667,2021-01-23,2022-05-11,169
676,1322,20256.0,N Sheffield Ave & W Wellington Ave,41.94,-87.65,2021-01-07,2022-05-11,1196
677,1327,20251.0,N Carpenter St & W Lake St,41.89,-87.65,2021-01-12,2022-05-11,881
678,1329,20214,Avenue O & 134th St,41.65191333333333,-87.53950833333333,2021-02-23,2022-05-11,150
679,1331,20245,Ashland Ave & 74th St,41.759236,-87.663474,2021-03-05,2022-05-11,199
680,1333,20123,Western Ave & 104th St,41.70458710218908,-87.68120348453522,2021-03-16,2022-05-11,325
681,1336,20106,Chicago State University,41.71895833333333,-87.60837733333334,2021-03-16,2022-05-11,881
682,1337,20.0,Damen Ave & Wabansia Ave,41.91,-87.68,2021-03-16,2022-05-11,1895
683,1344,20212,Altgeld Gardens,41.6570855,-87.5988655,2021-04-29,2022-05-11,130
684,1346,202480.0,Hampden Ct & Diversey Ave,41.93,-87.64,2021-04-03,2022-05-11,1379
685,1350,20224,Calumet Park,41.713729666666666,-87.53087516666666,2021-04-12,2022-05-11,543
686,1351,201022,Loomis St & 89th St,41.73237975329554,-87.65806943178177,2021-05-30,2022-05-11,238
687,1353,20202,W 103rd St & S Avers Ave,41.71,-87.72,2021-05-02,2022-05-11,200
688,1357,20237,Yates Blvd & 93rd St,41.726164,-87.5663105,2021-06-13,2022-05-11,160
689,1358,20134,Maryland Ave & 104th St,41.71,-87.6,2021-06-13,2022-05-11,109
690,1361,322,Cicero Ave & Grace St,41.95,-87.75,2021-07-02,2022-05-11,126
691,1363,368.0,Tripp Ave & 31st St,41.84,-87.73,2021-07-02,2022-05-11,145
692,1364,362.0,Lawndale Ave & 16th St,41.86,-87.72,2021-07-02,2022-05-11,121
693,1365,366.0,Spaulding Ave & 16th St,41.86,-87.71,2021-07-02,2022-05-11,143
694,1366,364.0,Homan Ave & Fillmore St,41.87,-87.71,2021-07-14,2022-05-11,147
695,1367,356,Lavergne & Fullerton,41.92,-87.75,2021-07-02,2022-05-11,319
697,1369,358,Kilpatrick Ave & Parker Ave,41.93,-87.74,2021-07-02,2022-05-11,360
698,1370,329.0,Central Park Ave & Douglas Blvd,41.86,-87.72,2021-07-02,2022-05-11,142
699,1371,316,Lamon Ave & Belmont Ave,41.94,-87.75,2021-07-02,2022-05-11,461
700,1372,317,Long Ave & Belmont Ave,41.94,-87.76,2021-07-02,2022-05-11,317
701,1373,353,Meade Ave & Diversey Ave,41.93,-87.78,2021-07-27,2022-05-11,186
702,1374,313,Long Ave & Belden Ave,41.92,-87.76,2021-07-23,2022-05-11,309
703,1376,473,Mason Ave & Belmont Ave,41.94,-87.77,2021-07-30,2022-05-11,182
704,1379,330.0,Keeler Ave & Roosevelt Rd,41.87,-87.73,2021-07-31,2022-05-11,106
705,1380,331.0,Pulaski Rd & 21st St,41.85,-87.72,2021-07-27,2022-05-11,214
706,1381,355,Central Ave & Parker Ave,41.93,-87.77,2021-07-31,2022-05-11,197
707,1382,334.0,Lawndale Ave & 30th St,41.84,-87.72,2021-08-10,2022-05-11,120
708,1383,324,Meade Ave & Addison St,41.95,-87.78,2021-08-10,2022-05-11,217
709,1384,360,Kilbourn & Roscoe,41.94,-87.74,2021-08-10,2022-05-11,366
710,1385,351,Mulligan Ave & Wellington Ave,41.93,-87.78,2021-08-10,2022-05-11,442
711,1386,312,Lockwood Ave & Wrightwood Ave,41.93,-87.76,2021-08-10,2022-05-11,366
712,1388,397,Narragansett Ave & School St,41.94,-87.79,2021-08-10,2022-05-11,218
713,1389,396,Central Ave & Roscoe St,41.94,-87.77,2021-08-10,2022-05-11,238
714,1390,398,Long & Irving Park,41.95,-87.76,2021-08-10,2022-05-11,599
715,1391,335.0,Komensky Ave & 31st St,41.84,-87.73,2021-08-10,2022-05-11,171
716,1392,359,Kilbourn & Belden,41.92,-87.74,2021-08-10,2022-05-11,343
717,1393,321,Kostner Ave & Wrightwood Ave,41.93,-87.74,2021-08-10,2022-05-11,393
718,1397,393,Oketo Ave & Addison St,41.94,-87.81,2021-08-25,2022-05-11,114
719,1399,357,Lamon Ave & Armitage Ave,41.92,-87.75,2021-08-10,2022-05-11,285
720,1400,352,Sayre & Diversey,41.93,-87.8,2021-08-10,2022-05-11,111
721,1401,320,Orange & Addison,41.94,-87.82,2021-09-28,2022-05-11,217
722,1402,326,Harlem & Irving Park,41.95,-87.81,2021-09-28,2022-05-11,326
723,1404,314,Narragansett & Wrightwood,41.93,-87.79,2021-09-28,2022-05-11,517
724,1406,379,Rockwell St & Archer Ave,41.82,-87.69,2021-09-29,2022-05-11,216
725,1407,384,Kedzie Ave & 52nd St,41.8,-87.7,2021-09-28,2022-05-11,156
726,1410,378,Nordica & Medill,41.92,-87.8,2021-09-28,2022-05-11,148
727,1411,323,Narragansett & Irving Park,41.95,-87.79,2021-09-28,2022-05-11,258
728,1414,361,Kenosha & Wellington,41.93,-87.73,2021-09-09,2022-05-11,201
729,1415,318,Oak Park & Wellington,41.93,-87.8,2021-09-28,2022-05-11,244
730,1416,382,Kedzie Ave & 48th Pl,41.8,-87.7,2021-09-28,2022-05-11,428
731,1417,309,Narragansett & McLean,41.92,-87.79,2021-09-28,2022-05-11,116
732,1418,341,Archer Ave & 43rd St,41.82,-87.7,2021-09-30,2022-05-11,103
733,1428,303,Kildare Ave & Division St,41.9,-87.73,2021-09-28,2022-05-11,104
734,1430,339,Sacramento Ave & Pershing Rd,41.82,-87.7,2021-09-30,2022-05-11,123
735,1433,445,Western Ave & Gunnison St,41.97,-87.69,2021-10-29,2022-05-11,243
736,1437,20255.0,N Damen Ave & W Chicago Ave,41.9,-87.68,2021-10-22,2022-05-11,114
737,1438,406,Kostner Ave & 63rd St,41.78,-87.73,2021-10-22,2022-05-11,109
738,1440,343,Pulaski Rd & 51st St,41.8,-87.72,2021-10-22,2022-05-11,298
739,1443,407,Tripp Ave & 65th St,41.77,-87.73,2021-10-22,2022-05-11,104
740,1444,430,Troy St & Grace St,41.95,-87.71,2021-10-22,2022-05-11,306
741,1447,346,Kedzie Ave & 57th St,41.79,-87.7,2021-10-22,2022-05-11,146
742,1448,370,Central Park & Augusta Blvd,41.9,-87.72,2021-10-22,2022-05-11,107
743,1449,400,Lawler Ave & 50th St,41.8,-87.75,2021-10-27,2022-05-11,114
744,1450,369,Central Park Ave & Ohio St,41.89,-87.72,2021-10-16,2022-05-11,116
745,1451,434,Albany Ave & Belmont Ave,41.94,-87.71,2021-10-28,2022-05-11,225
746,1452,428,Milwaukee Ave & Fullerton Ave,41.92,-87.7,2021-10-22,2022-05-11,888
747,1457,442,Lincoln Ave & Balmoral Ave,41.98,-87.69,2021-10-22,2022-05-11,337
748,1464,387,St Louis Ave & 59th St,41.79,-87.71,2021-10-21,2022-05-11,125
749,1465,374,Kilpatrick Ave & Grand Ave,41.91,-87.74,2021-11-27,2022-05-11,125
750,1466,443,California Ave & Winona St,41.97,-87.7,2021-11-27,2022-05-11,218
751,1469,431,Western Ave & Grace St,41.95,-87.69,2021-11-27,2022-05-11,202
752,1470,435,Rockwell St & Fletcher St,41.94,-87.69,2021-11-27,2022-05-11,448
753,1472,472,Elston Ave & George St,41.93,-87.69,2021-11-27,2022-05-11,324
754,1473,462,Lincoln Ave & Peterson Ave,41.99,-87.71,2021-11-27,2022-05-11,136
755,1474,429,Francisco Ave & Bloomingdale Ave,41.91,-87.7,2021-11-11,2022-05-11,164
756,1475,444,N Shore Channel Trail & Argyle Ave,41.97,-87.7,2021-11-19,2022-05-11,198
757,1476,436,Kedzie Ave & George St,41.93,-87.71,2021-11-27,2022-05-11,384
758,1478,425,Rockwell St & Cermak Rd,41.85,-87.69,2021-11-27,2022-05-11,231
759,1479,446,Francisco Ave & Montrose Ave,41.96,-87.7,2021-11-27,2022-05-11,226
760,1480,441,Virginia Ave & Catalpa Ave,41.98,-87.7,2021-11-27,2022-05-11,109
761,1483,433,Elston Ave & Henderson St,41.94,-87.7,2021-11-20,2022-05-11,158
762,1494,432,Sacramento Blvd & Addison St,41.95,-87.7,2021-11-27,2022-05-11,222
763,1496,420,Washtenaw Ave & Polk St,41.87,-87.69,2021-11-08,2022-05-11,102
764,1499,21544,State St & Chicago Ave,41.896932,-87.62876016666667,2021-12-07,2022-05-11,4213
765,1504,474,Fullerton & Monitor,41.92,-87.77,2022-01-13,2022-05-11,102
766,1508,20219,Burnham Greenway & 112th St,41.69177385116831,-87.53043115139008,2022-02-13,2022-05-11,144
767,1754,675,HQ QR,41.8899,-87.6803,2020-01-21,2020-03-08,3767
