,id,name,lat,lon,first,last,rides
0,86,Eckhart Park,41.8964,-87.661,2013-06-27,2020-11-07,44827
1,503,Drake Ave & Fullerton Ave,41.9244,-87.7154,2015-06-30,2020-11-07,13529
2,142,McClurg Ct & Erie St,41.8945,-87.6179,2015-06-30,2020-11-07,86932
3,216,California Ave & Division St,41.903,-87.6975,2013-06-27,2020-11-07,19399
4,125,Rush St & Hubbard St,41.8902,-87.6262,2015-06-30,2020-11-07,62760
5,173,Mies van der Rohe Way & Chicago Ave,41.8969,-87.6217,2013-06-27,2020-11-07,101774
6,35,Streeter Dr & Grand Ave,41.8923,-87.612,2013-06-27,2020-11-07,495133
7,434,Ogden Ave & Roosevelt Rd,41.8665,-87.6847,2015-06-30,2020-11-07,10988
8,627,LaSalle Dr & Huron St,41.8949,-87.6323,2018-01-01,2020-11-07,28083
9,377,Kedzie Ave & Lake St,41.8846,-87.7063,2015-06-30,2020-11-07,4895
10,508,Central Park Ave & North Ave,41.9097,-87.7166,2015-06-30,2020-11-07,6467
11,374,Western Ave & Walton St,41.8984,-87.6866,2015-06-30,2020-11-07,32363
12,321,Wabash Ave & 9th St,41.8708,-87.6257,2013-06-27,2020-11-07,89838
13,9,Leavitt St & Archer Ave,41.8288,-87.6806,2015-06-30,2020-11-07,4309
14,141,Clark St & Lincoln Ave,41.9157,-87.6346,2013-06-27,2020-11-07,141552
15,109,900 W Harrison St,41.8748,-87.6498,2013-06-27,2020-11-07,36684
16,424,Museum of Science and Industry,41.7917,-87.5839,2015-06-30,2020-11-07,22110
17,347,Ashland Ave & Grace St,41.9507,-87.6687,2013-06-27,2020-11-07,31589
18,198,Green St & Madison St,41.8819,-87.6488,2013-06-27,2020-11-07,102899
19,344,Ravenswood Ave & Lawrence Ave,41.9691,-87.6742,2013-06-27,2020-11-07,83215
20,227,Southport Ave & Waveland Ave,41.9482,-87.6639,2013-06-27,2020-11-07,74520
21,661,Evanston Civic Center,42.057,-87.6866,2018-10-01,2020-11-07,1451
22,127,Lincoln Ave & Fullerton Ave,41.9259,-87.6493,2013-06-27,2020-11-07,76120
23,80,Aberdeen St & Monroe St,41.8804,-87.6555,2013-06-27,2020-11-07,69950
24,77,Clinton St & Madison St,41.8822,-87.6411,2013-06-27,2020-11-07,260028
25,346,Ada St & Washington Blvd,41.8828,-87.6612,2013-06-27,2020-11-07,52462
26,329,Lake Shore Dr & Diversey Pkwy,41.9326,-87.6364,2013-06-27,2020-11-07,83905
27,635,Fairbanks St & Superior St,41.8957,-87.6201,2018-07-01,2020-11-07,14818
28,659,Leavitt St & Chicago Ave,41.8955,-87.682,2018-07-01,2020-11-07,8197
29,342,Wolcott Ave & Polk St,41.8713,-87.6737,2013-06-27,2020-11-07,56223
30,161,Rush St & Superior St,41.8958,-87.6259,2015-06-30,2020-11-07,73278
31,88,Racine Ave & Randolph St,41.8841,-87.6569,2013-06-27,2020-11-07,43826
32,67,Sheffield Ave & Fullerton Ave,41.9256,-87.6537,2013-06-27,2020-11-07,108119
33,164,Franklin St & Lake St,41.8858,-87.6355,2013-06-27,2020-11-07,102126
34,237,MLK Jr Dr & 29th St,41.8421,-87.617,2013-06-27,2020-11-07,47042
35,279,Halsted St & 35th St,41.8307,-87.6472,2013-06-27,2020-11-07,10081
36,414,Canal St & Taylor St,41.8703,-87.6395,2015-06-30,2020-11-07,33413
37,367,Racine Ave & 35th St,41.8307,-87.656,2015-06-30,2020-11-07,4195
38,59,Wabash Ave & Roosevelt Rd,41.8672,-87.626,2013-06-27,2020-11-07,147862
39,157,Lake Shore Dr & Wellington Ave,41.9367,-87.6368,2013-06-27,2020-11-07,97706
40,13,Wilton Ave & Diversey Pkwy,41.9324,-87.6527,2013-06-27,2020-11-07,89633
41,165,Clark St & Grace St,41.9508,-87.6592,2013-06-27,2020-11-07,54565
42,313,Lakeview Ave & Fullerton Pkwy,41.9259,-87.639,2013-06-27,2020-11-07,103050
43,340,Clark St & Wrightwood Ave,41.9295,-87.6431,2013-06-27,2020-11-07,104547
44,26,McClurg Ct & Illinois St,41.8904,-87.6175,2013-06-27,2020-11-07,166300
45,254,Pine Grove Ave & Irving Park Rd,41.9544,-87.648,2013-06-27,2020-11-07,77789
46,180,Ritchie Ct & Banks St,41.9069,-87.6262,2015-06-30,2020-11-07,48563
47,110,Dearborn St & Erie St,41.894,-87.6293,2013-06-27,2020-11-07,164197
48,71,Morgan St & Lake St,41.8855,-87.6523,2013-06-27,2020-11-07,98762
49,455,Maplewood Ave & Peterson Ave,41.9902,-87.6934,2015-06-30,2020-11-07,2682
50,60,Dayton St & North Ave,41.9106,-87.6494,2013-06-27,2020-11-07,73283
51,231,Sheridan Rd & Montrose Ave,41.9617,-87.6546,2013-06-27,2020-11-07,58150
52,312,Clarendon Ave & Gordon Ter,41.9579,-87.6495,2013-06-27,2020-11-07,53161
53,94,Clark St & Armitage Ave,41.9183,-87.6363,2013-06-27,2020-11-07,151630
54,84,Milwaukee Ave & Grand Ave,41.8916,-87.6484,2013-06-27,2020-11-07,80430
55,92,Carpenter St & Huron St,41.8946,-87.6534,2013-06-27,2020-11-07,44398
56,72,Wabash Ave & 16th St,41.8604,-87.6258,2013-06-27,2020-11-07,58345
57,299,Halsted St & Roscoe St,41.9437,-87.649,2013-06-27,2020-11-07,79498
58,43,Michigan Ave & Washington St,41.884,-87.6247,2013-06-27,2020-11-07,210405
59,176,Clark St & Elm St,41.903,-87.6313,2013-06-27,2020-11-07,171588
60,320,Loomis St & Lexington St,41.8722,-87.6615,2013-06-27,2020-11-07,66488
61,475,Washtenaw Ave & Lawrence Ave,41.969,-87.696,2015-06-30,2020-11-07,10513
62,113,Bissell St & Armitage Ave,41.9184,-87.6522,2013-06-27,2020-11-07,88242
63,188,Greenview Ave & Fullerton Ave,41.9253,-87.6658,2013-06-27,2020-11-07,43009
64,129,Blue Island Ave & 18th St,41.8576,-87.6615,2013-06-27,2020-11-07,35715
65,247,Shore Dr & 55th St,41.7952,-87.5807,2013-06-27,2020-11-07,51272
66,191,Canal St & Monroe St,41.8817,-87.6395,2013-06-27,2020-11-07,103426
67,50,Clark St & Ida B Wells Dr,41.8759,-87.6306,2013-06-27,2020-11-07,81912
68,289,Wells St & Concord Ln,41.9121,-87.6347,2013-06-27,2020-11-07,155332
69,657,Wood St & Augusta Blvd,41.8992,-87.6722,2018-07-01,2020-11-07,11210
70,61,Wood St & Milwaukee Ave,41.9077,-87.6726,2013-06-27,2020-11-07,75943
71,245,Clarendon Ave & Junior Ter,41.961,-87.6496,2013-06-27,2020-11-07,45312
72,517,Clark St & Jarvis Ave,42.016,-87.675,2016-09-30,2020-11-07,3821
73,134,Peoria St & Jackson Blvd,41.8776,-87.6496,2013-06-27,2020-11-07,97962
74,605,University Library (NU),42.0529,-87.6734,2016-09-30,2020-11-07,12232
75,520,Greenview Ave & Jarvis Ave,42.016,-87.6686,2016-09-30,2020-11-07,9683
76,296,Broadway & Belmont Ave,41.9401,-87.6455,2013-06-27,2020-11-07,74551
77,238,Wolcott (Ravenswood) Ave & Montrose Ave,41.9614,-87.6762,2013-06-27,2020-11-07,29129
78,472,Lincoln Ave & Winona St,41.9749,-87.6925,2015-06-30,2020-11-07,9760
79,268,Lake Shore Dr & North Blvd,41.9117,-87.6268,2013-06-27,2020-11-07,257756
80,526,Oakley Ave & Touhy Ave,42.0123,-87.6882,2016-09-30,2020-11-07,2064
81,303,Broadway & Cornelia Ave,41.9455,-87.6464,2013-06-27,2020-11-07,85143
82,507,Humboldt Blvd & Armitage Ave,41.9175,-87.7018,2015-06-30,2020-11-07,25258
83,210,Ashland Ave & Division St,41.9035,-87.6677,2013-06-27,2020-11-07,108920
84,115,Sheffield Ave & Wellington Ave,41.9363,-87.6527,2013-06-27,2020-11-07,88906
85,632,Clark St & Newport St,41.9445,-87.6547,2018-10-01,2020-11-07,19770
86,406,Lake Park Ave & 35th St,41.8313,-87.6088,2015-06-30,2020-11-07,11934
87,144,Larrabee St & Webster Ave,41.9218,-87.6441,2013-06-27,2020-11-07,95746
88,76,Lake Shore Dr & Monroe St,41.881,-87.6167,2013-06-27,2020-11-07,324798
89,90,Millennium Park,41.881,-87.6241,2013-06-27,2020-11-07,248765
90,325,Clark St & Winnemac Ave,41.9733,-87.6678,2013-06-27,2020-11-07,48540
91,34,Cannon Dr & Fullerton Ave,41.9268,-87.6344,2013-06-27,2020-11-07,60785
92,673,Lincoln Park Conservatory,41.9239,-87.6358,2019-07-01,2020-11-07,14534
93,368,Ashland Ave & Archer Ave,41.8392,-87.6656,2015-06-30,2020-11-07,3055
94,17,Honore St & Division St,41.9031,-87.6739,2013-06-27,2020-11-07,54261
95,186,Ogden Ave & Race Ave,41.8918,-87.6588,2013-06-27,2020-11-07,48065
96,504,Campbell Ave & Fullerton Ave,41.9246,-87.6893,2015-06-30,2020-11-07,16679
97,276,California Ave & North Ave,41.9104,-87.6972,2013-06-27,2020-11-07,22074
98,211,St. Clair St & Erie St,41.8944,-87.6227,2013-06-27,2020-11-07,143083
99,212,Wells St & Hubbard St,41.8899,-87.6343,2013-06-27,2020-11-07,117421
100,304,Broadway & Waveland Ave,41.9491,-87.6486,2013-06-27,2020-11-07,73390
101,464,Damen Ave & Foster Ave,41.9756,-87.6795,2015-06-30,2020-11-07,20831
102,183,Damen Ave & Thomas St (Augusta Blvd),41.9013,-87.6774,2013-06-27,2020-11-07,50112
103,24,Fairbanks Ct & Grand Ave,41.8918,-87.6206,2013-06-27,2020-11-07,142812
104,52,Michigan Ave & Lake St,41.886,-87.6241,2013-06-27,2020-11-07,166054
105,248,Woodlawn Ave & 55th St,41.7953,-87.5965,2013-06-27,2020-11-07,23814
106,205,Paulina St & 18th St,41.8579,-87.6687,2013-06-27,2020-11-07,24683
107,442,California Ave & 23rd Pl,41.8491,-87.6951,2015-06-30,2020-11-07,4571
108,208,Laflin St & Cullerton St,41.8549,-87.6636,2013-06-27,2020-11-07,8429
109,331,Halsted St & Clybourn Ave,41.9097,-87.6481,2013-06-27,2020-11-07,80739
110,623,Michigan Ave & 8th St,41.8728,-87.624,2017-06-30,2020-11-07,49322
111,181,LaSalle St & Illinois St,41.8908,-87.6317,2013-06-27,2020-11-07,140434
112,202,Halsted St & 18th St,41.8575,-87.6463,2013-06-27,2020-11-07,18721
113,255,Indiana Ave & Roosevelt Rd,41.8679,-87.623,2013-06-27,2020-11-07,160932
114,598,Elmwood Ave & Austin St,42.0258,-87.6841,2016-09-30,2020-11-07,3241
115,519,Wolcott Ave & Fargo Ave,42.017,-87.6777,2016-09-30,2020-11-07,1306
116,243,Lincoln Ave & Sunnyside Ave,41.963,-87.6848,2013-06-27,2020-11-07,32797
117,154,Southport Ave & Belmont Ave,41.9395,-87.6638,2013-06-27,2020-11-07,41953
118,300,Broadway & Barry Ave,41.9377,-87.6441,2013-06-27,2020-11-07,108340
119,523,Eastlake Ter & Rogers Ave,42.0209,-87.6651,2016-09-30,2020-11-07,10649
120,405,Wentworth Ave & 35th St,41.8308,-87.6325,2016-09-30,2020-11-07,6299
121,168,Michigan Ave & 14th St,41.8641,-87.6237,2013-06-27,2020-11-07,63585
122,273,Michigan Ave & 18th St,41.8578,-87.6246,2013-06-27,2020-11-07,65669
123,2,Buckingham Fountain,41.8765,-87.6205,2015-06-30,2020-11-07,75822
124,220,Clark St & Drummond Pl,41.9312,-87.6443,2013-06-27,2020-11-07,96278
125,223,Clifton Ave & Armitage Ave,41.9182,-87.6569,2013-06-27,2020-11-07,55180
126,123,California Ave & Milwaukee Ave,41.9227,-87.6972,2013-06-27,2020-11-07,63840
127,222,Milwaukee Ave & Rockwell St,41.9202,-87.693,2013-06-27,2020-11-07,20468
128,193,State St & 29th St,41.8417,-87.6269,2013-06-27,2020-11-07,4637
129,305,Western Ave & Division St,41.9029,-87.6873,2013-06-27,2020-11-07,31974
130,118,Sedgwick St & North Ave,41.9114,-87.6387,2013-06-27,2020-11-07,83815
131,166,Ashland Ave & Wrightwood Ave,41.9288,-87.6685,2013-06-27,2020-11-07,31815
132,81,Daley Center Plaza,41.8842,-87.6296,2013-06-27,2020-11-07,182094
133,250,Ashland Ave & Wellington Ave,41.9361,-87.6698,2013-06-27,2020-11-07,27598
134,581,Commercial Ave & 83rd St,41.7446,-87.5512,2016-09-30,2020-11-07,352
135,626,Delano Ct & Roosevelt Rd,41.8675,-87.6322,2017-12-31,2020-11-07,18121
136,460,Clark St & Bryn Mawr Ave,41.9836,-87.6692,2015-06-30,2020-11-07,24324
137,293,Broadway & Wilson Ave,41.9652,-87.6581,2013-06-27,2020-11-07,38024
138,53,Wells St & Huron St,41.8947,-87.6344,2013-06-27,2020-11-07,130465
139,69,Damen Ave & Pierce Ave,41.9094,-87.6777,2013-06-27,2020-11-07,127877
140,465,Marine Dr & Ainslie St,41.9716,-87.6502,2015-07-31,2020-11-07,30569
141,199,Wabash Ave & Grand Ave,41.8915,-87.6268,2013-06-27,2020-11-07,157366
142,359,Larrabee St & Division St,41.9035,-87.6434,2015-06-30,2020-11-07,52577
143,128,Damen Ave & Chicago Ave,41.8958,-87.6772,2013-06-27,2020-11-07,68867
144,306,Sheridan Rd & Buena Ave,41.9585,-87.655,2013-06-27,2020-11-07,39160
145,111,Sedgwick St & Huron St,41.8947,-87.6384,2013-06-27,2020-11-07,73861
146,350,Ashland Ave & Chicago Ave,41.896,-87.6677,2013-06-27,2020-11-07,43455
147,200,MLK Jr Dr & 47th St,41.8099,-87.6163,2013-06-27,2020-11-07,3910
148,179,MLK Jr Dr & Pershing Rd,41.8246,-87.6168,2013-06-27,2020-11-07,7060
149,336,Cottage Grove Ave & 47th St,41.8099,-87.6068,2013-06-27,2020-11-07,6270
150,74,Kingsbury St & Erie St,41.8938,-87.6417,2013-06-27,2020-11-07,131082
151,337,Clark St & Chicago Ave,41.8968,-87.6309,2013-06-27,2020-11-07,75466
152,153,Southport Ave & Wellington Ave,41.9357,-87.6636,2013-06-27,2020-11-07,77131
153,260,Kedzie Ave & Milwaukee Ave,41.9296,-87.7079,2013-06-27,2020-11-07,62375
154,236,Sedgwick St & Schiller St,41.9076,-87.6386,2013-06-27,2020-11-07,20968
155,194,Wabash Ave & Wacker Pl,41.8869,-87.626,2013-06-27,2020-11-07,90159
156,147,Indiana Ave & 26th St,41.8457,-87.6225,2013-06-27,2020-11-07,16654
157,332,Burling St (Halsted) & Diversey Pkwy (Temp),41.9331,-87.6478,2013-06-27,2020-11-07,62711
158,294,Broadway & Berwyn Ave,41.9784,-87.6598,2013-06-27,2020-11-07,40547
159,322,Kimbark Ave & 53rd St,41.7996,-87.5947,2013-06-27,2020-11-07,44696
160,114,Sheffield Ave & Waveland Ave,41.9494,-87.6545,2013-06-27,2020-11-07,94935
161,131,Lincoln Ave & Belmont Ave,41.9394,-87.6684,2013-06-27,2020-11-07,45449
162,16,Paulina Ave & North Ave,41.9103,-87.6701,2013-06-27,2020-11-07,49463
163,432,Clark St & Lunt Ave,42.0091,-87.6742,2015-06-30,2020-11-07,14175
164,107,Desplaines St & Jackson Blvd,41.8783,-87.6439,2015-06-30,2020-11-07,65544
165,309,Leavitt St & Armitage Ave,41.9178,-87.6824,2013-06-27,2020-11-07,29840
166,206,Halsted St & Archer Ave,41.8472,-87.6468,2013-06-27,2020-11-07,14712
167,324,Stockton Dr & Wrightwood Ave,41.9313,-87.6387,2013-06-27,2020-11-07,69646
168,54,Ogden Ave & Chicago Ave,41.8964,-87.6541,2013-06-27,2020-11-07,59372
169,621,Aberdeen St & Randolph St,41.8841,-87.6543,2018-04-01,2020-11-07,22984
170,29,Noble St & Milwaukee Ave,41.9007,-87.6626,2013-06-27,2020-11-07,54800
171,214,Damen Ave & Grand Ave,41.8912,-87.6769,2013-06-27,2020-11-07,35634
172,290,Kedzie Ave & Palmer Ct,41.9215,-87.7073,2013-06-27,2020-11-07,28834
173,620,Orleans St & Chestnut St (NEXT Apts),41.8982,-87.6375,2016-09-30,2020-11-07,29462
174,233,Sangamon St & Washington Blvd,41.8832,-87.6511,2013-06-27,2020-11-07,57488
175,195,Columbus Dr & Randolph St,41.8847,-87.6195,2013-06-27,2020-11-07,221522
176,174,Canal St & Madison St,41.8821,-87.6398,2013-06-27,2020-11-07,212341
177,422,DuSable Museum,41.7916,-87.6079,2015-07-31,2020-11-07,4148
178,509,Troy St & North Ave,41.9098,-87.7053,2015-06-30,2020-11-07,12024
179,152,Lincoln Ave & Diversey Pkwy,41.9322,-87.6586,2013-06-27,2020-11-07,58421
180,97,Field Museum,41.8653,-87.6179,2013-06-27,2020-11-07,105086
181,498,California Ave & Fletcher St,41.9384,-87.698,2015-06-30,2020-11-07,10228
182,130,Damen Ave & Division St,41.9033,-87.6784,2013-06-27,2020-11-07,65538
183,510,Spaulding Ave & Division St,41.9027,-87.7092,2015-06-30,2020-11-07,6705
184,354,Sheridan Rd & Greenleaf Ave,42.0106,-87.6624,2015-06-30,2020-11-07,11312
185,56,Desplaines St & Kinzie St,41.8887,-87.6444,2013-06-27,2020-11-07,139253
186,178,State St & 19th St,41.8566,-87.6275,2013-06-27,2020-11-07,21533
187,317,Wood St & Taylor St,41.8692,-87.671,2013-06-27,2020-11-07,38221
188,338,Calumet Ave & 18th St,41.8576,-87.6194,2013-06-27,2020-11-07,58437
189,381,Western Ave & Monroe St,41.8798,-87.6861,2015-06-30,2020-11-07,7640
190,100,Orleans St & Merchandise Mart Plaza,41.8882,-87.6364,2013-06-27,2020-11-07,148816
191,182,Wells St & Elm St,41.9032,-87.6343,2015-06-30,2020-11-07,80592
192,301,Clark St & Schiller St,41.908,-87.6315,2013-06-27,2020-11-07,99459
193,240,Sheridan Rd & Irving Park Rd,41.9542,-87.6544,2013-06-27,2020-11-07,88278
194,318,Southport Ave & Irving Park Rd,41.9542,-87.6644,2013-06-27,2020-11-07,38367
195,197,Michigan Ave & Madison St,41.8821,-87.6251,2013-06-27,2020-11-07,78209
196,263,Rhodes Ave & 32nd St,41.8362,-87.6135,2013-06-27,2020-11-07,16245
197,415,Calumet Ave & 51st St,41.8023,-87.6181,2015-06-30,2020-11-07,3487
198,106,State St & Pearson St,41.8974,-87.6287,2013-06-27,2020-11-07,76198
199,38,Clark St & Lake St,41.886,-87.6309,2015-06-30,2020-11-07,87733
200,471,Francisco Ave & Foster Ave,41.9756,-87.7014,2015-06-30,2020-11-07,9988
201,145,Mies van der Rohe Way & Chestnut St,41.8986,-87.6219,2015-06-30,2020-11-07,83438
202,272,Indiana Ave & 31st St,41.8388,-87.6219,2013-06-27,2020-11-07,21528
203,156,Clark St & Wellington Ave,41.9365,-87.6475,2013-06-27,2020-11-07,87720
204,31,Franklin St & Chicago Ave,41.8967,-87.6357,2013-06-27,2020-11-07,103283
205,14,Morgan St & 18th St,41.8581,-87.6511,2013-06-27,2020-11-07,26939
206,41,Federal St & Polk St,41.8721,-87.6295,2015-06-30,2020-11-07,71927
207,447,Glenwood Ave & Morse Ave,42.008,-87.6655,2015-06-30,2020-11-07,19608
208,159,Claremont Ave & Hirsch St,41.9078,-87.6859,2013-06-27,2020-11-07,18883
209,230,Lincoln Ave & Roscoe St,41.9433,-87.671,2013-06-27,2020-11-07,59922
210,101,63rd St Beach,41.781,-87.5761,2015-06-30,2020-11-07,7866
211,307,Southport Ave & Clybourn Ave,41.9208,-87.6637,2013-06-27,2020-11-07,48254
212,426,Ellis Ave & 60th St,41.7851,-87.6011,2015-06-30,2020-11-07,33747
213,36,Franklin St & Jackson Blvd,41.8777,-87.6353,2013-06-27,2020-11-07,148057
214,596,Benson Ave & Church St,42.0482,-87.6835,2016-06-30,2020-11-07,22009
215,93,Sheffield Ave & Willow St,41.9137,-87.6529,2013-06-27,2020-11-07,62689
216,452,Western Ave & Granville Ave,41.9942,-87.6894,2015-06-30,2020-11-07,4688
217,225,Halsted St & Dickens Ave,41.9199,-87.6488,2013-06-27,2020-11-07,66242
218,15,Racine Ave & 18th St,41.8582,-87.6565,2013-06-27,2020-11-07,30366
219,44,State St & Randolph St,41.8847,-87.6277,2013-06-27,2020-11-07,123668
220,544,Austin Blvd & Madison St,41.8803,-87.7745,2016-06-30,2020-11-07,941
221,461,Broadway & Ridge Ave,41.984,-87.6603,2015-06-30,2020-11-07,24878
222,482,Campbell Ave & Montrose Ave,41.9615,-87.6912,2015-06-30,2020-11-07,13644
223,259,California Ave & Francis Pl (Temp),41.9185,-87.6974,2013-06-27,2020-11-07,25393
224,150,Fort Dearborn Dr & 31st St,41.8386,-87.6082,2013-06-27,2020-11-07,70353
225,192,Canal St & Adams St,41.8793,-87.6399,2013-06-27,2020-11-07,289173
226,57,Clinton St & Roosevelt Rd,41.8671,-87.6411,2013-06-27,2020-11-07,48569
227,624,Dearborn St & Van Buren St,41.8763,-87.6292,2017-09-30,2020-11-07,18114
228,355,South Shore Dr & 67th St,41.7736,-87.5675,2015-06-30,2020-11-07,5267
229,454,Broadway & Granville Ave,41.9948,-87.6603,2015-06-30,2020-11-07,27816
230,68,Clinton St & Tilden St,41.8759,-87.6408,2013-06-27,2020-11-07,45454
231,328,Ellis Ave & 58th St,41.7887,-87.6013,2013-06-27,2020-11-07,34437
232,51,Clark St & Randolph St,41.8846,-87.6319,2013-06-27,2020-11-07,110471
233,112,Green St & Randolph St,41.8837,-87.6487,2013-06-27,2020-11-07,89666
234,143,Sedgwick St & Webster Ave,41.9222,-87.6389,2013-06-27,2020-11-07,86756
235,349,Halsted St & Wrightwood Ave,41.9291,-87.6491,2013-06-27,2020-11-07,68357
236,495,Keystone Ave & Montrose Ave,41.9611,-87.729,2015-06-30,2020-11-07,3997
237,213,Leavitt St & North Ave,41.9102,-87.6823,2013-06-27,2020-11-07,36083
238,672,Franklin St & Illinois St,41.891,-87.6355,2019-07-01,2020-11-07,14755
239,42,Wabash Ave & Cermak Rd,41.8526,-87.6265,2013-06-27,2020-11-07,20891
240,37,Dearborn St & Adams St,41.8794,-87.6298,2013-06-27,2020-11-07,103552
241,418,Ellis Ave & 53rd St,41.7993,-87.601,2015-06-30,2020-11-07,21769
242,133,Kingsbury St & Kinzie St,41.8892,-87.6385,2015-06-30,2020-11-07,175321
243,73,Jefferson St & Monroe St,41.8804,-87.6427,2013-06-27,2020-11-07,71255
244,172,Rush St & Cedar St,41.9023,-87.6277,2015-06-30,2020-11-07,69503
245,638,Clinton St & Jackson Blvd,41.8781,-87.6398,2018-07-01,2020-11-07,30246
246,334,Lake Shore Dr & Belmont Ave,41.9408,-87.6392,2013-06-27,2020-11-07,107485
247,316,Damen Ave & Sunnyside Ave,41.9633,-87.6793,2013-06-27,2020-11-07,19661
248,584,Ellis Ave & 83rd St,41.7441,-87.599,2016-09-30,2020-11-07,262
249,499,Kosciuszko Park,41.9306,-87.7238,2015-06-30,2020-11-07,10315
250,575,Cottage Grove Ave & 78th St,41.7532,-87.605,2016-09-30,2020-11-07,637
251,19,Throop (Loomis) St & Taylor St,41.869,-87.6591,2013-06-27,2020-11-07,48553
252,28,Larrabee St & Menomonee St,41.9147,-87.6433,2013-06-27,2020-11-07,37779
253,563,Ashland Ave & 63rd St,41.7794,-87.6648,2016-06-30,2020-11-07,360
254,244,Ravenswood Ave & Irving Park Rd,41.9547,-87.6739,2013-06-27,2020-11-07,32593
255,469,St. Louis Ave & Balmoral Ave,41.9804,-87.7161,2015-06-30,2020-11-07,5314
256,23,Orleans St & Elm St,41.9029,-87.6377,2013-06-27,2020-11-07,32864
257,291,Wells St & Evergreen Ave,41.9067,-87.6348,2013-06-27,2020-11-07,98680
258,32,Racine Ave & Congress Pkwy,41.8746,-87.657,2013-06-27,2020-11-07,36270
259,85,Michigan Ave & Oak St,41.901,-87.6238,2013-06-27,2020-11-07,250102
260,232,Pine Grove Ave & Waveland Ave,41.9493,-87.6463,2013-06-27,2020-11-07,83816
261,140,Dearborn Pkwy & Delaware Pl,41.899,-87.6299,2013-06-27,2020-11-07,122226
262,47,State St & Kinzie St,41.8892,-87.6278,2013-06-27,2020-11-07,135482
263,589,Milwaukee Ave & Cuyler Ave,41.9545,-87.7496,2016-09-30,2020-11-07,2314
264,45,Michigan Ave & Ida B Wells Dr,41.8762,-87.6244,2013-06-27,2020-11-07,72043
265,117,Wilton Ave & Belmont Ave,41.9402,-87.653,2013-06-27,2020-11-07,126096
266,602,Central St & Girard Ave,42.0643,-87.6862,2016-09-30,2020-11-07,5432
267,604,Sheridan Rd & Noyes St (NU),42.0582,-87.6774,2016-09-30,2020-11-07,13357
268,463,Clark St & Berwyn Ave,41.978,-87.668,2015-06-30,2020-11-07,40611
269,487,California Ave & Byron St,41.9522,-87.6981,2015-07-31,2020-11-07,7723
270,20,Sheffield Ave & Kingsbury St,41.9105,-87.6531,2013-06-27,2020-11-07,70095
271,160,Campbell Ave & North Ave,41.9105,-87.6896,2013-06-27,2020-11-07,26206
272,46,Wells St & Walton St,41.8999,-87.6344,2013-06-27,2020-11-07,57710
273,486,Oakley Ave & Irving Park Rd,41.9543,-87.6861,2015-06-30,2020-11-07,11065
274,366,Loomis St & Archer Ave,41.8416,-87.6574,2015-06-30,2020-11-07,6015
275,429,Cottage Grove Ave & 67th St,41.7737,-87.6056,2015-06-30,2020-11-07,1326
276,21,Aberdeen St & Jackson Blvd,41.8777,-87.6548,2013-06-27,2020-11-07,70700
277,496,Avers Ave & Belmont Ave,41.9394,-87.7236,2015-06-30,2020-11-07,6461
278,283,LaSalle St & Jackson Blvd,41.8782,-87.6319,2013-06-27,2020-11-07,154728
279,217,Elizabeth (May) St & Fulton St,41.8866,-87.658,2013-06-27,2020-11-07,47268
280,292,Southport Ave & Clark St,41.9571,-87.6642,2013-06-27,2020-11-07,19851
281,119,Ashland Ave & Lake St,41.8859,-87.6672,2013-06-27,2020-11-07,31512
282,351,Cottage Grove Ave & 51st St,41.803,-87.6066,2013-06-27,2020-11-07,5870
283,481,California Ave & Montrose Ave,41.9611,-87.6954,2015-07-31,2020-11-07,10065
284,253,Winthrop Ave & Lawrence Ave,41.9688,-87.6577,2013-06-27,2020-11-07,28566
285,302,Sheffield Ave & Wrightwood Ave,41.9287,-87.6538,2013-06-27,2020-11-07,61341
286,298,Lincoln Ave & Belle Plaine Ave,41.956,-87.6803,2013-06-27,2020-11-07,31350
287,138,Clybourn Ave & Division St,41.9046,-87.6406,2013-06-27,2020-11-07,42343
288,493,Western Ave & Roscoe St,41.943,-87.6873,2015-06-30,2020-11-07,16465
289,5,State St & Harrison St,41.8741,-87.6277,2013-06-27,2020-11-07,59758
290,224,Halsted St & Willow St,41.9139,-87.6488,2013-06-27,2020-11-07,48205
291,645,Archer (Damen) Ave & 37th St,41.8267,-87.6831,2019-01-01,2020-11-07,1204
292,196,Cityfront Plaza Dr & Pioneer Ct,41.8906,-87.6221,2013-06-27,2020-11-07,87991
293,108,Halsted St & Polk St,41.8718,-87.6466,2013-06-27,2020-11-07,53224
294,122,Ogden Ave & Congress Pkwy,41.875,-87.6733,2013-06-27,2020-11-07,16687
295,258,Logan Blvd & Elston Ave,41.9295,-87.6842,2013-06-27,2020-11-07,31667
296,457,Clark St & Elmdale Ave,41.9905,-87.6698,2015-06-30,2020-11-07,13945
297,7,Field Blvd & South Water St,41.8863,-87.6175,2015-06-30,2020-11-07,60409
298,126,Clark St & North Ave,41.912,-87.6319,2013-06-27,2020-11-07,81459
299,287,Franklin St & Monroe St,41.8803,-87.6352,2013-06-27,2020-11-07,192024
300,264,Stetson Ave & South Water St,41.8868,-87.6223,2013-06-27,2020-11-07,88690
301,297,Paulina St & Montrose Ave,41.9615,-87.6714,2013-06-27,2020-11-07,17041
302,121,Blackstone Ave & Hyde Park Blvd,41.8026,-87.5904,2013-06-27,2020-11-07,21487
303,343,Racine Ave & Wrightwood Ave,41.9289,-87.659,2013-06-27,2020-11-07,35912
304,158,Milwaukee Ave & Wabansia Ave,41.9126,-87.6814,2013-06-27,2020-11-07,58977
305,631,Malcolm X College,41.8776,-87.6739,2018-07-01,2020-11-07,2939
306,480,Albany Ave & Montrose Ave,41.961,-87.7059,2015-06-30,2020-11-07,6481
307,628,Walsh Park,41.9146,-87.668,2018-07-01,2020-11-07,7739
308,491,Talman Ave & Addison St,41.9466,-87.6946,2015-06-30,2020-11-07,12030
309,459,Lakefront Trail & Bryn Mawr Ave,41.984,-87.6523,2015-06-30,2020-11-07,65335
310,310,Damen Ave & Charleston St,41.9201,-87.6779,2013-06-27,2020-11-07,29659
311,417,Cornell Ave & Hyde Park Blvd,41.8024,-87.5869,2015-06-30,2020-11-07,32763
312,149,Calumet Ave & 33rd St,41.8349,-87.6179,2013-06-27,2020-11-07,22016
313,462,Winchester (Ravenswood) Ave & Balmoral Ave,41.9798,-87.6775,2015-06-30,2020-11-07,11119
314,256,Broadway & Sheridan Rd,41.9528,-87.65,2013-06-27,2020-11-07,48974
315,190,Southport Ave & Wrightwood Ave,41.9288,-87.6639,2013-06-27,2020-11-07,50413
316,478,Rockwell St & Eastwood Ave,41.9659,-87.6936,2015-06-30,2020-11-07,13101
317,451,Sheridan Rd & Loyola Ave,42.001,-87.6612,2015-06-30,2020-11-07,22152
318,497,Kimball Ave & Belmont Ave,41.9394,-87.7116,2015-06-30,2020-11-07,10289
319,490,Troy St & Elston Ave,41.9452,-87.7066,2015-06-30,2020-11-07,11162
320,500,Central Park Ave & Elbridge Ave,41.9353,-87.7169,2015-06-30,2020-11-07,7119
321,98,LaSalle St & Washington St,41.8827,-87.6325,2013-06-27,2020-11-07,93006
322,532,Austin Blvd & Lake St,41.8879,-87.7744,2016-06-30,2020-11-07,1850
323,251,Clarendon Ave & Leland Ave,41.968,-87.65,2013-06-27,2020-11-07,30292
324,458,Broadway & Thorndale Ave,41.9897,-87.6601,2015-06-30,2020-11-07,24706
325,315,Elston Ave & Wabansia Ave,41.9129,-87.6642,2013-06-27,2020-11-07,20412
326,603,Chicago Ave & Sheridan Rd,42.0505,-87.6778,2016-09-30,2020-11-07,11330
327,383,Paulina St & Flournoy St,41.873,-87.6691,2015-06-30,2020-11-07,31352
328,394,Clark St & 9th St (AMLI),41.8708,-87.6312,2015-08-31,2020-11-07,24019
329,48,Larrabee St & Kingsbury St,41.8978,-87.6429,2013-06-27,2020-11-07,133132
330,515,Paulina St & Howard St,42.0192,-87.6736,2016-09-30,2020-11-07,8880
331,226,Racine Ave & Belmont Ave,41.9397,-87.6589,2013-06-27,2020-11-07,55103
332,261,Hermitage Ave & Polk St,41.8715,-87.6699,2013-06-27,2020-11-07,36170
333,89,Financial Pl & Ida B Wells Dr,41.875,-87.6331,2015-06-30,2020-11-07,50719
334,488,Pulaski Rd & Eddy St (Temp),41.9463,-87.731,2015-06-30,2020-11-07,2754
335,352,Jeffery Blvd & 67th St,41.7735,-87.5771,2015-06-30,2020-11-07,3268
336,382,Western Ave & Congress Pkwy,41.8747,-87.6864,2015-06-30,2020-11-07,10547
337,288,Larrabee St & Armitage Ave,41.9181,-87.6437,2013-06-27,2020-11-07,48140
338,423,University Ave & 57th St,41.7915,-87.5999,2015-06-30,2020-11-07,54449
339,295,Broadway & Argyle St,41.9738,-87.6597,2013-06-27,2020-11-07,32650
340,327,Sheffield Ave & Webster Ave,41.9215,-87.6538,2013-06-27,2020-11-07,75948
341,22,May St & Taylor St,41.8695,-87.6555,2013-06-27,2020-11-07,53783
342,410,Prairie Ave & 43rd St,41.8167,-87.6194,2015-06-30,2020-11-07,3346
343,308,Seeley Ave & Roscoe St,41.9434,-87.6796,2013-06-27,2020-11-07,25560
344,622,California Ave & Cortez St,41.9004,-87.6967,2017-06-30,2020-11-07,13989
345,30,Ashland Ave & Augusta Blvd,41.8996,-87.6677,2013-06-27,2020-11-07,37599
346,215,Damen Ave & Madison St,41.8814,-87.6749,2013-06-27,2020-11-07,16688
347,96,Desplaines St & Randolph St,41.8846,-87.6446,2015-06-30,2020-11-07,58418
348,58,Marshfield Ave & Cortland St,41.916,-87.6689,2013-06-27,2020-11-07,102140
349,124,Damen Ave & Cullerton St,41.855,-87.6757,2013-06-27,2020-11-07,12700
350,39,Wabash Ave & Adams St,41.8795,-87.6257,2015-06-30,2020-11-07,63848
351,453,Clark St & Schreiber Ave,41.9993,-87.6714,2015-06-30,2020-11-07,9196
352,163,Damen Ave & Clybourn Ave,41.9319,-87.6779,2013-06-27,2020-11-07,22939
353,333,Ashland Ave & Blackhawk St,41.9071,-87.6673,2013-06-27,2020-11-07,45235
354,175,Wells St & Polk St,41.8726,-87.6335,2013-06-27,2020-11-07,61874
355,601,Central St Metra,42.0636,-87.6987,2016-06-30,2020-11-07,5717
356,540,Laramie Ave & Madison St,41.8802,-87.7553,2016-06-30,2020-11-07,518
357,239,Western Ave & Leland Ave,41.9665,-87.6884,2013-06-27,2020-11-07,37502
358,323,Sheridan Rd & Lawrence Ave,41.9695,-87.6547,2013-06-27,2020-11-07,22850
359,341,Adler Planetarium,41.8661,-87.6073,2013-06-27,2020-11-07,124376
360,146,Loomis St & Jackson Blvd,41.8779,-87.662,2013-06-27,2020-11-07,31418
361,456,2112 W Peterson Ave,41.9912,-87.6836,2015-06-30,2020-11-07,3180
362,203,Western Ave & 21st St,41.8541,-87.6858,2013-06-27,2020-11-07,8563
363,148,State St & 33rd St,41.8347,-87.6258,2013-06-27,2020-11-07,40101
364,425,Harper Ave & 59th St,41.7879,-87.5883,2015-06-30,2020-11-07,13730
365,477,Manor Ave & Leland Ave,41.9659,-87.7008,2015-06-30,2020-11-07,6938
366,660,Sheridan Rd & Columbia Ave,42.0046,-87.6614,2018-10-01,2020-11-07,5220
367,228,Damen Ave & Melrose Ave,41.9406,-87.6785,2013-06-27,2020-11-07,20827
368,229,Southport Ave & Roscoe St,41.9437,-87.664,2013-06-27,2020-11-07,84557
369,91,Clinton St & Washington Blvd,41.8834,-87.6412,2013-06-27,2020-11-07,297911
370,234,Clark St & Montrose Ave,41.9616,-87.666,2013-06-27,2020-11-07,30666
371,501,Richmond St & Diversey Ave,41.9319,-87.7012,2015-06-30,2020-11-07,12896
372,49,Dearborn St & Monroe St,41.8813,-87.6295,2013-06-27,2020-11-07,149585
373,413,Woodlawn Ave & Lake Park Ave,41.8141,-87.597,2015-06-30,2020-11-07,6782
374,280,Morgan St & 31st St,41.8378,-87.6511,2013-06-27,2020-11-07,13361
375,619,Keystone Ave & Fullerton Ave,41.9246,-87.7279,2016-09-30,2020-11-07,3688
376,27,Larrabee St & North Ave,41.9102,-87.6435,2013-06-27,2020-11-07,30998
377,6,Dusable Harbor,41.887,-87.6128,2015-06-30,2020-11-07,103382
378,184,State St & 35th St,41.8309,-87.628,2013-06-27,2020-11-07,18495
379,448,Warren Park East,42.0046,-87.6807,2015-06-30,2020-11-07,4374
380,370,Calumet Ave & 21st St,41.8542,-87.6192,2015-06-30,2020-11-07,20016
381,286,Franklin St & Adams St (Temp),41.8794,-87.6355,2013-06-27,2020-11-07,90957
382,494,Kedzie Ave & Bryn Mawr Ave,41.9824,-87.7089,2015-06-30,2020-11-07,3913
383,257,Lincoln Ave & Waveland Ave,41.9488,-87.6753,2013-06-27,2020-11-07,29085
384,345,Lake Park Ave & 56th St,41.7932,-87.5878,2013-06-27,2020-11-07,31484
385,66,Clinton St & Lake St,41.8856,-87.6418,2013-06-27,2020-11-07,144922
386,319,Greenview Ave & Diversey Pkwy,41.9326,-87.6659,2013-06-27,2020-11-07,26801
387,209,Normal Ave & Archer Ave,41.8495,-87.6406,2013-06-27,2020-11-07,8474
388,278,Wallace St & 35th St,41.8306,-87.6413,2013-06-27,2020-11-07,9606
389,636,Orleans St & Hubbard St,41.89,-87.6366,2018-07-01,2020-11-07,16070
390,242,Damen Ave & Leland Ave,41.9671,-87.679,2013-06-27,2020-11-07,35238
391,597,Chicago Ave & Washington St,42.0326,-87.6791,2016-06-30,2020-11-07,13517
392,550,Central Ave & Chicago Ave,41.895,-87.7649,2016-09-30,2020-11-07,733
393,450,Warren Park West,42.0018,-87.6888,2015-06-30,2020-11-07,4021
394,402,Shields Ave & 31st St,41.8385,-87.6354,2015-06-30,2020-11-07,11924
395,484,Monticello Ave & Irving Park Rd,41.954,-87.7191,2015-06-30,2020-11-07,6888
396,533,Central Park Blvd & 5th Ave,41.8757,-87.7155,2016-06-30,2020-11-07,583
397,511,Albany Ave & Bloomingdale Ave,41.914,-87.7051,2015-06-30,2020-11-07,23944
398,116,Western Ave & Winnebago Ave,41.9155,-87.687,2013-06-27,2020-11-07,51574
399,241,Morgan St & Polk St,41.8717,-87.651,2013-06-27,2020-11-07,78430
400,219,Damen Ave & Cortland St,41.916,-87.6773,2013-06-27,2020-11-07,61178
401,282,Halsted St & Maxwell St,41.8649,-87.6471,2013-06-27,2020-11-07,42627
402,420,Ellis Ave & 55th St,41.7943,-87.6015,2015-06-30,2020-11-07,36293
403,75,Canal St & Jackson Blvd,41.8772,-87.6394,2013-06-27,2020-11-07,130130
404,271,Cottage Grove Ave & 43rd St,41.8165,-87.6066,2013-06-27,2020-11-07,4556
405,505,Winchester Ave & Elston Ave,41.9241,-87.6765,2015-06-30,2020-11-07,14395
406,430,MLK Jr Dr & 63rd St,41.7801,-87.6159,2015-06-30,2020-11-07,900
407,252,Greenwood Ave & 47th St,41.8098,-87.5994,2013-06-27,2020-11-07,11332
408,185,Stave St & Armitage Ave,41.9177,-87.6914,2013-06-27,2020-11-07,17448
409,411,Halsted St & 47th Pl,41.8081,-87.6456,2015-06-30,2020-11-07,1932
410,33,State St & Van Buren St,41.8772,-87.6278,2013-06-27,2020-11-07,87394
411,502,California Ave & Altgeld St,41.9267,-87.6977,2015-06-30,2020-11-07,15392
412,246,Ashland Ave & Belle Plaine Ave,41.9561,-87.6688,2013-06-27,2020-11-07,18500
413,99,Lake Shore Dr & Ohio St,41.8926,-87.6145,2013-06-27,2020-11-07,115995
414,339,Emerald Ave & 31st St,41.8382,-87.6451,2013-06-27,2020-11-07,20681
415,326,Clark St & Leland Ave,41.9671,-87.6674,2013-06-27,2020-11-07,34595
416,284,Michigan Ave & Jackson Blvd,41.8779,-87.6241,2013-06-27,2020-11-07,114787
417,427,Cottage Grove Ave & 63rd St,41.7806,-87.6061,2015-06-30,2020-11-07,3390
418,506,Spaulding Ave & Armitage Ave,41.9171,-87.7102,2015-06-30,2020-11-07,18442
419,40,LaSalle St & Adams St,41.8793,-87.632,2015-06-30,2020-11-07,46831
420,103,Clinton St & Polk St,41.8715,-87.6409,2015-06-30,2020-11-07,11401
421,559,Racine Ave & Garfield Blvd,41.7942,-87.6551,2016-06-30,2020-11-07,654
422,25,Michigan Ave & Pearson St,41.8977,-87.6235,2013-06-27,2020-11-07,93427
423,55,Halsted St & Roosevelt Rd,41.8673,-87.6486,2013-06-27,2020-11-07,33954
424,87,Racine Ave & Fullerton Ave,41.9256,-87.6584,2013-06-27,2020-11-07,54913
425,527,Western Ave & Howard St,42.0189,-87.69,2016-09-30,2020-11-07,2750
426,467,Western Ave & Lunt Ave,42.0086,-87.6905,2015-06-30,2020-11-07,6365
427,285,Wood St & Hubbard St,41.8899,-87.6715,2013-06-27,2020-11-07,25744
428,637,Wood St & Chicago Ave (*),41.8956,-87.6721,2018-07-01,2020-11-07,8852
429,489,Drake Ave & Addison St,41.9473,-87.7176,2015-06-30,2020-11-07,7756
430,207,Emerald Ave & 28th St,41.8436,-87.6454,2013-06-27,2020-11-07,13533
431,375,Sacramento Blvd & Franklin Blvd,41.8905,-87.7026,2015-06-30,2020-11-07,2415
432,522,Bosworth Ave & Howard St,42.0195,-87.6696,2016-09-30,2020-11-07,2902
433,485,Sawyer Ave & Irving Park Rd,41.9536,-87.7093,2015-06-30,2020-11-07,6060
434,443,Millard Ave & 26th St,41.8446,-87.7159,2015-06-30,2020-11-07,1415
435,204,Prairie Ave & Garfield Blvd,41.7949,-87.6187,2013-06-27,2020-11-07,9597
436,658,Leavitt St & Division St (*),41.903,-87.6838,2018-10-01,2020-11-07,4912
437,376,Artesian Ave & Hubbard St,41.8895,-87.6882,2015-06-30,2020-11-07,29325
438,335,Calumet Ave & 35th St,41.8314,-87.618,2013-06-27,2020-11-07,6924
439,666,Cherry Ave & Blackhawk St,41.9072,-87.6556,2019-07-01,2020-11-07,1343
440,419,Lake Park Ave & 53rd St,41.7995,-87.5864,2015-06-30,2020-11-07,23672
441,407,State St & Pershing Rd,41.823,-87.6266,2015-06-30,2020-11-07,1104
442,137,Morgan Ave & 14th Pl,41.8624,-87.6511,2013-06-27,2020-11-07,30775
443,449,Clark St & Columbia Ave,42.0045,-87.6724,2015-06-30,2020-11-07,9527
444,440,Central Park Ave & 24th St,41.8481,-87.7151,2015-06-30,2020-11-07,546
445,136,Racine Ave & 13th St,41.8651,-87.657,2013-06-27,2020-11-07,7298
446,518,Conservatory Dr & Lake St,41.8855,-87.7169,2016-06-30,2020-11-07,2894
447,364,Larrabee St & Oak St,41.9002,-87.643,2015-06-30,2020-11-07,45308
448,330,Lincoln Ave & Addison St,41.9462,-87.6733,2013-06-27,2020-11-07,17063
449,653,Cornell Dr & Hayes Dr,41.7806,-87.5848,2018-10-01,2020-11-07,716
450,431,Eberhart Ave & 61st St,41.7841,-87.6133,2015-06-30,2020-11-07,1242
451,18,Wacker Dr & Washington St,41.8831,-87.6373,2015-06-30,2020-11-07,81818
452,267,Lake Park Ave & 47th St,41.8094,-87.5919,2013-06-27,2020-11-07,17430
453,438,Central Park Ave & Ogden Ave,41.8542,-87.7154,2015-06-30,2020-11-07,1701
454,62,McCormick Place,41.8514,-87.6188,2013-06-27,2020-11-07,42553
455,373,Kedzie Ave & Chicago Ave,41.8955,-87.7061,2015-06-30,2020-11-07,4153
456,171,May St & Cullerton St,41.8551,-87.6541,2013-06-27,2020-11-07,11025
457,558,Ashland Ave & Garfield Blvd,41.7928,-87.6644,2016-06-30,2020-11-07,353
458,546,Damen Ave & Pershing Rd,41.8232,-87.6766,2016-06-30,2020-11-07,1230
459,551,Hoyne Ave & 47th St,41.8082,-87.6772,2016-06-30,2020-11-07,831
460,594,Western Blvd & 48th Pl,41.8057,-87.6834,2016-06-30,2020-11-07,1057
461,281,Western Ave & 24th St,41.8485,-87.6851,2013-06-27,2020-11-07,3857
462,385,Princeton Ave & Garfield Blvd,41.795,-87.6331,2015-06-30,2020-11-07,1939
463,11,Jeffery Blvd & 71st St,41.7666,-87.5764,2015-06-30,2020-11-07,2094
464,437,Washtenaw Ave & Ogden Ave,41.8619,-87.6935,2015-06-30,2020-11-07,4848
465,365,Halsted St & North Branch St,41.8994,-87.6485,2015-06-30,2020-11-07,12075
466,446,Western Ave & 28th St,41.8415,-87.6851,2015-06-30,2020-11-07,1256
467,552,Ashland Ave & McDowell Ave,41.8089,-87.6645,2016-06-30,2020-11-07,1648
468,557,Seeley Ave & Garfield Blvd,41.7941,-87.6755,2016-09-30,2020-11-07,182
469,170,Clinton St & 18th St,41.858,-87.6408,2013-06-27,2020-11-07,18036
470,590,Kilbourn Ave & Irving Park Rd,41.9537,-87.7406,2016-09-30,2020-11-07,2643
471,433,Kedzie Ave & Harrison St,41.8736,-87.7049,2015-06-30,2020-11-07,1027
472,625,Chicago Ave & Dempster St,42.0417,-87.6807,2017-09-30,2020-11-07,6643
473,599,Valli Produce - Evanston Plaza,42.0397,-87.6994,2016-09-30,2020-11-07,2465
474,585,Cottage Grove Ave & 83rd St,41.7434,-87.6048,2016-09-30,2020-11-07,762
475,314,Ravenswood Ave & Berteau Ave,41.9579,-87.6736,2013-06-27,2020-11-07,23822
476,348,California Ave & 21st St,41.8538,-87.6957,2013-06-27,2020-11-07,5722
477,265,Cottage Grove Ave & Oakwood Blvd,41.823,-87.6071,2013-06-27,2020-11-07,9725
478,600,Dodge Ave & Church St,42.0483,-87.6982,2016-06-30,2020-11-07,3946
479,408,Union Ave & Root St,41.8191,-87.6433,2015-06-30,2020-11-07,1683
480,571,Vernon Ave & 75th St,41.7584,-87.6141,2016-09-30,2020-11-07,630
481,468,Budlong Woods Library,41.9837,-87.6964,2015-06-30,2020-11-07,3869
482,135,Halsted St & 21st St,41.8538,-87.6466,2013-06-27,2020-11-07,9796
483,378,California Ave & Lake St,41.8845,-87.6963,2015-06-30,2020-11-07,4022
484,132,Wentworth Ave & 24th St (Temp),41.8501,-87.6321,2013-06-27,2020-11-07,9805
485,547,Ashland Ave & Pershing Rd,41.8235,-87.6656,2016-06-30,2020-11-07,1210
486,277,Ashland Ave & Grand Ave,41.8911,-87.6666,2013-06-27,2020-11-07,28190
487,120,Wentworth Ave & Cermak Rd (Temp),41.853,-87.6306,2013-06-27,2020-11-07,34469
488,3,Shedd Aquarium,41.8672,-87.6154,2015-06-30,2020-11-07,146946
489,548,Morgan St & Pershing Rd,41.8236,-87.6509,2016-06-30,2020-11-07,385
490,177,Theater on the Lake,41.9263,-87.6308,2013-06-27,2020-11-07,278118
491,369,Wood St & 35th St,41.8301,-87.6703,2015-06-30,2020-11-07,2506
492,169,Canal St & Harrison St,41.8743,-87.6396,2013-06-27,2020-11-07,24915
493,274,Racine Ave & 15th St,41.8613,-87.6566,2013-06-27,2020-11-07,15372
494,524,Austin Blvd & Chicago Ave,41.8949,-87.7747,2016-09-30,2020-11-07,815
495,311,Leavitt St & Lawrence Ave,41.9689,-87.684,2013-06-27,2020-11-07,19380
496,439,Kedzie Ave & 21st St,41.8535,-87.7051,2015-06-30,2020-11-07,2209
497,403,Wentworth Ave & 33rd St,41.8345,-87.6318,2015-06-30,2020-11-07,9197
498,412,Princeton Ave & 47th St,41.8093,-87.6334,2015-06-30,2020-11-07,1761
499,595,Wabash Ave & 87th St,41.7366,-87.6226,2016-09-30,2020-11-07,520
500,466,Ridge Blvd & Touhy Ave,42.0121,-87.6829,2015-06-30,2020-11-07,3550
501,416,Dorchester Ave & 49th St,41.8058,-87.5925,2015-06-30,2020-11-07,4971
502,654,Racine Ave & Washington Blvd (*),41.8831,-87.657,2018-10-01,2020-11-07,7355
503,470,Kedzie Ave & Foster Ave,41.9757,-87.7093,2015-06-30,2020-11-07,5585
504,586,MLK Jr Dr & 83rd St,41.7431,-87.6148,2016-09-30,2020-11-07,488
505,663,Lincolnwood Dr & Central St,42.0649,-87.7153,2018-10-01,2020-11-07,1522
506,201,Indiana Ave & 40th St,41.8217,-87.6216,2013-06-27,2020-11-07,2954
507,587,Wabash Ave & 83rd St,41.7433,-87.6228,2016-09-30,2020-11-07,326
508,514,Ridge Blvd & Howard St,42.0193,-87.6845,2016-09-30,2020-11-07,2674
509,492,Leavitt St & Addison St,41.9467,-87.6834,2015-06-30,2020-11-07,10192
510,573,State St & 79th St,41.7508,-87.6244,2016-09-30,2020-11-07,1100
511,275,Ashland Ave & 13th St,41.8652,-87.6665,2013-06-27,2020-11-07,12553
512,400,Cottage Grove Ave & 71st St,41.7657,-87.605,2015-06-30,2020-11-07,623
513,162,Damen Ave & Wellington Ave,41.9359,-87.6784,2013-06-27,2020-11-07,26255
514,474,Christiana Ave & Lawrence Ave,41.9684,-87.7118,2015-06-30,2020-11-07,7832
515,539,Cicero Ave & Quincy St,41.8776,-87.7454,2016-06-30,2020-11-07,385
516,593,Halsted St & 59th St,41.7875,-87.6449,2016-09-30,2020-11-07,201
517,428,Dorchester Ave & 63rd St,41.7804,-87.5914,2015-06-30,2020-11-07,3431
518,525,Glenwood Ave & Touhy Ave,42.0127,-87.6661,2016-09-30,2020-11-07,4385
519,541,Central Ave & Harrison St,41.873,-87.7645,2016-06-30,2020-11-07,476
520,441,Kedzie Ave & 24th St,41.8482,-87.7054,2015-06-30,2020-11-07,993
521,435,Kedzie Ave & Roosevelt Rd,41.8665,-87.7065,2015-06-30,2020-11-07,1976
522,421,MLK Jr Dr & 56th St,41.7934,-87.6159,2015-06-30,2020-11-07,1500
523,12,South Shore Dr & 71st St,41.7664,-87.5657,2015-06-30,2020-11-07,5742
524,588,South Chicago Ave & 83rd St,41.7439,-87.5752,2016-09-30,2020-11-07,211
525,664,Leavitt St & Belmont Ave (*),41.9394,-87.6833,2018-10-01,2020-11-07,3739
526,646,State St & 54th St,41.7966,-87.6259,2018-10-01,2020-11-07,306
527,483,Avondale Ave & Irving Park Rd,41.9534,-87.732,2015-06-30,2020-11-07,8042
528,393,Calumet Ave & 71st St,41.7655,-87.6169,2015-06-30,2020-11-07,417
529,479,Drake Ave & Montrose Ave,41.9612,-87.7166,2015-06-30,2020-11-07,6917
530,167,Damen Ave & Coulter St,41.8492,-87.6756,2013-06-27,2020-11-07,2865
531,528,Pulaski Rd & Lake St,41.8854,-87.7265,2016-06-30,2020-11-07,718
532,536,Kostner Ave & Lake St,41.8859,-87.7354,2016-06-30,2020-11-07,263
533,530,Laramie Ave & Kinzie St,41.8878,-87.7555,2016-06-30,2020-11-07,361
534,529,Cicero Ave & Lake St,41.8868,-87.7453,2016-06-30,2020-11-07,396
535,476,Kedzie Ave & Leland Ave,41.9667,-87.7081,2015-06-30,2020-11-07,7035
536,592,Knox Ave & Montrose Ave,41.9606,-87.7454,2016-09-30,2020-11-07,2466
537,399,South Shore Dr & 74th St,41.7622,-87.5593,2015-06-30,2020-11-07,2899
538,353,Clark St & Touhy Ave,42.0126,-87.6744,2015-06-30,2020-11-07,3114
539,401,Shields Ave & 28th Pl,41.8427,-87.6355,2015-06-30,2020-11-07,6314
540,583,Stony Island Ave & 82nd St,41.7466,-87.586,2016-09-30,2020-11-07,430
541,662,Dodge Ave & Mulford St,42.0235,-87.6996,2018-10-01,2020-11-07,1207
542,395,Jeffery Blvd & 76th St,41.7571,-87.5758,2015-06-30,2020-11-07,867
543,564,Racine Ave & 65th St,41.7754,-87.6543,2016-09-30,2020-10-31,165
544,396,Yates Blvd & 75th St,41.7588,-87.5664,2015-06-30,2020-11-07,857
546,444,Albany Ave & 26th St,41.8445,-87.702,2015-06-30,2020-11-07,1258
547,671,HUBBARD ST BIKE CHECKING (LBS-WH-TEST),41.89,-87.6807,2019-07-01,2020-11-07,424
548,270,Stony Island Ave & 75th St,41.7587,-87.5869,2015-06-30,2020-11-07,1131
549,579,Phillips Ave & 79th St,41.7518,-87.5652,2016-09-30,2020-11-07,593
550,591,Kilbourn Ave & Milwaukee Ave,41.9488,-87.74,2016-09-30,2020-11-07,2393
551,95,Stony Island Ave & 64th St,41.7789,-87.5866,2015-06-30,2020-11-07,2015
552,568,Vincennes Ave & 75th St,41.758,-87.6312,2016-06-30,2020-11-07,179
553,534,Karlov Ave & Madison St,41.8809,-87.7279,2016-06-30,2020-11-07,614
554,543,Laramie Ave & Gladys Ave,41.8758,-87.7553,2016-06-30,2020-11-07,318
555,640,Bernard St & Elston Ave,41.9499,-87.7139,2018-10-01,2020-11-07,1373
556,641,Central Park Ave & Bloomingdale Ave,41.9142,-87.7168,2018-10-01,2020-11-07,4274
557,388,Halsted St & 63rd St,41.7794,-87.6446,2015-06-30,2020-11-07,1296
558,535,Pulaski Rd & Congress Pkwy,41.8743,-87.7257,2016-06-30,2020-11-07,567
559,356,Stony Island Ave & 71st St,41.7665,-87.5865,2015-06-30,2020-11-07,1591
560,630,Kildare Ave & Montrose Ave,41.9611,-87.7357,2018-07-01,2020-11-07,1125
561,644,Western Ave & Fillmore St (*),41.8686,-87.6862,2018-10-01,2020-11-07,5363
562,574,Vernon Ave & 79th St,41.7509,-87.6138,2016-09-30,2020-11-07,400
563,218,Wells St & 19th St,41.8568,-87.6339,2013-06-27,2020-11-07,11322
564,577,Stony Island Ave & South Chicago Ave,41.7512,-87.5853,2016-09-30,2020-11-07,386
565,390,Wentworth Ave & 63rd St,41.7801,-87.6297,2015-06-30,2020-11-07,952
566,262,Halsted St & 37th St,41.8271,-87.6457,2013-06-27,2020-11-07,3936
567,570,Evans Ave & 75th St,41.7585,-87.6064,2016-09-30,2020-11-07,898
568,572,State St & 76th St,41.757,-87.6246,2016-06-30,2020-11-07,408
569,650,Eggleston Ave & 69th St (*),41.7689,-87.6359,2018-10-01,2020-11-07,169
570,545,Kostner Ave & Adams St,41.8779,-87.7357,2016-06-30,2020-11-07,572
571,569,Woodlawn Ave & 75th St,41.7592,-87.5958,2016-09-30,2020-11-07,192
573,102,Stony Island Ave & 67th St,41.7735,-87.5853,2015-06-30,2020-11-07,2180
574,656,Damen Ave & Walnut (Lake) St (*),41.886,-87.677,2018-10-01,2020-11-07,3156
575,655,Hoyne Ave & Balmoral Ave,41.9799,-87.6819,2018-10-01,2020-11-07,2852
576,384,Halsted St & 51st St,41.8018,-87.6452,2015-06-30,2020-11-07,286
577,436,Fairfield Ave & Roosevelt Rd,41.8666,-87.6945,2015-06-30,2020-11-07,2859
578,639,Lakefront Trail & Wilson Ave,41.9658,-87.6454,2018-07-01,2020-11-07,13946
579,392,Perry Ave & 69th St,41.7693,-87.6282,2015-06-30,2020-11-07,653
580,531,Central Ave & Lake St,41.8877,-87.7655,2016-09-30,2020-11-07,548
581,643,Smith Park (*),41.892,-87.6894,2018-07-01,2020-11-07,2317
582,556,Throop St & 52nd St,41.7997,-87.6572,2016-06-30,2020-11-07,187
583,554,Damen Ave & 51st St,41.8009,-87.6747,2016-06-30,2020-10-31,328
584,642,Latrobe Ave & Chicago Ave,41.8947,-87.7569,2019-04-01,2020-11-07,223
585,567,May St & 69th St,41.7689,-87.6529,2016-09-30,2020-11-07,235
586,561,Damen Ave & 59th St,41.786,-87.6742,2016-06-30,2020-11-07,248
587,565,Ashland Ave & 66th St,41.7741,-87.6638,2016-06-30,2020-11-07,201
588,542,Central Ave & Madison St,41.8801,-87.7632,2016-06-30,2020-11-07,603
589,538,Cicero Ave & Flournoy St,41.8721,-87.7466,2016-06-30,2020-11-07,153
590,445,California Ave & 26th St,41.844,-87.6953,2015-06-30,2020-11-07,1251
591,386,Halsted St & 56th St,41.7929,-87.645,2015-06-30,2020-11-07,470
592,409,Shields Ave & 43rd St,41.8162,-87.6348,2015-06-30,2020-11-07,326
594,555,Ashland Ave & 50th St,41.803,-87.6647,2016-06-30,2020-11-07,382
595,398,Rainbow Beach,41.7579,-87.5494,2015-06-30,2020-11-07,1136
596,578,Bennett Ave & 79th St,41.7518,-87.5785,2016-09-30,2020-11-07,333
597,580,Exchange Ave & 79th St,41.7517,-87.5528,2016-09-30,2020-11-07,794
598,391,Halsted St & 69th St,41.7691,-87.6446,2015-06-30,2020-11-07,504
599,549,Marshfield Ave & 44th St,41.814,-87.6666,2016-09-30,2020-11-07,364
600,649,Stewart Ave & 63rd St (*),41.7798,-87.6348,2018-10-01,2020-11-07,128
601,4,Burnham Harbor,41.8563,-87.6133,2015-06-30,2020-11-07,94160
602,249,Montrose Harbor,41.964,-87.6382,2013-06-27,2020-11-07,99492
604,560,Marshfield Ave & 59th St,41.7868,-87.6662,2016-06-30,2020-11-07,161
605,582,Phillips Ave & 83rd St,41.7445,-87.5651,2016-09-30,2020-11-07,322
606,576,Greenwood Ave & 79th St,41.7513,-87.5976,2016-09-30,2020-11-07,483
607,537,Kenton Ave & Madison St,41.8807,-87.741,2016-06-30,2020-11-07,261
608,553,Elizabeth St & 47th St,41.8084,-87.6565,2016-06-30,2020-11-07,459
610,566,Ashland Ave & 69th St,41.7687,-87.6641,2016-06-30,2020-10-31,249
615,683.0,Ashland Ave & 78th St,41.75223483333333,-87.66386033333333,2020-07-09,2020-11-07,116
618,676.0,WATSON TESTING - DIVVY,41.89484,-87.73087366666667,2020-07-09,2020-11-07,2958
619,690.0,State St & 95th St,41.72162083333333,-87.62284616666666,2020-08-20,2020-11-07,127
620,687.0,Loomis Blvd & 84th St,41.741642166666665,-87.65841433333334,2020-08-20,2020-11-07,114
621,684.0,Prospect Sq & 91st St,41.7279095,-87.66762416666667,2020-08-20,2020-11-07,178
623,689.0,Elizabeth St & 92nd St,41.72682666666667,-87.65429816666666,2020-08-20,2020-11-07,133
646,703.0,Greenwood Ave & 97th St,41.718730666666666,-87.59700566666666,2020-09-17,2020-11-07,112
667,13157,Aberdeen St & Jackson Blvd,41.87772613,-87.65478743,2020-12-27,2022-05-11,15520
668,TA1309000006,Larrabee St & Armitage Ave,41.918084,-87.643749,2020-12-27,2022-05-11,14517
669,KA1503000043,Kingsbury St & Kinzie St,41.889193166666665,-87.63857616666667,2020-12-27,2022-05-11,44826
670,TA1309000014,Clark St & Leland Ave,41.96712716666666,-87.6674515,2020-12-27,2022-05-11,12783
671,TA1305000006,Dearborn St & Monroe St,41.881319815,-87.6295209193,2020-12-27,2022-05-11,24478
672,13042,Michigan Ave & Oak St,41.901104,-87.62355533333333,2020-12-27,2022-05-11,53744
673,604,Sheridan Rd & Noyes St (NU),42.058239,-87.677432,2020-12-27,2022-05-11,7710
674,TA1307000127,Clark St & Grace St,41.95078,-87.659172,2020-12-27,2022-05-11,21854
675,TA1306000003,Desplaines St & Kinzie St,41.88858966666667,-87.64448183333333,2020-12-27,2022-05-11,33001
676,TA1306000006,Orleans St & Elm St,41.902924,-87.637715,2020-12-27,2022-05-11,7169
677,TA1306000011,Wells St & Walton St,41.89993001,-87.63443007,2020-12-27,2022-05-11,13147
678,SL-013,State St & 19th St,41.856571333333335,-87.627586,2020-12-27,2022-05-11,4105
679,13124,Cannon Dr & Fullerton Ave,41.9267559875,-87.6344287848,2020-12-27,2022-05-11,9592
680,13137,Broadway & Barry Ave,41.937582,-87.644097,2020-12-27,2022-05-11,38734
681,13074,Broadway & Wilson Ave,41.965221,-87.658139,2020-12-27,2022-05-11,12964
682,TA1309000066,Ravenswood Ave & Lawrence Ave,41.96909,-87.674237,2020-12-01,2022-05-11,17397
683,TA1307000138,Lincoln Ave & Roscoe St,41.94334,-87.67097,2020-12-27,2022-05-11,14762
684,TA1307000052,Sheffield Ave & Wellington Ave,41.936266,-87.652662,2020-12-27,2022-05-11,23312
685,660,Sheridan Rd & Columbia Ave,42.004583,-87.661406,2020-12-27,2022-05-11,5295
686,TA1309000059,Racine Ave & Wrightwood Ave,41.928887,-87.658971,2020-12-27,2022-05-11,11336
687,13268,Damen Ave & Wellington Ave,41.93588333333334,-87.6784505,2020-12-27,2022-05-11,6545
688,KA1503000002,South Shore Dr & 71st St,41.7664094567,-87.5656875719,2020-12-27,2022-05-11,2321
689,TA1307000140,Western Ave & Leland Ave,41.966502166666665,-87.68844583333333,2020-12-27,2022-05-11,8882
690,639,Lakefront Trail & Wilson Ave,41.965845,-87.645361,2020-12-27,2022-05-11,11915
691,13294,Greenview Ave & Diversey Pkwy,41.93258963429789,-87.66593635082245,2020-12-27,2022-05-11,9628
692,TA1307000062,Sedgwick St & Huron St,41.894666,-87.638437,2020-12-27,2022-05-11,18101
693,15655,Albany Ave & Bloomingdale Ave,41.914026,-87.705126,2020-12-27,2022-05-11,6741
694,TA1307000064,Lincoln Ave & Diversey Pkwy,41.932225,-87.658617,2020-12-27,2022-05-11,21582
695,TA1306000010,Daley Center Plaza,41.88403733333333,-87.62947366666667,2020-12-27,2022-05-11,24791
696,13058,Dayton St & North Ave,41.9105780349,-87.6494219288,2020-12-27,2022-05-11,16324
697,13179,Clark St & Lincoln Ave,41.91570866666667,-87.63460416666666,2020-12-01,2022-05-11,40507
698,KA1504000076,Ellis Ave & 55th St,41.79430062054,-87.6014497734,2020-12-27,2022-05-11,19717
699,13431,Adler Planetarium,41.866095,-87.607267,2020-12-27,2022-05-11,19649
700,KA1503000070,Harper Ave & 59th St,41.787950333333335,-87.58821016666667,2020-12-01,2022-05-11,6020
701,13197,Elizabeth (May) St & Fulton St,41.886616486027656,-87.6580399274826,2020-12-27,2022-05-11,7744
702,13006,LaSalle St & Washington St,41.882745666666665,-87.6326705,2020-12-27,2022-05-11,14131
703,KA1503000040,Loomis St & Archer Ave,41.841632,-87.657434,2020-12-27,2022-05-11,1819
704,TA1307000129,State St & 35th St,41.8311045,-87.62686516666666,2020-12-27,2022-05-11,5408
705,TA1307000159,Paulina St & 18th St,41.857901,-87.668745,2020-12-27,2022-05-11,5853
706,13326,Canal St & Harrison St,41.8743045,-87.63966033333334,2020-12-27,2022-05-11,4100
707,SL-009,Clark St & 9th St (AMLI),41.870816,-87.631246,2020-12-27,2022-05-11,8944
708,TA1307000120,Green St & Madison St,41.881892,-87.648789,2020-12-27,2022-05-11,33783
709,13332,Loomis St & Lexington St,41.872187,-87.661501,2020-12-27,2022-05-11,22729
710,TA1305000011,Michigan Ave & Lake St,41.88554633333333,-87.625339,2020-12-27,2022-05-11,32541
711,TA1307000070,Damen Ave & Thomas St (Augusta Blvd),41.901315,-87.677409,2020-12-01,2022-05-11,11032
712,TA1305000030,Clark St & Randolph St,41.884576228,-87.63188991,2020-12-27,2022-05-11,21434
713,TA1309000008,Franklin St & Adams St (Temp),41.87943409140013,-87.63550400733948,2020-12-27,2022-05-11,12969
714,15545,Burnham Harbor,41.856268,-87.613348,2020-12-27,2022-05-11,16556
715,13162,Halsted St & 21st St,41.85351533333333,-87.64628066666667,2020-12-27,2022-05-11,2619
716,TA1307000039,Clark St & Elm St,41.902973,-87.63128,2020-12-27,2022-05-11,52100
717,13164,Racine Ave & 18th St,41.858166,-87.656495,2020-12-27,2022-05-11,9721
718,KA1504000104,Paulina St & Flournoy St,41.87295,-87.66913,2020-12-27,2022-05-11,14098
719,13353,Ada St & Washington Blvd,41.88283,-87.661206,2020-12-27,2022-05-11,11774
720,13022,Streeter Dr & Grand Ave,41.892278,-87.612043,2020-12-27,2022-05-11,100769
721,13036,Michigan Ave & Madison St,41.882134,-87.625125,2020-12-27,2022-05-11,16013
722,13139,Throop St & Taylor St,41.868968,-87.659141,2020-12-27,2022-05-11,9585
723,KA1503000064,Dusable Harbor,41.886976,-87.612813,2020-12-27,2022-05-11,25829
724,16920,Central Ave & Chicago Ave,41.894958,-87.764902,2020-12-27,2022-05-11,846
725,13243,Milwaukee Ave & Wabansia Ave,41.912616,-87.681391,2020-12-27,2022-05-11,17853
726,13017,Franklin St & Chicago Ave,41.896746973093805,-87.63566762208939,2020-12-27,2022-05-11,19927
727,TA1305000001,Wabash Ave & Cermak Rd,41.852619,-87.626488,2020-12-27,2022-05-11,4709
728,13028,900 W Harrison St,41.874754,-87.649807,2020-12-27,2022-05-11,11558
729,TA1307000121,Halsted St & Polk St,41.87184,-87.64664,2020-12-27,2022-05-11,13798
730,TA1307000130,Morgan St & Polk St,41.871737,-87.65103,2020-12-27,2022-05-11,14027
731,SL-005,Indiana Ave & Roosevelt Rd,41.867888,-87.623041,2020-12-27,2022-05-11,37558
732,13165,Racine Ave & 13th St,41.865054,-87.656959,2020-12-27,2022-05-11,1539
733,TA1308000019,Racine Ave & Belmont Ave,41.939709,-87.65886616666667,2020-12-27,2022-05-11,18957
734,KA1503000041,McClurg Ct & Erie St,41.89379616666667,-87.61896616666667,2020-12-27,2022-05-11,26497
735,TA1305000009,Clark St & Ida B Wells Dr,41.8759326655,-87.6305845355,2020-12-27,2022-05-11,7413
736,KA1503000072,Wacker Dr & Washington St,41.883426,-87.637215,2020-12-27,2022-05-11,12163
737,TA1309000004,LaSalle St & Jackson Blvd,41.878166,-87.631929,2020-12-27,2022-05-11,16696
738,TA1309000035,Clark St & Winnemac Ave,41.97334764047304,-87.6678554713726,2020-12-27,2022-05-11,17073
739,KA1504000129,Western Ave & Granville Ave,41.994184,-87.68944316666666,2020-12-27,2022-05-11,1823
740,TA1306000007,Larrabee St & Menomonee St,41.91468,-87.64332,2020-12-27,2022-05-11,8107
741,TA1309000043,Southport Ave & Irving Park Rd,41.95416016666667,-87.66416816666667,2020-12-27,2022-05-11,10594
742,KA1503000034,LaSalle St & Adams St,41.87934437346,-87.6319852213,2020-12-27,2022-05-11,7664
743,KA1504000140,Winchester Ave & Elston Ave,41.92409085038,-87.6764600747,2020-12-27,2022-05-11,4903
744,TA1307000126,Sheffield Ave & Waveland Ave,41.949399,-87.654529,2020-12-27,2022-05-11,26176
745,KA1503000012,Clark St & Lake St,41.88602082773,-87.6308760584,2020-12-27,2022-05-11,21159
746,TA1307000166,Halsted St & Willow St,41.913887333333335,-87.64879883333333,2020-12-27,2022-05-11,16090
747,TA1305000041,Damen Ave & Pierce Ave,41.909370333333335,-87.6777065,2020-12-27,2022-05-11,28592
748,TA1309000019,Lakeview Ave & Fullerton Pkwy,41.925858,-87.638973,2020-12-27,2022-05-11,31431
749,15628,California Ave & Byron St,41.95216219326,-87.698051113,2020-12-27,2022-05-11,3143
750,TA1308000049,Wells St & Evergreen Ave,41.906724,-87.63483,2020-12-27,2022-05-11,32887
751,TA1305000035,State St & Van Buren St,41.877181,-87.627844,2020-12-27,2022-05-11,11649
752,KA1504000116,Larrabee St & Oak St,41.90021949323,-87.6429854676,2020-12-27,2022-05-11,10748
753,573,State St & 79th St,41.7507835,-87.62444966666666,2020-12-27,2022-05-11,547
754,13224,Ashland Ave & Blackhawk St,41.907066,-87.667252,2020-12-27,2022-05-11,14327
755,KA1504000149,Damen Ave & Foster Ave,41.97568683333333,-87.67947366666667,2020-12-27,2022-05-11,5414
756,TA1307000156,Lincoln Ave & Sunnyside Ave,41.963004,-87.684781,2020-12-27,2022-05-11,7217
757,13276,Stockton Dr & Wrightwood Ave,41.9313295,-87.63876616666667,2020-12-27,2022-05-11,22947
758,TA1306000032,Sheffield Ave & Willow St,41.913688,-87.652855,2020-12-27,2022-05-11,17646
759,13136,Damen Ave & Division St,41.903266,-87.678435,2020-12-27,2022-05-11,14621
760,15664,Artesian Ave & Hubbard St,41.88949366666667,-87.68819516666667,2020-12-27,2022-05-11,4145
761,15529,Mies van der Rohe Way & Chestnut St,41.898611333333335,-87.6224675,2020-12-27,2022-05-11,24084
762,13134,Damen Ave & Madison St,41.881409833333336,-87.6749305,2020-12-27,2022-05-11,4648
763,TA1307000041,Lake Shore Dr & Wellington Ave,41.9366884494997,-87.63682901859283,2020-12-27,2022-05-11,27858
764,KA1503000022,Clark St & Montrose Ave,41.961588,-87.666036,2020-12-27,2022-05-11,8362
765,KA1504000096,Sawyer Ave & Irving Park Rd,41.953606666666666,-87.70939483333333,2020-12-27,2022-05-11,1576
766,TA1308000005,Leavitt St & North Ave,41.91050936666395,-87.6823890209198,2020-12-27,2022-05-11,9373
767,13409,Sangamon St & Washington Blvd,41.883165,-87.6511,2020-12-27,2022-05-11,13640
768,13229,Southport Ave & Belmont Ave,41.93947775040509,-87.6637476682663,2020-12-27,2022-05-11,13921
769,13109,Broadway & Berwyn Ave,41.978353,-87.659753,2020-12-27,2022-05-11,11179
770,15578,Broadway & Ridge Ave,41.9840446107,-87.6602738295,2020-12-27,2022-05-11,9425
771,657,Wood St & Augusta Blvd,41.89918716666666,-87.67222566666666,2020-12-27,2022-05-11,7866
772,17660,California Ave & Cortez St,41.900363,-87.696704,2020-12-27,2022-05-11,7481
773,TA1309000018,Ravenswood Ave & Berteau Ave,41.957921,-87.673567,2020-12-27,2022-05-11,5265
774,KA1504000103,Western Ave & Walton St,41.89841768945,-87.6865960164,2020-12-27,2022-05-11,9898
775,644,Western Ave & Fillmore St,41.868660166666665,-87.68627183333334,2020-12-27,2022-05-11,6805
776,KA1504000106,Kedzie Ave & Lake St,41.88460483333333,-87.70632916666666,2020-12-27,2022-05-11,1083
777,TA1309000007,Franklin St & Monroe St,41.880317,-87.635185,2020-12-27,2022-05-11,18245
778,TA1309000001,Halsted St & Maxwell St,41.864883,-87.647071,2020-12-27,2022-05-11,10661
779,13389,Clarendon Ave & Junior Ter,41.961004,-87.649603,2020-12-27,2022-05-11,16107
780,13253,Lincoln Ave & Waveland Ave,41.948789,-87.67527749999999,2020-12-27,2022-05-11,6845
781,20252.0,W Oakdale Ave & N Broadway,41.94,-87.64,2020-12-27,2022-05-11,2742
782,13292,Kedzie Ave & Palmer Ct,41.921525,-87.707322,2020-12-27,2022-05-11,6252
783,KA1504000159,Sheridan Rd & Greenleaf Ave,42.01058656284,-87.6624120948,2020-12-27,2022-05-11,3112
784,20110,Eberhart Ave & 91st St,41.72926714170562,-87.61182948946953,2020-12-27,2022-05-11,252
785,595,Wabash Ave & 87th St,41.736646,-87.622634,2020-12-27,2022-05-11,511
786,KA1504000164,Keystone Ave & Montrose Ave,41.961108,-87.72897,2020-12-27,2022-05-11,1202
787,15491,63rd St Beach,41.78101637196,-87.5761197602,2020-12-27,2022-05-11,2478
788,13245,Claremont Ave & Hirsch St,41.907704333333335,-87.685846,2020-12-27,2022-05-11,3553
789,15546,Calumet Ave & 21st St,41.85418424947,-87.6191537415,2020-12-27,2022-05-11,5096
790,TA1307000128,Dearborn Pkwy & Delaware Pl,41.89898066666667,-87.629923,2020-12-27,2022-05-11,30451
791,TA1309000037,Kimbark Ave & 53rd St,41.799568,-87.594747,2020-12-27,2022-05-11,17725
792,13258,California Ave & North Ave,41.91044,-87.6972,2020-12-27,2022-05-11,6901
793,RP-004,Oakley Ave & Touhy Ave,42.012342,-87.688243,2020-12-27,2022-05-11,836
794,13156,Aberdeen St & Monroe St,41.880419,-87.655519,2020-12-27,2022-05-11,14625
795,TA1305000022,Orleans St & Merchandise Mart Plaza,41.888243,-87.63639,2020-12-27,2022-05-11,24712
796,TA1307000005,Indiana Ave & 26th St,41.845687,-87.622481,2020-12-27,2022-05-11,3900
797,13263,Columbus Dr & Randolph St,41.884728,-87.619521,2020-12-27,2022-05-11,30698
798,20116,Dauphin Ave & 87th St,41.73655902282214,-87.60125756263733,2020-12-04,2022-05-11,340
799,15640,Avers Ave & Belmont Ave,41.939408,-87.723574,2020-12-27,2022-05-11,2759
800,TA1309000049,Lake Shore Dr & Belmont Ave,41.940775,-87.639192,2020-12-27,2022-05-11,28300
801,TA1309000039,Lake Shore Dr & Diversey Pkwy,41.932588,-87.636427,2020-12-27,2022-05-11,27985
802,20207,Major Taylor Trail & 115th St,41.684932,-87.645289,2020-12-27,2022-05-11,348
803,TA1308000002,Greenwood Ave & 47th St,41.8097895,-87.5993605,2020-12-27,2022-05-11,2767
804,13277,Broadway & Belmont Ave,41.940106,-87.645451,2020-12-27,2022-05-11,22123
805,13241,Western Ave & Division St,41.90287966666666,-87.687364,2020-12-27,2022-05-11,7787
806,TA1305000010,Michigan Ave & Ida B Wells Dr,41.876243,-87.624426,2020-12-27,2022-05-11,10252
807,KA1504000135,Wells St & Elm St,41.903222,-87.634324,2020-12-27,2022-05-11,47099
808,637,Wood St & Chicago Ave,41.8955955,-87.67214266666667,2020-12-27,2022-05-11,9718
809,636,Orleans St & Hubbard St,41.890028,-87.636618,2020-12-27,2022-05-11,13649
810,523,Eastlake Ter & Rogers Ave,42.0208872805206,-87.66505792737007,2020-12-27,2022-05-11,3569
811,18016,Bernard St & Elston Ave,41.949923,-87.713949,2020-12-27,2022-05-11,2031
812,13303,Clark St & Chicago Ave,41.89675,-87.63089,2020-12-27,2022-05-11,19204
813,KA1504000082,Kedzie Ave & Harrison St,41.87359967462,-87.7048707493,2020-12-18,2022-05-11,284
814,KA1503000047,Perry Ave & 69th St,41.76929308995,-87.6281959291,2020-12-27,2022-05-11,321
815,KA1503000033,Eberhart Ave & 61st St,41.78414169317,-87.6133078304,2020-12-27,2022-05-11,763
816,583,Stony Island Ave & 82nd St,41.746537333333336,-87.58601383333334,2020-12-27,2022-05-11,372
817,KA1504000148,Clark St & Elmdale Ave,41.99086044812557,-87.66972362995148,2020-12-27,2022-05-11,4542
818,527,Western Ave & Howard St,42.018901,-87.690048,2020-12-27,2022-05-11,1262
819,13133,Damen Ave & Cortland St,41.915983,-87.677335,2020-12-27,2022-05-11,16834
820,TA1309000011,Ellis Ave & 58th St,41.788746,-87.601334,2020-12-27,2022-05-11,11271
821,520,Greenview Ave & Jarvis Ave,42.015962,-87.66857,2020-12-27,2022-05-11,4374
822,15692,California Ave & 26th St,41.844045,-87.69528083333333,2020-12-27,2022-05-11,483
823,15645,Richmond St & Diversey Ave,41.93190196886,-87.7011951301,2020-12-27,2022-05-11,3112
824,TA1309000055,Emerald Ave & 31st St,41.838198,-87.645143,2020-12-27,2022-05-11,7419
825,16940,Ashland Ave & 50th St,41.803023,-87.664699,2020-12-27,2022-05-11,217
826,20238,Greenwood Ave & 97th St,41.71867683333333,-87.596976,2020-12-27,2022-05-11,362
827,20120,Stewart Ave & 83rd St,41.74364766666667,-87.63410516666667,2020-12-27,2022-05-11,267
828,TA1307000163,Clifton Ave & Armitage Ave,41.918216,-87.656936,2020-12-27,2022-05-11,15344
829,13071,Southport Ave & Roscoe St,41.94371833333334,-87.6640005,2020-12-27,2022-05-11,25870
830,13213,State St & 29th St,41.841707,-87.626938,2020-12-27,2022-05-11,1209
831,545,Kostner Ave & Adams St,41.87793766666667,-87.73608183333333,2020-12-27,2022-05-11,227
832,530,Laramie Ave & Kinzie St,41.887800166666665,-87.75558466666666,2020-12-03,2022-05-11,294
833,20205,Western Ave & 111th St,41.69116533333333,-87.68132133333333,2020-12-03,2022-05-11,380
834,16903,Cicero Ave & Lake St,41.886860166666665,-87.7453975,2020-12-27,2022-05-11,366
835,20109,Vernon Ave & 107th St,41.700205,-87.61233983333334,2020-12-05,2022-05-11,165
836,TA1307000161,Halsted St & 37th St,41.827081666666665,-87.64577966666667,2020-12-02,2022-05-11,870
838,20236,Stony Island Ave & 90th St,41.731384,-87.58577383333333,2020-12-27,2022-05-11,304
839,560,Marshfield Ave & 59th St,41.78677866666666,-87.66610683333333,2020-12-17,2022-05-11,111
840,15682,Kedzie Ave & Roosevelt Rd,41.8665325,-87.70649333333333,2020-12-27,2022-05-11,413
841,575,Cottage Grove Ave & 78th St,41.753162,-87.60497466666666,2020-12-27,2022-05-11,262
842,535,Pulaski Rd & Congress Pkwy,41.874315333333335,-87.7259545,2020-12-27,2022-05-11,295
843,KA1503000013,Princeton Ave & Garfield Blvd,41.79496433333333,-87.63312533333334,2020-12-27,2022-05-11,520
844,KA1503000018,Jeffery Blvd & 71st St,41.7666065,-87.576461,2020-12-27,2022-05-11,535
845,SL-011,Wells St & Polk St,41.872596,-87.633502,2020-12-27,2022-05-11,17111
846,TA1308000050,Wells St & Concord Ln,41.912133,-87.634656,2020-12-27,2022-05-11,54200
847,TA1307000131,Wabash Ave & Wacker Pl,41.886875,-87.62603,2020-12-27,2022-05-11,20313
848,13296,Ashland Ave & Wrightwood Ave,41.92883,-87.668507,2020-12-27,2022-05-11,9326
849,13073,Ashland Ave & Lake St,41.88592,-87.66717,2020-12-27,2022-05-11,7001
850,TA1308000021,Winthrop Ave & Lawrence Ave,41.968812,-87.657659,2020-12-27,2022-05-11,8757
851,13146,Clark St & Armitage Ave,41.918306,-87.636282,2020-12-27,2022-05-11,41209
852,TA1305000029,State St & Randolph St,41.8847302006,-87.6277335692,2020-12-27,2022-05-11,26161
853,TA1305000014,Clark St & Wrightwood Ave,41.929546,-87.643118,2020-12-01,2022-05-11,32408
854,13323,Broadway & Sheridan Rd,41.952833,-87.649993,2020-12-27,2022-05-11,18959
855,TA1305000005,Dearborn St & Adams St,41.879356,-87.629791,2020-12-27,2022-05-11,12407
856,599,Valli Produce - Evanston Plaza,42.039742,-87.699413,2020-12-27,2022-05-11,1561
857,13269,Ashland Ave & Wellington Ave,41.936083,-87.669807,2020-12-27,2022-05-11,8301
858,TA1309000029,Leavitt St & Armitage Ave,41.917748333333336,-87.682514,2020-12-27,2022-05-11,7639
859,13008,Millennium Park,41.8810317,-87.62408432,2020-12-27,2022-05-11,51508
860,576,Greenwood Ave & 79th St,41.751294,-87.597552,2020-12-01,2022-05-11,223
861,TA1309000063,Lake Park Ave & 56th St,41.793242,-87.587782,2020-12-27,2022-05-11,9206
862,15691,Albany Ave & 26th St,41.844475,-87.702013,2020-12-03,2022-05-11,400
863,KA1503000053,MLK Jr Dr & 63rd St,41.78008063659,-87.6159428567,2020-12-27,2022-05-11,565
864,518,Conservatory Dr & Lake St,41.885502,-87.716866,2020-12-27,2022-05-11,1329
865,13206,Loomis St & Jackson Blvd,41.877945,-87.662007,2020-12-27,2022-05-11,8988
866,TA1305000037,Paulina Ave & North Ave,41.910337,-87.670072,2020-12-27,2022-05-11,12929
867,KA1503000038,Shields Ave & 31st St,41.8383775,-87.635325,2020-12-27,2022-05-11,4241
868,13290,Noble St & Milwaukee Ave,41.900671,-87.662588,2020-12-27,2022-05-11,12707
869,16943,Ashland Ave & Garfield Blvd,41.79291633333333,-87.66445816666666,2020-12-04,2022-05-11,140
870,15631,Troy St & Elston Ave,41.945225666666666,-87.70660483333333,2020-12-27,2022-05-11,3069
871,20231,East End Ave & 87th St,41.73681521440671,-87.58280128240585,2020-12-27,2022-05-11,227
872,543,Laramie Ave & Gladys Ave,41.875806,-87.755285,2020-12-27,2022-05-11,126
873,653,Cornell Dr & Hayes Dr,41.78056766666667,-87.5852475,2020-12-27,2022-05-11,677
874,KA1504000161,St. Louis Ave & Balmoral Ave,41.98039423475,-87.7161149615,2020-12-27,2022-05-11,1222
875,TA1308000038,Cottage Grove Ave & Oakwood Blvd,41.822985,-87.6071,2020-12-27,2022-05-11,2251
876,15470,Calumet Ave & 51st St,41.80231966666667,-87.618063,2020-12-27,2022-05-11,1449
877,13091,Western Ave & 21st St,41.854109,-87.685838,2020-12-27,2022-05-11,2636
878,15644,Central Park Ave & Elbridge Ave,41.935375,-87.716785,2020-12-27,2022-05-11,3141
879,514,Ridge Blvd & Howard St,42.019276,-87.68452,2020-12-27,2022-05-11,1096
880,605,University Library (NU),42.052939,-87.673447,2020-12-27,2022-05-11,4169
881,20233,Halsted St & 78th St,41.75248701249013,-87.6439021574879,2020-12-27,2022-05-11,191
882,KA1503000054,Cottage Grove Ave & 63rd St,41.78060094521422,-87.60583609342575,2020-12-27,2022-05-11,1237
883,TA1307000119,Clarendon Ave & Leland Ave,41.967968,-87.650001,2020-12-27,2022-05-11,9418
884,20227,Bradley Park,41.71788566666667,-87.5646075,2020-12-27,2022-05-11,147
885,13341,Canal St & Madison St,41.882171,-87.64001116666667,2020-12-27,2022-05-11,18339
886,TA1308000001,Theater on the Lake,41.926277,-87.630834,2020-12-27,2022-05-11,44757
887,TA1309000061,Halsted St & Wrightwood Ave,41.929198166666666,-87.649121,2020-12-27,2022-05-11,25722
888,18069,Cherry Ave & Blackhawk St,41.90723883333333,-87.65562283333334,2020-12-27,2022-05-11,2409
889,KA1504000093,Rockwell St & Eastwood Ave,41.96590013976,-87.6936384935,2020-12-27,2022-05-11,4238
890,15535,Desplaines St & Randolph St,41.884548,-87.64443633333333,2020-12-27,2022-05-11,16557
891,TA1305000039,Marshfield Ave & Cortland St,41.916017,-87.668879,2020-12-27,2022-05-11,11455
892,TA1307000111,Franklin St & Lake St,41.88581066666666,-87.63544733333333,2020-12-27,2022-05-11,21486
893,620,Orleans St & Chestnut St (NEXT Apts),41.898203,-87.637536,2020-12-27,2022-05-11,14838
894,TA1308000029,Stetson Ave & South Water St,41.886835,-87.62232,2020-12-27,2022-05-11,17572
895,KA1503000020,South Shore Dr & 74th St,41.76218896038,-87.55927465,2020-12-27,2022-05-11,852
896,534,Karlov Ave & Madison St,41.88082716666667,-87.7278765,2020-12-27,2022-05-11,172
897,KA1503000075,DuSable Museum,41.79156801058,-87.6078521774,2020-12-27,2022-05-11,1222
898,596,Benson Ave & Church St,42.048214,-87.683485,2020-12-27,2022-05-11,7807
900,KA1504000167,Kedzie Ave & Bryn Mawr Ave,41.98239708485,-87.7089225202,2020-12-27,2022-05-11,1370
901,18062,Aberdeen St & Randolph St,41.884145333333336,-87.65426183333334,2020-12-27,2022-05-11,13368
902,15623,Campbell Ave & Montrose Ave,41.96152593287,-87.6911650414,2020-12-27,2022-05-11,4151
903,623,Michigan Ave & 8th St,41.872383,-87.62393466666667,2020-12-27,2022-05-11,24344
904,KA1503000044,Rush St & Hubbard St,41.890173,-87.626185,2020-12-27,2022-05-11,13138
905,15634,Western Ave & Roscoe St,41.943034,-87.687288,2020-12-27,2022-05-11,3576
906,20221,Torrence Ave & 106th St,41.70280085022591,-87.55972623825073,2020-12-25,2022-05-11,121
907,KA1504000168,Western Ave & 28th St,41.84151770807,-87.6851314409,2020-12-27,2022-05-11,255
908,15654,Spaulding Ave & Division St,41.902706,-87.709219,2020-12-02,2022-05-11,2998
909,20222,Burnham Greenway & 105th St,41.70464666666667,-87.52839283333333,2020-12-01,2022-05-11,298
910,13053,Green St & Randolph St,41.88360616666667,-87.64850983333334,2020-12-27,2022-05-11,24276
911,15534,Field Blvd & South Water St,41.88623333333334,-87.6177385,2020-12-27,2022-05-11,17590
912,16950,Ashland Ave & 66th St,41.774074,-87.663815,2020-12-27,2022-05-11,150
913,651,Michigan Ave & 71st St,41.765286,-87.621748,2020-12-07,2022-05-11,166
914,536,Kostner Ave & Lake St,41.885928,-87.73541,2020-12-04,2022-05-11,142
915,Hubbard Bike-checking (LBS-WH-TEST),Base - 2132 W Hubbard Warehouse,41.88995451607409,-87.68065094947815,2020-12-27,2022-05-11,849
916,KA1706005015,Kildare Ave & Montrose Ave,41.96101466666666,-87.73564083333333,2020-12-27,2022-05-11,932
917,18022,Archer (Damen) Ave & 37th St,41.826712,-87.683144,2020-12-27,2022-05-11,736
918,TA1309000053,Cottage Grove Ave & 47th St,41.809855,-87.606755,2020-12-27,2022-05-11,1665
919,KA1706005007,Delano Ct & Roosevelt Rd,41.867491,-87.63219,2020-12-27,2022-05-11,9438
920,15550,Canal St & Taylor St,41.870257,-87.639474,2020-12-27,2022-05-11,8022
921,15632,Talman Ave & Addison St,41.94663666666667,-87.6945865,2020-12-27,2022-05-11,4000
922,13056,Canal St & Monroe St,41.88169,-87.63953,2020-12-27,2022-05-11,12349
923,15689,California Ave & 23rd Pl,41.84910969176,-87.6951398068,2020-12-27,2022-05-11,1141
924,13247,Ashland Ave & Chicago Ave,41.895959,-87.6677955,2020-12-01,2022-05-11,12155
925,TA1306000008,Larrabee St & North Ave,41.91021,-87.6435,2020-12-27,2022-05-11,10333
926,KA1504000141,Pulaski Rd & Eddy St (Temp),41.946259,-87.73109133333334,2020-12-27,2022-05-11,776
927,KA1503000068,Leavitt St & Archer Ave,41.828792,-87.680604,2020-12-27,2022-05-11,1247
928,KA1503000052,Ellis Ave & 53rd St,41.79933626261,-87.6009581145,2020-12-27,2022-05-11,8672
929,585,Cottage Grove Ave & 83rd St,41.743441,-87.604836,2020-12-27,2022-05-11,336
930,15667,Western Ave & Monroe St,41.8797877089,-87.686112808,2020-12-27,2022-05-11,3026
931,KA1504000156,Clark St & Schreiber Ave,41.999251,-87.671377,2020-12-27,2022-05-11,3988
932,15575,Broadway & Thorndale Ave,41.98972483333333,-87.660105,2020-12-27,2022-05-11,9285
933,15446,Racine Ave & 35th St,41.830696,-87.655975,2020-12-02,2022-05-11,1550
934,540,Laramie Ave & Madison St,41.880207,-87.755337,2020-12-27,2022-05-11,267
935,20226,Oglesby Ave & 100th St,41.71339748442245,-87.56584167480469,2020-12-27,2022-05-11,167
936,E007,Central St & Girard Ave,42.064313,-87.686152,2020-12-27,2022-05-11,1488
937,KA1503000045,Stony Island Ave & 71st St,41.76646133333333,-87.58651733333333,2020-12-27,2022-05-11,589
938,E002,Chicago Ave & Washington St,42.032562,-87.679101,2020-12-27,2022-05-11,5002
939,KA1503000003,Cottage Grove Ave & 71st St,41.76571903697,-87.604959713,2020-12-27,2022-05-11,265
940,13307,Laflin St & Cullerton St,41.85491457576575,-87.66355991363525,2020-12-27,2022-05-11,3481
941,632,Clark St & Newport St,41.94454,-87.654678,2020-12-27,2022-05-11,29620
942,15442,Ashland Ave & Archer Ave,41.83920868403,-87.6656098589,2020-12-27,2022-05-11,1502
943,549,Marshfield Ave & 44th St,41.813996,-87.666589,2020-12-27,2022-05-11,567
944,13045,Dearborn St & Erie St,41.893992,-87.629318,2020-12-27,2022-05-11,40733
945,577,Stony Island Ave & South Chicago Ave,41.751162,-87.5853295,2020-12-27,2022-05-11,242
946,TA1307000001,Greenview Ave & Fullerton Ave,41.92533,-87.6658,2020-12-27,2022-05-11,17182
947,13379,Clarendon Ave & Gordon Ter,41.95846866666667,-87.64958366666667,2020-12-27,2022-05-11,17578
948,638,Clinton St & Jackson Blvd,41.878116,-87.639838,2020-12-01,2022-05-11,19663
949,15642,California Ave & Fletcher St,41.93847466666666,-87.69796966666667,2020-12-27,2022-05-11,4469
950,15539,Desplaines St & Jackson Blvd,41.87817,-87.64415933333333,2020-12-27,2022-05-11,16320
951,TA1308000036,Indiana Ave & 31st St,41.838842,-87.621857,2020-12-27,2022-05-11,5156
952,15530,Rush St & Superior St,41.89573666666666,-87.62601183333334,2020-12-27,2022-05-11,25878
953,TA1305000025,Franklin St & Jackson Blvd,41.877707,-87.635321,2020-12-27,2022-05-11,22934
954,TA1309000002,Michigan Ave & Jackson Blvd,41.87785,-87.62408,2020-12-27,2022-05-11,15407
955,KA1504000142,Drake Ave & Addison St,41.947326,-87.717582,2020-12-01,2022-05-11,1417
956,TA1308000026,Wentworth Ave & 24th St (Temp),41.85008369347577,-87.6321405172348,2020-12-27,2022-05-11,2585
957,16937,Ashland Ave & McDowell Ave,41.80887,-87.66454,2020-12-27,2022-05-11,454
958,E008,Chicago Ave & Sheridan Rd,42.050491,-87.677821,2020-12-27,2022-05-11,6221
959,15449,State St & Pershing Rd,41.823015,-87.626568,2020-12-27,2022-05-11,433
960,20229,Baltimore Ave & 87th St,41.737336,-87.548515,2020-12-27,2022-05-11,268
961,16913,Cicero Ave & Quincy St,41.877613,-87.745405,2020-12-27,2022-05-11,145
962,15622,California Ave & Montrose Ave,41.961068,-87.695439,2020-12-27,2022-05-11,4159
963,KA1504000151,Clark St & Bryn Mawr Ave,41.983593,-87.669154,2020-12-27,2022-05-11,9729
964,KA1504000113,Sacramento Blvd & Franklin Blvd,41.890518166666666,-87.70262233333334,2020-12-27,2022-05-11,511
965,15646,California Ave & Altgeld St,41.92669,-87.697668,2020-12-27,2022-05-11,5706
966,TA1308000014,Normal Ave & Archer Ave,41.849527,-87.640591,2020-12-27,2022-05-11,1719
967,TA1309000021,Paulina St & Montrose Ave,41.961507,-87.671387,2020-12-27,2022-05-11,4693
968,TA1308000007,MLK Jr Dr & 47th St,41.809851,-87.616279,2020-12-27,2022-05-11,1126
969,13345,Calumet Ave & 35th St,41.831379,-87.618034,2020-12-27,2022-05-11,2756
970,546,Damen Ave & Pershing Rd,41.823192,-87.676597,2020-12-27,2022-05-11,806
971,13331,May St & Cullerton St,41.8552125,-87.654172,2020-12-27,2022-05-11,2990
972,TA1308000013,Halsted St & Archer Ave,41.84716816666667,-87.64688483333333,2020-12-27,2022-05-11,2578
973,16806,Bosworth Ave & Howard St,42.019537,-87.669563,2020-12-27,2022-05-11,1298
974,559,Racine Ave & Garfield Blvd,41.794228,-87.655073,2020-12-27,2022-05-11,222
975,594,Western Blvd & 48th Pl,41.805660333333336,-87.6833325,2020-12-27,2022-05-11,539
976,554,Damen Ave & 51st St,41.80089083333333,-87.67462283333333,2020-12-27,2022-05-11,139
977,KA1504000134,Ritchie Ct & Banks St,41.906866,-87.626217,2020-12-27,2022-05-11,18559
978,15666,California Ave & Lake St,41.88445395657,-87.6962981368,2020-12-27,2022-05-11,1301
979,KA1504000109,Washtenaw Ave & Ogden Ave,41.86193049278259,-87.69345045089722,2020-12-27,2022-05-11,1642
980,TA1309000003,Western Ave & 24th St,41.84847,-87.685109,2020-12-27,2022-05-11,1355
981,661,Evanston Civic Center,42.057044,-87.686554,2020-12-27,2022-05-11,2086
982,TA1309000025,Halsted St & Roscoe St,41.94367,-87.64895,2020-12-27,2022-05-11,29469
983,TA1307000158,Damen Ave & Leland Ave,41.96703616666667,-87.67908333333334,2020-12-27,2022-05-11,7719
984,15615,Christiana Ave & Lawrence Ave,41.96836366666667,-87.71175516666666,2020-12-27,2022-05-11,2198
985,643,Smith Park,41.892048,-87.689397,2020-12-27,2022-05-11,3196
986,TA1309000032,Elston Ave & Wabansia Ave,41.912919,-87.664169,2020-12-27,2022-05-11,4303
987,KA1504000091,Hoyne Ave & 47th St,41.808227,-87.67718,2020-12-27,2022-05-11,419
988,13191,Sedgwick St & Webster Ave,41.922173,-87.63900316666667,2020-12-27,2022-05-11,20557
989,20105,Halsted St & 96th St,41.71971218361882,-87.6430195569992,2020-12-18,2022-05-11,278
990,16010,Keystone Ave & Fullerton Ave,41.92459,-87.72785,2020-12-27,2022-05-11,1255
991,TA1305000004,McCormick Place,41.851375,-87.618834,2020-12-01,2022-05-11,5616
992,600,Dodge Ave & Church St,42.048308,-87.698224,2020-12-27,2022-05-11,1143
993,646,State St & 54th St,41.79659766666666,-87.6259235,2020-12-27,2022-05-11,341
994,E011,Dodge Ave & Main St,42.03463185161588,-87.69918769598006,2020-12-27,2022-05-11,600
995,KA150400009X,Kimball Ave & Belmont Ave,41.9394285,-87.711571,2020-12-27,2022-05-11,3140
996,KA1504000097,Drake Ave & Montrose Ave,41.96116683333333,-87.71665716666666,2020-12-02,2022-05-11,1753
997,13285,Wood St & Taylor St (Temp),41.869265,-87.67373,2020-12-27,2022-05-11,9356
998,TA1308000006,Damen Ave & Grand Ave,41.891264346481535,-87.676842212677,2020-12-27,2022-05-11,7546
999,KA1504000155,2112 W Peterson Ave,41.991178,-87.683593,2020-12-27,2022-05-11,1369
1000,574,Vernon Ave & 79th St,41.75094,-87.61379,2020-12-09,2022-05-11,281
1001,KA1504000130,Maplewood Ave & Peterson Ave,41.9902855,-87.69347616666667,2020-12-27,2022-05-11,879
1002,LF-005,Lake Shore Dr & North Blvd,41.91175716666667,-87.6268565,2020-12-27,2022-05-11,56706
1003,13300,Lake Shore Dr & Monroe St,41.880958,-87.616743,2020-12-27,2022-05-11,57210
1004,KA1504000152,Lakefront Trail & Bryn Mawr Ave,41.98403669612,-87.6523104689,2020-12-27,2022-02-21,17547
1005,13193,Larrabee St & Webster Ave,41.921822,-87.64414,2020-12-27,2022-05-11,34098
1006,13029,Field Museum,41.865312,-87.617867,2020-12-27,2022-05-11,10791
1007,KA1503000059,Lake Park Ave & 53rd St,41.79949429373,-87.5864498959,2020-12-27,2022-05-11,9010
1008,20242,Houston Ave & 92nd St,41.72820421535798,-87.54970014095306,2020-12-19,2022-05-11,201
1009,KA1503000028,Jeffery Blvd & 76th St,41.75714033333333,-87.57588283333334,2020-12-27,2022-05-11,262
1010,TA1308000045,Wallace St & 35th St,41.830629,-87.64129,2020-12-27,2022-05-11,3231
1011,TA1309000030,Southport Ave & Clybourn Ave,41.920771,-87.663712,2020-12-27,2022-05-11,13493
1012,KA1503000065,Woodlawn Ave & Lake Park Ave,41.81409271048,-87.5970051479,2020-12-27,2022-05-11,2266
1013,KA1504000086,Kedzie Ave & 24th St,41.84819094491,-87.7054137458,2020-12-04,2022-05-11,258
1014,20244,Halsted St & 73rd St,41.76160543804394,-87.64416097666071,2020-12-27,2022-05-11,173
1015,KA1503000025,Wentworth Ave & 63rd St,41.78008,-87.629746,2020-12-27,2022-05-11,559
1016,517,Clark St & Jarvis Ave,42.015963,-87.675005,2020-12-27,2022-05-11,1616
1017,TA1308000035,Lake Park Ave & 47th St,41.809381,-87.59187516666667,2020-12-27,2022-05-11,3617
1018,13061,Ashland Ave & Division St,41.9034425,-87.66783083333334,2020-12-27,2022-05-11,32840
1019,TA1309000041,Sheridan Rd & Lawrence Ave,41.96953916666666,-87.65473666666666,2020-12-27,2022-05-11,8619
1020,13143,Damen Ave & Melrose Ave,41.9406,-87.6785,2020-12-27,2022-05-11,4784
1021,KA1504000175,Glenwood Ave & Morse Ave,42.007972,-87.665502,2020-12-27,2022-05-11,5732
1022,TA1307000149,Ravenswood Ave & Irving Park Rd,41.95469,-87.67393,2020-12-27,2022-05-11,7424
1023,RN-,Franklin St & Illinois St,41.89102331025185,-87.63547986745834,2020-12-27,2022-05-11,22697
1024,537,Kenton Ave & Madison St,41.880708,-87.741018,2020-12-02,2022-05-11,153
1025,13216,State St & 33rd St,41.834734,-87.625813,2020-12-01,2022-05-11,13286
1026,TA1306000002,Morgan Ave & 14th Pl,41.862378,-87.651062,2020-12-27,2022-05-11,6221
1027,KA1504000090,St. Louis Ave & Fullerton Ave,41.92481559681187,-87.71449506282805,2020-12-27,2022-05-11,4011
1028,13256,California Ave & Division St,41.903029,-87.697474,2020-12-27,2022-05-11,5697
1029,TA1307000160,Prairie Ave & Garfield Blvd,41.794853,-87.618691,2020-12-27,2022-05-11,1885
1030,WL-008,Clinton St & Roosevelt Rd,41.867118833333336,-87.64112333333334,2020-12-27,2022-05-11,10692
1031,13288,Damen Ave & Charleston St,41.920082,-87.677855,2020-12-27,2022-05-11,8606
1032,KA1504000147,Winchester (Ravenswood) Ave & Balmoral Ave,41.979762,-87.67753,2020-12-27,2022-05-11,2658
1033,KA1503000021,Stony Island Ave & 64th St,41.778881,-87.586647,2020-12-27,2022-05-11,690
1034,KA1503000023,Stony Island Ave & 67th St,41.77345849948,-87.5853397391,2020-12-27,2022-05-11,544
1035,KA1503000049,Rainbow Beach,41.75787144829,-87.54938625,2020-12-27,2022-05-11,396
1036,13196,Carpenter St & Huron St,41.894556,-87.653449,2020-12-27,2022-05-11,14714
1037,15445,Wentworth Ave & 33rd St,41.83452988563,-87.6318229814,2020-12-27,2022-05-11,3598
1038,13221,Wood St & Milwaukee Ave,41.907655,-87.672552,2020-12-27,2022-05-11,20931
1039,KA17018068,Leavitt St & Belmont Ave,41.939354,-87.683282,2020-12-27,2022-05-11,5734
1040,15621,Albany Ave & Montrose Ave,41.961041,-87.705866,2020-12-27,2022-05-11,2787
1041,13398,Blackstone Ave & Hyde Park Blvd,41.8025065,-87.590344,2020-12-27,2022-05-11,6727
1042,TA1307000107,Sheridan Rd & Montrose Ave,41.96167,-87.65464,2020-12-27,2022-05-11,20061
1043,13128,Clark St & North Ave,41.911974,-87.631942,2020-12-27,2022-05-11,17402
1044,TA1307000048,Fort Dearborn Dr & 31st St,41.838556,-87.608218,2020-12-27,2022-05-11,13443
1045,TA1309000010,Wabash Ave & 9th St,41.870769,-87.625734,2020-12-27,2022-05-11,22782
1046,13084,California Ave & Milwaukee Ave,41.922695,-87.697153,2020-12-27,2022-05-11,15766
1047,515,Paulina St & Howard St,42.019159,-87.673573,2020-12-27,2022-05-11,3154
1048,TA1306000009,Larrabee St & Kingsbury St,41.897764,-87.642884,2020-12-27,2022-05-11,22499
1049,SL-006,Wells St & 19th St,41.856802,-87.633879,2020-12-27,2022-05-11,3419
1050,KA1504000102,Fairfield Ave & Roosevelt Rd,41.866624,-87.694521,2020-12-27,2022-05-11,904
1051,TA1305000017,Halsted St & Roosevelt Rd,41.867324,-87.648625,2020-12-27,2022-05-11,6682
1052,KA1504000078,Lincoln Ave & Winona St,41.97491129677,-87.6925025594,2020-12-27,2022-05-11,3435
1054,KA1504000110,Millard Ave & 26th St,41.844557,-87.716072,2020-12-27,2022-05-11,447
1055,16991,Milwaukee Ave & Cuyler Ave,41.95450933333333,-87.7496545,2020-12-27,2022-05-11,1150
1056,RP-005,Western Ave & Lunt Ave,42.0085943972,-87.6904922389,2020-12-27,2022-05-11,1981
1057,16994,Kilbourn Ave & Milwaukee Ave,41.948818,-87.74002,2020-12-27,2022-05-11,514
1058,E014,Lincolnwood Dr & Central St,42.0647905,-87.7153365,2020-12-27,2022-05-11,955
1059,KA1503000007,Cornell Ave & Hyde Park Blvd,41.802406,-87.586924,2020-12-27,2022-05-11,11118
1060,TA1308000009,Shore Dr & 55th St,41.79523283333333,-87.58084266666667,2020-12-27,2022-05-11,17634
1061,TA1309000026,Lincoln Ave & Belle Plaine Ave,41.95600355078549,-87.68016144633293,2020-12-27,2022-05-11,8096
1062,13257,Campbell Ave & North Ave,41.910567666666665,-87.6895445,2020-12-27,2022-05-11,8590
1063,15686,Kedzie Ave & 21st St,41.853527666666665,-87.705035,2020-12-27,2022-05-11,484
1064,13021,Clinton St & Lake St,41.885637,-87.641823,2020-12-27,2022-05-11,23874
1065,KA1503000001,Shields Ave & 43rd St,41.816208,-87.634819,2020-12-17,2022-05-11,177
1066,13235,Southport Ave & Waveland Ave,41.948131333333336,-87.66388066666667,2020-12-27,2022-05-11,24349
1067,20246.0,N Green St & W Lake St,41.89,-87.65,2020-12-27,2022-05-11,4076
1068,TA1306000026,Racine Ave & Fullerton Ave,41.92556258,-87.65840426,2020-12-27,2022-05-11,20722
1069,KA1503000019,Stony Island Ave & 75th St,41.7586696704,-87.586882871,2020-12-27,2022-05-11,552
1070,13434,Ashland Ave & Grand Ave,41.891072,-87.666611,2020-12-27,2022-05-11,8642
1071,TA1307000139,MLK Jr Dr & 29th St,41.842052,-87.617,2020-12-27,2022-05-11,10153
1072,13194,Ogden Ave & Race Ave,41.89185283333333,-87.65887816666667,2020-12-27,2022-05-11,14520
1073,20104,State St & 95th St,41.721849,-87.622854,2020-12-01,2022-05-11,859
1074,KA1503000031,Cottage Grove Ave & 67th St,41.77372,-87.605634,2020-12-01,2022-05-11,400
1075,567,May St & 69th St,41.768938,-87.652934,2020-12-01,2022-05-11,317
1076,13108,Broadway & Argyle St,41.97369433333333,-87.65963816666667,2020-12-27,2022-05-11,11980
1077,13430,LaSalle St & Illinois St,41.890762,-87.631697,2020-12-27,2022-05-11,31909
1078,570,Evans Ave & 75th St,41.75849,-87.60641,2020-12-27,2022-05-11,223
1079,650,Eggleston Ave & 69th St,41.768898,-87.635876,2020-12-27,2022-05-11,241
1080,KA1503000011,Halsted St & 56th St,41.79292964599,-87.6449900565,2020-12-09,2022-05-11,136
1081,553,Elizabeth St & 47th St,41.80842033333333,-87.656535,2020-12-20,2022-05-11,114
1082,KA1503000030,Jeffery Blvd & 67th St,41.77351066666667,-87.57741216666666,2020-12-27,2022-05-11,967
1083,18003,Fairbanks St & Superior St,41.895748,-87.620104,2020-12-27,2022-05-11,12814
1084,KP1705001026,LaSalle Dr & Huron St,41.8949505,-87.63214566666667,2020-12-27,2022-05-11,19800
1085,KA1504000146,Clark St & Berwyn Ave,41.977996,-87.668047,2020-12-27,2022-05-11,13834
1086,13016,St. Clair St & Erie St,41.89434513742426,-87.62279838323593,2020-12-27,2022-05-11,37751
1087,KA1504000079,Larrabee St & Division St,41.90348607004,-87.6433534936,2020-12-27,2022-05-11,16047
1088,13001,Michigan Ave & Washington St,41.8839840647265,-87.6246839761734,2020-12-27,2022-05-11,32886
1089,TA1306000013,New St & Illinois St,41.89084704062381,-87.61861681938171,2020-12-27,2022-05-11,33509
1090,TA1306000025,Racine Ave & Congress Pkwy,41.87464,-87.65703,2020-12-27,2022-05-11,7628
1091,13034,Michigan Ave & Pearson St,41.89684183333333,-87.62295633333333,2020-12-27,2022-05-11,16923
1092,13427,Cityfront Plaza Dr & Pioneer Ct,41.890573,-87.622072,2020-12-27,2022-05-11,18609
1093,TA1307000115,Clybourn Ave & Division St,41.90458666666667,-87.64060466666666,2020-12-27,2022-05-11,9272
1094,KA1504000101,Ogden Ave & Roosevelt Rd,41.86650148316,-87.68469707,2020-12-27,2022-05-11,2013
1095,TA1309000064,Wolcott Ave & Polk St,41.871262,-87.673688,2020-12-01,2022-05-11,13879
1096,TA1309000027,Sheridan Rd & Buena Ave,41.958494,-87.654966,2020-12-27,2022-05-11,12220
1097,TA1309000036,Burling St & Diversey Pkwy,41.93314,-87.64776,2020-12-27,2022-05-11,19028
1098,13063,Sheridan Rd & Irving Park Rd,41.954216333333335,-87.65442033333333,2020-12-27,2022-05-11,19973
1099,15542,Clinton St & Polk St,41.87143233333333,-87.64092666666667,2020-12-27,2022-05-11,1720
1100,TA1308000012,Montrose Harbor,41.963982,-87.638181,2020-12-27,2022-05-11,24280
1101,TA1306000015,Morgan St & Lake St,41.8854833079,-87.6523048564,2020-12-27,2022-05-11,25259
1102,WL-011,Jefferson St & Monroe St,41.880422,-87.642746,2020-12-27,2022-05-11,11333
1103,KA1503000029,South Shore Dr & 67th St,41.773643,-87.567514,2020-12-27,2022-05-11,1781
1104,KA1503000074,Museum of Science and Industry,41.791728,-87.583945,2020-12-27,2022-05-11,7194
1105,13192,Halsted St & Dickens Ave,41.919936,-87.64883,2020-12-27,2022-05-11,22566
1106,13289,Eckhart Park,41.896386666666665,-87.66101233333333,2020-12-27,2022-05-11,13303
1107,TA1307000136,Clark St & Wellington Ave,41.9364968219,-87.6475386582,2020-12-27,2022-05-11,25203
1108,TA1307000143,Sedgwick St & Schiller St,41.907626,-87.638566,2020-12-27,2022-05-11,7608
1109,13249,Ashland Ave & Belle Plaine Ave,41.956057,-87.668835,2020-12-27,2022-05-11,4179
1110,13432,Wood St & Hubbard St,41.889899,-87.671473,2020-12-27,2022-05-11,6010
1111,TA1307000142,Clark St & Drummond Pl,41.931248,-87.644336,2020-12-27,2022-05-11,30102
1112,TA1306000014,Wilton Ave & Diversey Pkwy,41.932418,-87.652705,2020-12-27,2022-05-11,25293
1113,13319,Ashland Ave & Grace St,41.950687,-87.6687,2020-12-27,2022-05-11,9686
1114,KA1504000133,Rush St & Cedar St,41.90262333333333,-87.62771383333333,2020-12-27,2022-05-11,26235
1115,13068,Western Ave & Winnebago Ave,41.915663333333335,-87.6870145,2020-12-27,2022-05-11,12942
1116,15571,Broadway & Granville Ave,41.99475316666667,-87.6602755,2020-12-27,2022-05-11,10053
1117,TA1307000150,Pine Grove Ave & Waveland Ave,41.94947274088333,-87.64645278453827,2020-12-27,2022-05-11,25786
1118,KA1503000015,Wabash Ave & Adams St,41.87947235235,-87.6256886059,2020-12-27,2022-05-11,14195
1119,13150,Michigan Ave & 18th St,41.857813,-87.62455,2020-12-27,2022-05-11,13041
1120,13135,Blue Island Ave & 18th St,41.85744816666666,-87.661731,2020-12-27,2022-05-11,7848
1121,13158,Peoria St & Jackson Blvd,41.8776575,-87.64939,2020-12-27,2022-05-11,20812
1122,13265,Kingsbury St & Erie St,41.89380805624359,-87.64169722795485,2020-12-27,2022-05-11,26133
1123,TA1307000151,Wells St & Hubbard St,41.889906,-87.634266,2020-12-27,2022-05-11,32544
1124,13278,Broadway & Cornelia Ave,41.945529,-87.646439,2020-12-27,2022-05-11,28119
1125,13099,Halsted St & 18th St,41.857499,-87.646277,2020-12-27,2022-05-11,4588
1126,13037,Clinton St & Tilden St,41.875885,-87.640795,2020-12-27,2022-05-11,4707
1127,13075,Wentworth Ave & Cermak Rd,41.85308166666667,-87.63186316666666,2020-12-27,2022-05-11,11833
1128,TA1309000023,Sheffield Ave & Wrightwood Ave,41.928712,-87.653833,2020-12-27,2022-05-11,21668
1129,TA1305000003,Fairbanks Ct & Grand Ave,41.891847,-87.62058,2020-12-27,2022-05-11,32469
1130,TA1309000024,Clark St & Schiller St,41.907993,-87.631501,2020-12-27,2022-05-11,29213
1131,13138,Canal St & Jackson Blvd,41.877245,-87.639366,2020-12-27,2022-05-11,9797
1132,13160,May St & Taylor St,41.86936833333333,-87.6554745,2020-12-27,2022-05-11,13113
1133,TA1309000015,Leavitt St & Lawrence Ave,41.968885,-87.684001,2020-12-27,2022-05-11,3781
1134,TA1307000144,Wolcott (Ravenswood) Ave & Montrose Ave,41.961410666666666,-87.6761855,2020-12-27,2022-05-11,6809
1135,TA1307000006,Southport Ave & Wellington Ave,41.93573783333333,-87.66388333333333,2020-12-27,2022-05-11,17197
1136,TA1308000031,Logan Blvd & Elston Ave,41.929465,-87.684158,2020-12-27,2022-05-11,8649
1137,TA1305000020,Ogden Ave & Chicago Ave,41.896362458,-87.6540612729,2020-12-27,2022-05-11,15153
1138,658,Leavitt St & Division St,41.90298516666667,-87.68380033333334,2020-12-27,2022-05-11,6282
1139,KA1504000127,Manor Ave & Leland Ave,41.9658725,-87.70085916666666,2020-12-27,2022-05-11,2744
1140,TA1308000047,Southport Ave & Clark St,41.957081,-87.664199,2020-12-27,2022-05-11,4581
1141,RP-009,Sheridan Rd & Loyola Ave,42.00104377979,-87.6611982433,2020-12-27,2022-05-11,6469
1142,655,Hoyne Ave & Balmoral Ave,41.979851,-87.681932,2020-12-27,2022-05-11,3021
1143,RP-002,Warren Park East,42.004588,-87.68062066666667,2020-12-27,2022-05-11,1500
1144,13325,Broadway & Waveland Ave,41.949074,-87.648636,2020-12-27,2022-05-11,28058
1145,525,Glenwood Ave & Touhy Ave,42.012701,-87.666058,2020-12-27,2022-05-11,2882
1146,TA1307000134,Wilton Ave & Belmont Ave,41.94018,-87.65304,2020-12-27,2022-05-11,35670
1147,TA1309000050,Lincoln Ave & Addison St,41.946176,-87.673308,2020-12-27,2022-05-11,4548
1148,TA1306000012,Wells St & Huron St,41.894722,-87.634362,2020-12-27,2022-05-11,39705
1149,TA1309000012,Damen Ave & Sunnyside Ave,41.96325,-87.679258,2020-12-27,2022-05-11,4647
1150,LP-,Lincoln Park Conservatory,41.92393131136619,-87.63582453131676,2020-12-27,2022-05-11,18643
1151,KA1504000158,Oakley Ave & Irving Park Rd,41.95434085219,-87.6860796243,2020-12-27,2022-05-11,3132
1152,KA1504000080,Washtenaw Ave & Lawrence Ave,41.968987,-87.696027,2020-12-27,2022-05-11,4332
1153,TA1306000016,Sheffield Ave & Fullerton Ave,41.925602,-87.65371733333333,2020-12-27,2022-05-11,26758
1154,TA1307000038,Sedgwick St & North Ave,41.911386,-87.638677,2020-12-27,2022-05-11,22391
1155,18067,Walsh Park,41.91461,-87.667968,2020-12-27,2022-05-11,11147
1156,13085,Kedzie Ave & Milwaukee Ave,41.92958016666667,-87.707901,2020-12-27,2022-05-11,15985
1157,590,Kilbourn Ave & Irving Park Rd,41.953733,-87.740569,2020-12-27,2022-05-11,650
1158,13242,Milwaukee Ave & Rockwell St,41.92019556200566,-87.69265919923781,2020-12-27,2022-05-11,6453
1159,RP-001,Warren Park West,42.001785,-87.688829,2020-12-27,2022-05-11,1621
1160,SL-010,Financial Pl & Ida B Wells Dr,41.87501283333334,-87.63310233333333,2020-12-27,2022-05-11,10006
1161,15585,Budlong Woods Library,41.98366470886,-87.6964225611,2020-12-27,2022-05-11,1476
1162,KA1504000114,Kedzie Ave & Chicago Ave,41.895436,-87.706179,2020-12-27,2022-05-11,1091
1163,13155,Racine Ave & Randolph St,41.884043166666665,-87.6570315,2020-12-27,2022-05-11,7104
1164,WL-012,Clinton St & Washington Blvd,41.88338,-87.64117,2020-12-27,2022-05-11,28920
1165,18058,Leavitt St & Chicago Ave,41.895501,-87.682017,2020-12-27,2022-05-11,6620
1166,SL-007,State St & Harrison St,41.873949,-87.62772316666667,2020-12-27,2022-05-11,11509
1167,13266,Stave St & Armitage Ave,41.917741,-87.691392,2020-12-27,2022-05-11,6653
1168,KA1504000143,Leavitt St & Addison St,41.946609333333335,-87.68339,2020-12-27,2022-05-11,3660
1169,13089,Damen Ave & Cullerton St,41.854966518753926,-87.67569959163664,2020-12-27,2022-05-11,3755
1170,KA1503000066,Wood St & 35th St,41.83010465416,-87.6702983089,2020-12-27,2022-05-11,1105
1171,624,Dearborn St & Van Buren St,41.875996666666666,-87.62989933333333,2020-12-27,2022-05-11,10914
1172,13081,Ogden Ave & Congress Pkwy,41.87501,-87.67328,2020-12-27,2022-05-11,3879
1173,631,Malcolm X College,41.8776245,-87.67385716666666,2020-12-27,2022-05-11,2400
1174,TA1308000043,Halsted St & 35th St,41.83059433333333,-87.64713083333334,2020-12-01,2022-05-11,2598
1175,KA1504000160,Francisco Ave & Foster Ave,41.97563272521,-87.7014194389,2020-12-27,2022-05-11,3063
1176,519,Wolcott Ave & Fargo Ave,42.016977,-87.677725,2020-12-27,2022-05-11,669
1177,KA1503000046,Dorchester Ave & 63rd St,41.7804056457,-87.5914159893,2020-12-27,2022-05-11,1078
1179,662,Dodge Ave & Mulford St,42.023463,-87.699595,2020-12-27,2022-05-11,714
1180,561,Damen Ave & 59th St,41.78602,-87.674167,2020-12-27,2022-05-11,185
1181,KA1503000051,Halsted St & 47th Pl,41.80806983333333,-87.6456665,2020-12-01,2022-05-11,930
1182,KA17018054,Damen Ave & Walnut (Lake) St,41.88594583333333,-87.67709083333334,2020-12-27,2022-05-11,3996
1183,20119,Elizabeth St & 92nd St,41.72679896370119,-87.65429019927979,2020-12-04,2022-05-11,264
1184,16906,Austin Blvd & Lake St,41.887919,-87.774446,2020-12-27,2022-05-11,890
1185,TA1307000124,Michigan Ave & 14th St,41.864059,-87.623727,2020-12-27,2022-05-11,18331
1186,13304,Racine Ave & 15th St,41.861267,-87.656625,2020-12-27,2022-05-11,3978
1187,20243,Michigan Ave & 114th St,41.68701033333333,-87.62120233333333,2020-12-10,2022-05-11,129
1188,TA1309000042,Lincoln Ave & Belmont Ave,41.939365,-87.668385,2020-12-27,2022-05-11,15155
1189,598,Elmwood Ave & Austin St,42.02578566666666,-87.68408233333334,2020-12-27,2022-05-11,1469
1190,20234,Ashland Ave & 78th St,41.75220484941116,-87.66369938850403,2020-12-27,2022-05-11,216
1191,20254.0,W Armitage Ave & N Sheffield Ave,41.92,-87.65,2020-12-05,2022-05-11,1700
1192,18017,Central Park Ave & Bloomingdale Ave,41.914166,-87.716755,2020-12-27,2022-05-11,4246
1193,KA1503000073,MLK Jr Dr & 56th St,41.79352216666667,-87.6158265,2020-12-27,2022-05-11,624
1194,KA1503000027,Prairie Ave & 43rd St,41.8166895,-87.61942266666667,2020-12-27,2022-05-11,1282
1195,13080,Hermitage Ave & Polk St,41.871514,-87.669886,2020-12-09,2022-05-11,2739
1196,KA1504000128,Kedzie Ave & Foster Ave,41.975672,-87.709261,2020-12-01,2022-05-11,1626
1197,13033,Milwaukee Ave & Grand Ave,41.891578,-87.648384,2020-12-27,2022-05-11,25127
1198,13259,California Ave & Francis Pl (Temp),41.91849115368695,-87.69742280244827,2020-12-27,2022-05-11,6284
1199,KA1504000117,Halsted St & North Branch St,41.899368,-87.648479,2020-12-27,2022-05-11,3266
1200,16933,Morgan St & Pershing Rd,41.823613,-87.650931,2020-12-27,2022-05-11,259
1201,16948,Ashland Ave & 63rd St,41.779374,-87.664843,2020-12-27,2022-05-11,288
1203,16912,Cicero Ave & Flournoy St,41.872131,-87.746619,2020-12-18,2022-05-11,128
1204,KA1503000069,Dorchester Ave & 49th St,41.805844666666665,-87.59253316666667,2020-12-27,2022-05-11,1933
1205,15651,Humboldt Blvd & Armitage Ave,41.91753533333333,-87.70185566666666,2020-12-27,2022-05-11,7892
1206,TA1309000058,Lincoln Ave & Fullerton Ave,41.925905,-87.64926,2020-12-27,2022-05-11,29859
1207,20239,Marquette Ave & 89th St,41.73366879071472,-87.55834221839905,2020-12-30,2022-05-11,218
1208,TA1308000023,Cottage Grove Ave & 43rd St,41.816499,-87.606582,2020-12-27,2022-05-11,1245
1209,15687,Central Park Ave & 24th St,41.8481,-87.715068,2020-12-27,2022-05-11,279
1210,15597,Halsted St & 69th St,41.769061,-87.644613,2020-12-01,2022-05-11,122
1211,KA1503000055,Halsted St & 63rd St,41.779381,-87.64462,2020-12-27,2022-05-11,311
1212,TA1307000066,Damen Ave & Coulter St,41.8492,-87.67564,2020-12-27,2022-05-11,900
1213,KA1503000071,University Ave & 57th St,41.791478,-87.599861,2020-12-27,2022-05-11,27377
1214,RP-006,Ridge Blvd & Touhy Ave,42.01216216666667,-87.6829355,2020-12-27,2022-05-11,992
1215,15544,Shedd Aquarium,41.86722595682,-87.6153553902,2020-12-27,2022-05-11,34583
1216,16921,Austin Blvd & Chicago Ave,41.89487533333333,-87.77429866666667,2020-12-27,2022-05-11,448
1217,13154,Sheffield Ave & Kingsbury St,41.91061216666667,-87.65318216666667,2020-12-27,2022-05-11,19143
1218,KA1503000032,Union Ave & Root St,41.819156166666666,-87.64328183333333,2020-12-27,2022-05-11,679
1219,13354,Ashland Ave & 13th St,41.865234,-87.666507,2020-12-27,2022-05-11,3749
1220,KA1503000004,Lake Park Ave & 35th St,41.831307333333335,-87.6087495,2020-12-27,2022-05-11,4126
1221,13050,State St & Kinzie St,41.889155333333335,-87.62808366666667,2020-12-27,2022-05-11,26322
1222,20232,Big Marsh Park,41.685877,-87.573824,2020-12-27,2022-05-11,352
1223,20206,Homewood Ave & 115th St,41.68459507202618,-87.67070800065994,2020-12-27,2022-05-11,264
1224,579,Phillips Ave & 79th St,41.75182,-87.565211,2020-12-27,2022-05-11,442
1225,16932,Ashland Ave & Pershing Rd,41.823455,-87.66561766666666,2020-12-27,2022-05-11,455
1226,13338,Mies van der Rohe Way & Chicago Ave,41.89691,-87.621743,2020-12-27,2022-05-11,22245
1227,KA1503000010,Halsted St & 51st St,41.8017555,-87.64523916666667,2020-12-15,2022-05-11,186
1228,20121,Loomis Blvd & 84th St,41.74148652861805,-87.65841007232666,2020-12-25,2022-05-11,266
1229,20107,Walden Pkwy & 100th St,41.71227783333333,-87.66772833333333,2020-12-27,2022-05-11,424
1230,20210,State St & 123rd St,41.67064383687979,-87.62258648872375,2020-12-27,2022-05-11,295
1231,KA1503000009,Princeton Ave & 47th St,41.80931683333333,-87.63349483333333,2020-12-04,2022-05-11,622
1232,13420,MLK Jr Dr & Pershing Rd,41.8246,-87.61678,2020-12-27,2022-05-11,1732
1233,13011,Canal St & Adams St,41.879255,-87.639904,2020-12-27,2022-05-11,24151
1234,15648,Campbell Ave & Fullerton Ave,41.9246095,-87.68927066666667,2020-12-27,2022-05-11,4875
1235,16953,Vincennes Ave & 75th St,41.75797,-87.63121,2020-12-27,2022-05-11,164
1236,13083,Indiana Ave & 40th St,41.82169366666667,-87.62138733333333,2020-12-27,2022-05-11,775
1238,13102,Calumet Ave & 18th St,41.85758616666666,-87.61952016666666,2020-12-01,2022-05-11,12405
1239,16905,Central Ave & Lake St,41.887664,-87.765469,2020-12-27,2022-05-11,473
1240,642,Latrobe Ave & Chicago Ave,41.894754166666665,-87.75689416666667,2020-12-27,2022-05-11,207
1241,13144,Seeley Ave & Roscoe St,41.94340716666667,-87.67975916666667,2020-12-27,2022-05-11,7840
1242,RP-008,Clark St & Columbia Ave,42.00445062934,-87.6724024047,2020-12-27,2022-05-11,3330
1243,SL-008,Federal St & Polk St,41.87207763285,-87.6295437729,2020-12-27,2022-05-11,25423
1244,15685,Central Park Ave & Ogden Ave,41.854063503874464,-87.71511733531952,2020-12-27,2022-05-11,1012
1245,331,Halsted St & Clybourn Ave,41.909668,-87.648128,2020-12-27,2022-05-11,25619
1246,580,Exchange Ave & 79th St,41.751731,-87.552812,2020-12-31,2022-05-11,310
1247,588,South Chicago Ave & 83rd St,41.743921,-87.575225,2020-12-17,2022-05-11,147
1248,654,Racine Ave & Washington Blvd,41.883073,-87.656952,2020-12-27,2022-05-11,7184
1249,20127,Halsted St & 111th St,41.692280333333336,-87.64267183333334,2020-12-27,2022-05-11,271
1250,20223,Ewing Ave & Burnham Greenway,41.712748,-87.534813,2020-12-03,2022-05-11,348
