,first,id,lat,lon,name,last
0,2013,5,41.87395806,-87.62773949,State St & Harrison St,2016
1,2013,13,41.93250008,-87.65268082,Wilton Ave & Diversey Pkwy,2019
2,2013,14,41.858086,-87.651073,Morgan St & 18th St,2019
3,2013,15,41.85818061,-87.65648665,Racine Ave & 18th St,2014
4,2013,16,41.910329,-87.672516,Wood St & North Ave,2016
5,2013,17,41.90332,-87.67273,Wood St & Division St,2017
6,2013,19,41.869417,-87.660996,Loomis St & Taylor St (*),2019
7,2013,20,41.90959193,-87.65349723,Sheffield Ave & Kingsbury St,2019
8,2013,21,41.87772613,-87.65478743,Aberdeen St & Jackson Blvd,2019
9,2013,22,41.8694821,-87.6554864,May St & Taylor St,2019
10,2013,23,41.902924,-87.637715,Orleans St & Elm St (*),2019
11,2013,24,41.89186,-87.62062,Fairbanks Ct & Grand Ave,2019
12,2013,25,41.897659999999995,-87.62351,Michigan Ave & Pearson St,2019
13,2013,26,41.891020000000005,-87.6173,McClurg Ct & Illinois St,2019
14,2013,27,41.91021,-87.6435,Larrabee St & North Ave,2019
15,2013,28,41.91468,-87.64331999999999,Larrabee St & Menomonee St,2019
16,2013,29,41.90068,-87.6626,Noble St & Milwaukee Ave,2019
17,2013,30,41.899643,-87.6677,Ashland Ave & Augusta Blvd,2019
18,2013,31,41.89680204,-87.63563839,Franklin St & Chicago Ave,2019
19,2013,32,41.87464,-87.65703,Racine Ave & Congress Pkwy,2019
20,2013,33,41.877181,-87.627844,State St & Van Buren St,2019
21,2013,34,41.92675599,-87.63442878,Cannon Dr & Fullerton Ave,2019
22,2013,35,41.891071000000004,-87.6122,Streeter Dr & Illinois St,2016
23,2013,36,41.87770796,-87.63532114,Franklin St & Jackson Blvd,2019
24,2013,37,41.87935636,-87.62979104,Dearborn St & Adams St,2019
25,2013,42,41.85323876,-87.62533709,Wabash Ave & Cermak Rd,2019
26,2013,43,41.88389277,-87.62464914,Michigan Ave & Washington St,2019
27,2013,44,41.8847302,-87.62773357,State St & Randolph St,2019
28,2013,45,41.876065600000004,-87.62443336,Michigan Ave & Congress Pkwy,2019
29,2013,46,41.89993001,-87.63443007,Wells St & Walton St,2019
30,2013,47,41.889179999999996,-87.6277,State St & Kinzie St,2019
31,2013,48,41.897764,-87.642884,Larrabee St & Kingsbury St,2019
32,2013,49,41.88131982,-87.62952092,Dearborn St & Monroe St,2019
33,2013,50,41.87593267,-87.63058454,Clark St & Congress Pkwy,2019
34,2013,51,41.88457623,-87.63188991,Clark St & Randolph St,2019
35,2013,52,41.88605812,-87.62428934,Michigan Ave & Lake St,2019
36,2013,53,41.893832,-87.63419499999999,Wells St & Erie St,2017
37,2013,54,41.89636246,-87.65406127,Ogden Ave & Chicago Ave,2019
38,2013,55,41.865860999999995,-87.646611,Halsted St & James M Rochford St,2016
39,2013,56,41.88871604,-87.64444785,Desplaines St & Kinzie St,2019
40,2013,57,41.86711778,-87.64108796,Clinton St & Roosevelt Rd,2019
41,2013,58,41.91785887,-87.66891899999999,Ashland Ave & Armitage Ave,2014
42,2013,59,41.867173,-87.62595501,Wabash Ave & Roosevelt Rd,2019
43,2013,60,41.91057803,-87.64942193,Dayton St & North Ave,2019
44,2013,61,41.907655,-87.672552,Wood St & Milwaukee Ave,2019
45,2013,62,41.85137517,-87.61883465,McCormick Place,2019
46,2013,66,41.88583274,-87.64138231,Clinton St & Lake St,2019
47,2013,67,41.92560188,-87.65370804,Sheffield Ave & Fullerton Ave,2019
48,2013,68,41.875885,-87.640795,Clinton St & Tilden St,2019
49,2013,69,41.90939601,-87.67769193,Damen Ave & Pierce Ave,2019
50,2013,71,41.88548331,-87.65230486,Morgan St & Lake St,2019
51,2013,72,41.86012138,-87.62772919,State St & 16th St,2016
52,2013,73,41.880421999999996,-87.642746,Jefferson St & Monroe St,2019
53,2013,74,41.89384315,-87.64185116,Kingsbury St & Erie St,2019
54,2013,75,41.87811421,-87.63997112,Canal St & Jackson Blvd,2019
55,2013,76,41.88105,-87.61697,Lake Shore Dr & Monroe St,2019
56,2013,77,41.8815824,-87.64127743,Clinton St & Madison St,2019
57,2013,80,41.881487,-87.654752,Aberdeen St & Madison St,2017
58,2013,81,41.884337,-87.630183,Daley Center Plaza,2019
59,2013,84,41.891733,-87.64872700000001,Green St & Milwaukee Ave,2017
60,2013,85,41.90096039,-87.62377664,Michigan Ave & Oak St,2019
61,2013,86,41.89637337,-87.66098386,Eckhart Park,2019
62,2013,87,41.92556258,-87.65840426,Racine Ave & Fullerton Ave,2019
63,2013,88,41.88397,-87.655688,May St & Randolph St,2017
64,2013,90,41.8810317,-87.62408432,Millennium Park,2019
65,2013,91,41.883379999999995,-87.64116999999999,Clinton St & Washington Blvd,2019
66,2013,92,41.894556,-87.653449,Carpenter St & Huron St,2019
67,2013,93,41.913688,-87.652855,Sheffield Ave & Willow St,2019
68,2013,94,41.918273,-87.638116,Lincoln Ave & Armitage Ave,2014
69,2013,97,41.865212,-87.61775899999999,Museum Campus,2016
70,2013,98,41.882664,-87.63253,LaSalle St & Washington St,2019
71,2013,99,41.89257,-87.614492,Lake Shore Dr & Ohio St,2019
72,2013,100,41.888243,-87.63639,Orleans St & Merchandise Mart Plaza,2019
73,2013,106,41.897448,-87.628722,State St & Pearson St,2019
74,2013,108,41.87184,-87.64664,Halsted St & Polk St,2019
75,2013,109,41.8745,-87.6498,900 W Harrison,2015
76,2013,110,41.893975,-87.628623,State St & Erie St,2015
77,2013,111,41.894666,-87.638437,Sedgwick St & Huron St,2019
78,2013,112,41.884078,-87.648684,Green St & Randolph St,2019
79,2013,113,41.918440000000004,-87.65222,Bissell St & Armitage Ave,2019
80,2013,114,41.94688,-87.65445,Sheffield Ave & Addison St,2017
81,2013,115,41.936253,-87.653566,Sheffield Ave & Wellington Ave,2019
82,2013,116,41.915533,-87.687051,Western Ave & Winnebago Ave,2019
83,2013,117,41.94018,-87.65304,Wilton Ave & Belmont Ave,2019
84,2013,118,41.910579,-87.63861800000001,Sedgwick St & North Ave,2019
85,2013,119,41.88541,-87.66731999999999,Ashland Ave & Lake St,2018
86,2013,120,41.854564,-87.631937,Wentworth Ave & Archer Ave,2018
87,2013,121,41.802562,-87.59036800000001,Blackstone Ave & Hyde Park Blvd,2019
88,2013,122,41.875009999999996,-87.67328,Ogden Ave & Congress Pkwy,2019
89,2013,123,41.922695000000004,-87.697153,California Ave & Milwaukee Ave,2019
90,2013,124,41.855048,-87.675726,Damen Ave & Cullerton St,2019
91,2013,126,41.911791,-87.63184100000001,Clark St & North Ave,2019
92,2013,127,41.925905,-87.64926,Lincoln Ave & Fullerton Ave,2019
93,2013,128,41.895769,-87.67721999999999,Damen Ave & Chicago Ave,2017
94,2013,129,41.857556,-87.661535,Blue Island Ave & 18th St,2019
95,2013,130,41.90331,-87.67695,Damen Ave & Division St,2019
96,2013,131,41.939365,-87.668385,Lincoln Ave & Belmont Ave,2019
97,2013,132,41.849237,-87.631715,Wentworth Ave & 24th St,2019
98,2013,134,41.877749,-87.649633,Peoria St & Jackson Blvd,2019
99,2013,135,41.85378,-87.64665,Halsted St & 21st St,2019
100,2013,136,41.865054,-87.656959,Racine Ave & 13th St,2019
101,2013,137,41.862378,-87.651062,Morgan Ave & 14th Pl,2019
102,2013,138,41.904509000000004,-87.6405,Clybourn Ave & Division St,2019
103,2013,140,41.899007,-87.629928,Dearborn Pkwy & Delaware Pl,2019
104,2013,141,41.915689,-87.6346,Clark St & Lincoln Ave,2019
105,2013,143,41.92197,-87.63854,Sedgwick St & Webster Ave,2019
106,2013,144,41.92175,-87.64401,Larrabee St & Webster Ave,2019
107,2013,146,41.877945000000004,-87.66200699999999,Loomis St & Jackson Blvd,2019
108,2013,147,41.8457,-87.62248000000001,Indiana Ave & 26th St,2019
109,2013,148,41.834734000000005,-87.625813,State St & 33rd St,2019
110,2013,149,41.8349,-87.61793,Calumet Ave & 33rd St,2019
111,2013,150,41.838556,-87.60821800000001,Fort Dearborn Dr & 31st St,2019
112,2013,152,41.932225,-87.658617,Lincoln Ave & Diversey Pkwy,2019
113,2013,153,41.93584,-87.6637,Southport Ave & Wellington Ave,2019
114,2013,154,41.93949,-87.66378,Southport Ave & Belmont Ave,2019
115,2013,156,41.93649682,-87.64753866,Clark St & Wellington Ave,2019
116,2013,157,41.936669,-87.636794,Lake Shore Dr & Wellington Ave,2019
117,2013,158,41.912616,-87.681391,Milwaukee Ave & Wabansia Ave,2019
118,2013,159,41.907781,-87.685854,Claremont Ave & Hirsch St,2019
119,2013,160,41.910534999999996,-87.68955600000001,Campbell Ave & North Ave,2019
120,2013,162,41.93588,-87.67841999999999,Damen Ave & Wellington Ave,2019
121,2013,163,41.93186,-87.67079,Paulina St & Diversey Pkwy,2014
122,2013,164,41.885837,-87.6355,Franklin St & Lake St,2019
123,2013,165,41.94893,-87.65775,Clark St & Waveland Ave,2014
124,2013,166,41.92883,-87.66850699999999,Ashland Ave & Wrightwood Ave,2019
125,2013,167,41.8492,-87.67564,Damen Ave & Coulter St,2019
126,2013,168,41.864059000000005,-87.623727,Michigan Ave & 14th St,2019
127,2013,169,41.874337,-87.639566,Canal St & Harrison St,2019
128,2013,170,41.85795,-87.640826,Clinton St & 18th St,2019
129,2013,171,41.855136,-87.654127,Cornell Ave & Hyde Park Blvd,2019
130,2013,173,41.89691,-87.62174300000001,Mies van der Rohe Way & Chicago Ave,2019
131,2013,174,41.882090999999996,-87.639833,Canal St & Madison St,2019
132,2013,175,41.872372999999996,-87.633523,Wells St & Polk St,2019
133,2013,176,41.903233,-87.631253,Clark St & Elm St,2019
134,2013,177,41.926277,-87.630834,Clinton St & Polk St (*),2019
135,2013,178,41.856594,-87.627542,State St & 19th St,2019
136,2013,179,41.822559999999996,-87.61615,MLK Jr Dr & Oakwood Blvd,2018
137,2013,181,41.890749,-87.63206,LaSalle St & Illinois St,2019
138,2013,183,41.899714,-87.677234,Damen Ave & Augusta Blvd,2018
139,2013,184,41.83104,-87.62688,State St & 35th St,2017
140,2013,185,41.917741,-87.69139200000001,Stave St & Armitage Ave,2019
141,2013,186,41.891795,-87.658751,Ogden Ave & Race Ave,2019
142,2013,188,41.925329999999995,-87.6658,Greenview Ave & Fullerton Ave,2019
143,2013,190,41.92888,-87.66317,Southport Ave & Wrightwood Ave,2019
144,2013,191,41.8807,-87.63946999999999,Canal St & Monroe St,2016
145,2013,192,41.87923,-87.640015,Canal St & Adams St,2019
146,2013,193,41.841707,-87.626938,State St & 29th St,2019
147,2013,194,41.887155,-87.62775,State St & Wacker Dr,2014
148,2013,195,41.8853,-87.62077,Columbus Dr & Randolph St,2019
149,2013,196,41.889875,-87.621994,Cityfront Plaza & N Water St,2017
150,2013,197,41.882134,-87.625125,Michigan Ave & Madison St,2019
151,2013,198,41.88175,-87.6478,Halsted St & Madison St,2016
152,2013,199,41.891738000000004,-87.626937,Wabash Ave & Grand Ave,2019
153,2013,200,41.809851,-87.616279,MLK Jr Dr & 47th St,2019
154,2013,201,41.82168,-87.6216,Indiana Ave & 40th St,2019
155,2013,202,41.857499,-87.646277,Halsted St & 18th St,2019
156,2013,203,41.85394,-87.685243,Western Ave & 21st St,2019
157,2013,204,41.7951,-87.61936,Prairie Ave & Garfield Blvd,2019
158,2013,205,41.857901,-87.668745,Paulina St & 18th St,2019
159,2013,206,41.847203,-87.646795,Halsted St & Archer Ave,2019
160,2013,207,41.843579999999996,-87.645368,Emerald Ave & 28th St,2019
161,2013,208,41.853809999999996,-87.665897,Ashland Ave & 21st St,2019
162,2013,209,41.849527,-87.640591,Normal Ave & Archer Ave,2019
163,2013,210,41.903456,-87.66776999999999,Ashland Ave & Division St,2019
164,2013,211,41.894448,-87.622663,St. Clair St & Erie St,2019
165,2013,212,41.892238,-87.633985,Wells St & Ohio St,2014
166,2013,213,41.910652,-87.6824,Leavitt St & North Ave,2019
167,2013,214,41.891220000000004,-87.67685999999999,Damen Ave & Grand Ave,2019
168,2013,215,41.881370000000004,-87.67493,Damen Ave & Madison St,2019
169,2013,216,41.903029,-87.697474,California Ave & Division St,2019
170,2013,217,41.886773,-87.656001,May St & Fulton St,2017
171,2013,218,41.856802,-87.63387900000001,Wells St & 19th St,2019
172,2013,219,41.916027,-87.67741099999999,Damen Ave & Cortland St,2019
173,2013,220,41.93262,-87.642385,Hampden Ct & Diversey Pkwy,2018
174,2013,222,41.920195,-87.693033,Milwaukee Ave & Rockwell St,2019
175,2013,223,41.918215999999994,-87.656936,Clifton Ave & Armitage Ave,2019
176,2013,224,41.913778,-87.64884,Halsted St & Willow St,2019
177,2013,225,41.919936,-87.64883,Halsted St & Dickens Ave,2019
178,2013,226,41.939743,-87.658865,Racine Ave & Belmont Ave,2019
179,2013,227,41.94815,-87.66394,Southport Ave & Waveland Ave,2019
180,2013,228,41.9406,-87.6785,Damen Ave & Melrose Ave,2019
181,2013,229,41.943739,-87.66402,Southport Ave & Roscoe St,2019
182,2013,230,41.94334,-87.67097,Lincoln Ave & Roscoe St,2019
183,2013,231,41.96167,-87.65464,Sheridan Rd & Montrose Ave,2019
184,2013,232,41.947835999999995,-87.645416,Pine Grove Ave & Addison St,2014
185,2013,233,41.883004,-87.65114799999999,Sangamon St & Washington Blvd (*),2019
186,2013,234,41.961588,-87.666036,Clark St & Montrose Ave,2019
187,2013,236,41.907576,-87.63851700000001,Sedgwick St & Schiller St,2019
188,2013,237,41.842052,-87.617,MLK Jr Dr & 29th St,2019
189,2013,238,41.961626,-87.67410100000001,Ravenswood Ave & Montrose Ave,2016
190,2013,239,41.966555,-87.688487,Western Ave & Leland Ave,2019
191,2013,240,41.95434,-87.654601,Sheridan Rd & Irving Park Rd,2019
192,2013,242,41.967094,-87.679028,Damen Ave & Leland Ave,2019
193,2013,243,41.962391,-87.684146,Lincoln Ave & Leavitt St,2018
194,2013,244,41.95469,-87.67393,Ravenswood Ave & Irving Park Rd,2019
195,2013,245,41.961003999999996,-87.649603,Clarendon Ave & Junior Ter,2019
196,2013,246,41.956061,-87.668869,Ashland Ave & Belle Plaine Ave,2019
197,2013,247,41.795212,-87.580715,Shore Dr & 55th St,2019
198,2013,248,41.795264,-87.596471,Woodlawn Ave & 55th St,2019
199,2013,249,41.963982,-87.638181,Montrose Harbor,2019
200,2013,250,41.936083,-87.66980699999999,Ashland Ave & Wellington Ave,2019
201,2013,251,41.967968,-87.650001,Clarendon Ave & Leland Ave,2019
202,2013,252,41.809835,-87.59938299999999,Greenwood Ave & 47th St,2019
203,2013,253,41.968872999999995,-87.658857,Clifton Ave & Lawrence Ave,2018
204,2013,254,41.954383,-87.648043,Pine Grove Ave & Irving Park Rd,2019
205,2013,255,41.867888,-87.623041,Indiana Ave & Roosevelt Rd,2019
206,2013,256,41.952833,-87.64999300000001,Broadway & Sheridan Rd,2019
207,2013,257,41.94911,-87.675112,Lincoln Ave & Waveland Ave,2019
208,2013,258,41.930584,-87.685126,Logan Blvd & Elston Ave,2019
209,2013,259,41.91855,-87.69723,California Ave & Francis Pl,2019
210,2013,260,41.929567,-87.70785699999999,Kedzie Ave & Milwaukee Ave,2019
211,2013,261,41.871514000000005,-87.669886,Hermitage Ave & Polk St,2019
212,2013,262,41.827071000000004,-87.645801,Halsted St & 37th St,2019
213,2013,263,41.836208,-87.61353299999999,Rhodes Ave & 32nd St,2019
214,2013,264,41.886860999999996,-87.622694,Stetson Ave & South Water St,2019
215,2013,265,41.822984999999996,-87.6071,Cottage Grove Ave & Oakwood Blvd,2019
216,2013,267,41.809443,-87.591875,Lake Park Ave & 47th St,2019
217,2013,268,41.911722,-87.626804,Lake Shore Dr & North Blvd,2019
218,2013,271,41.816499,-87.60658199999999,Cottage Grove Ave & 43rd St,2019
219,2013,272,41.838842,-87.62185699999999,Indiana Ave & 31st St,2019
220,2013,273,41.857937,-87.623633,Michigan Ave & 18th St,2015
221,2013,274,41.861267,-87.656625,Racine Ave & 15th St,2019
222,2013,275,41.865234,-87.666507,Ashland Ave & 13th St,2019
223,2013,276,41.91044,-87.6972,California Ave & North Ave,2019
224,2013,277,41.891071999999994,-87.666611,Ashland Ave & Grand Ave,2019
225,2013,278,41.830628999999995,-87.64129,Wallace St & 35th St,2019
226,2013,279,41.830661,-87.647172,Halsted St & 35th St (*),2019
227,2013,280,41.8378,-87.65114,Morgan St & 31st St,2019
228,2013,281,41.84847,-87.685109,Western Ave & 24th St,2019
229,2013,282,41.86458,-87.64693,Halsted St & Maxwell St,2019
230,2013,283,41.878170000000004,-87.631985,LaSalle St & Jackson Blvd,2019
231,2013,284,41.87785,-87.62408,Michigan Ave & Jackson Blvd,2019
232,2013,286,41.878724,-87.634793,Franklin St & Quincy St,2019
233,2013,287,41.881130999999996,-87.63518499999999,Franklin St & Arcade Pl,2016
234,2013,288,41.917970000000004,-87.64368,Larrabee St & Armitage Ave,2019
235,2013,289,41.912202,-87.634664,Wells St & Concord Ln,2019
236,2013,290,41.921525,-87.70732199999999,Kedzie Ave & Palmer Ct,2019
237,2013,291,41.906724,-87.63483000000001,Wells St & Evergreen Ave,2019
238,2013,292,41.957081,-87.664199,Southport Ave & Clark St,2019
239,2013,293,41.965287,-87.658774,Broadway & Wilson Ave,2019
240,2013,294,41.978353000000006,-87.65975300000001,Broadway & Berwyn Ave,2019
241,2013,295,41.972972,-87.659637,Broadway & Argyle St,2019
242,2013,296,41.940106,-87.645451,Broadway & Belmont Ave,2019
243,2013,297,41.961507,-87.671387,Paulina St & Montrose Ave,2019
244,2013,298,41.955927,-87.679259,Lincoln Ave & Belle Plaine Ave,2019
245,2013,299,41.943661999999996,-87.648917,Halsted St & Roscoe St,2019
246,2013,300,41.937739,-87.644094,Broadway & Barry Ave,2019
247,2013,301,41.907993,-87.631501,Clark St & Schiller St,2019
248,2013,302,41.928712,-87.65383299999999,Sheffield Ave & Wrightwood Ave,2019
249,2013,303,41.945512,-87.64598000000001,Broadway & Cornelia Ave,2019
250,2013,304,41.949333,-87.64963399999999,Halsted St & Waveland Ave,2015
251,2013,305,41.902893,-87.687275,Western Ave & Division St,2019
252,2013,306,41.9584,-87.65423,Sheridan Rd & Buena Ave,2019
253,2013,308,41.943403,-87.679618,Seeley Ave & Roscoe St,2019
254,2013,309,41.917805,-87.682437,Leavitt St & Armitage Ave,2019
255,2013,310,41.920082,-87.67785500000001,Damen Ave & Charleston St,2019
256,2013,311,41.96583,-87.68651,Lincoln Ave & Eastwood Ave,2014
257,2013,312,41.957879,-87.649519,Clarendon Ave & Gordon Ter,2019
258,2013,313,41.925858000000005,-87.638973,Lakeview Ave & Fullerton Pkwy,2019
259,2013,314,41.957921,-87.673567,Ravenswood Ave & Berteau Ave,2019
260,2013,315,41.906717,-87.68277900000001,Leavitt St & Hirsch St,2016
261,2013,316,41.96325,-87.67925799999999,Damen Ave & Sunnyside Ave,2019
262,2013,317,41.869153999999995,-87.67104499999999,Wood St & Taylor St,2019
263,2013,318,41.954177,-87.664358,Southport Ave & Irving Park Rd,2019
264,2013,319,41.932595,-87.665939,Greenview Ave & Diversey Pkwy,2019
265,2013,320,41.872187,-87.661501,Loomis St & Lexington St,2019
266,2013,321,41.871961999999996,-87.62610600000001,Wabash Ave & 8th St,2017
267,2013,322,41.799568,-87.594747,Kimbark Ave & 53rd St,2019
268,2013,323,41.969516999999996,-87.654691,Sheridan Rd & Lawrence Ave,2019
269,2013,324,41.93132,-87.63874200000001,Stockton Dr & Wrightwood Ave,2019
270,2013,325,41.973385,-87.66836500000001,Clark St & Winnemac Ave,2018
271,2013,326,41.967096000000005,-87.667429,Clark St & Leland Ave,2019
272,2013,327,41.921687,-87.65371400000001,Sheffield Ave & Webster Ave,2019
273,2013,328,41.788746,-87.601334,Ellis Ave & 58th St,2019
274,2013,329,41.932684,-87.63625,Lake Shore Dr & Diversey Pkwy,2019
275,2013,330,41.946176,-87.67330799999999,Lincoln Ave & Addison St,2019
276,2013,331,41.90854,-87.64856800000001,Halsted St & Blackhawk St,2016
277,2013,332,41.933341,-87.648747,Halsted St & Diversey Pkwy,2018
278,2013,333,41.907066,-87.667252,Ashland Ave & Blackhawk St,2019
279,2013,334,41.940775,-87.63919200000001,Lake Shore Dr & Belmont Ave,2019
280,2013,335,41.831379,-87.618034,Calumet Ave & 35th St,2019
281,2013,336,41.809855,-87.606755,Cottage Grove Ave & 47th St,2019
282,2013,337,41.896544,-87.630931,Clark St & Chicago Ave,2019
283,2013,338,41.857611,-87.619407,Calumet Ave & 18th St,2019
284,2013,339,41.838198,-87.645143,Emerald Ave & 31st St,2019
285,2013,340,41.929546,-87.643118,Clark St & Wrightwood Ave,2019
286,2013,341,41.866095,-87.60726700000001,Adler Planetarium,2019
287,2013,342,41.871262,-87.673688,Wolcott Ave & Polk St,2019
288,2013,343,41.928886999999996,-87.658971,Racine Ave & Wrightwood Ave,2019
289,2013,344,41.968641,-87.676335,Wolcott Ave & Lawrence Ave,2014
290,2013,345,41.793242,-87.58778199999999,Lake Park Ave & 56th St,2019
291,2013,346,41.88283,-87.661206,Ada St & Washington Blvd,2019
292,2013,347,41.950687,-87.6687,Ashland Ave & Grace St,2019
293,2013,348,41.854015999999994,-87.69544499999999,California Ave & 21st St,2019
294,2013,349,41.929142999999996,-87.649077,Halsted St & Wrightwood Ave,2019
295,2013,350,41.895965999999994,-87.66774699999999,Ashland Ave & Chicago Ave,2019
296,2013,351,41.803038,-87.606615,Cottage Grove Ave & 51st St,2019
297,2014,15,41.856453,-87.656471,Racine Ave & 19th St,2014
298,2014,58,41.916017,-87.668879,Marshfield Ave & Cortland St,2014
299,2014,84,41.891000000000005,-87.645925,Union Ave & Grand Ave,2017
300,2014,94,41.918306,-87.636282,Clark St & Armitage Ave,2014
301,2014,163,41.931931,-87.677856,Damen Ave & Clybourn Ave,2014
302,2014,165,41.95078,-87.659172,Clark St & Grace St,2014
303,2014,194,41.886875,-87.62603,Wabash Ave & Wacker Pl,2014
304,2014,196,41.890252000000004,-87.622105,Cityfront Plaza Dr & Pioneer Ct,2017
305,2014,212,41.889933,-87.63426199999999,Wells St & Hubbard St,2016
306,2014,232,41.949275,-87.646303,Pine Grove Ave & Waveland Ave,2014
307,2014,311,41.968885,-87.684001,Leavitt St & Lawrence Ave,2014
308,2014,344,41.96909,-87.674237,Ravenswood Ave & Lawrence Ave,2014
309,2015,2,41.872293,-87.624091,Michigan Ave & Balbo Ave,2016
310,2015,3,41.86722596,-87.61535539,Shedd Aquarium,2019
311,2015,4,41.856268,-87.613348,Burnham Harbor,2019
312,2015,6,41.88504199,-87.61279454,Dusable Harbor,2016
313,2015,7,41.88634906,-87.61751655,Field Blvd & South Water St,2017
314,2015,9,41.82879202,-87.68060446,Loomis St & Taylor St (*),2019
315,2015,11,41.76663824,-87.57645011,Jeffery Blvd & 71st St,2019
316,2015,12,41.76640946,-87.56568757,South Shore Dr & 71st St,2019
317,2015,18,41.88327159,-87.63731329,Wacker Dr & Washington St,2019
318,2015,38,41.88602083,-87.63087606,Clark St & Lake St,2019
319,2015,39,41.87947235,-87.62568861,Wabash Ave & Adams St,2019
320,2015,40,41.87934437,-87.63198522,LaSalle St & Adams St,2017
321,2015,41,41.87207763,-87.62954377,Federal St & Polk St,2019
322,2015,89,41.87500913,-87.63310582,Financial Pl & Congress Pkwy,2019
323,2015,95,41.77870057,-87.58678762,Stony Island Ave & 64th St,2019
324,2015,96,41.88461619,-87.64457058,Desplaines St & Randolph St,2019
325,2015,101,41.78101637,-87.57611976,63rd St Beach,2019
326,2015,102,41.773458500000004,-87.58533974,Stony Island Ave & 67th St,2019
327,2015,107,41.878287,-87.643909,Desplaines St & Jackson Blvd,2017
328,2015,109,41.874675,-87.650019,900 W Harrison St,2019
329,2015,110,41.893992,-87.62931800000001,Dearborn St & Erie St,2019
330,2015,125,41.890011,-87.626293,Rush St & Hubbard St,2019
331,2015,133,41.88917683,-87.63850577,Kingsbury St & Kinzie St,2019
332,2015,142,41.8943136,-87.61742002,McClurg Ct & Erie St,2019
333,2015,145,41.89858665,-87.62191523,Mies van der Rohe Way & Chestnut St,2019
334,2015,161,41.89576475,-87.62590803,Rush St & Superior St,2016
335,2015,172,41.902308700000006,-87.62769053,Rush St & Cedar St,2019
336,2015,180,41.906782,-87.626402,Ritchie Ct & Banks St,2019
337,2015,182,41.903222,-87.63432399999999,Wells St & Elm St,2016
338,2015,270,41.75866967,-87.58688287,Stony Island Ave & 75th St,2019
339,2015,273,41.860203999999996,-87.623355,Michigan Ave & 16th St,2019
340,2015,304,41.949078,-87.648536,Broadway & Waveland Ave,2019
341,2015,352,41.77351755,-87.57714283,Jeffery Blvd & 67th St,2019
342,2015,353,42.01256012,-87.67436712,Clark St & Touhy Ave,2019
343,2015,354,42.01058656,-87.66241209,Sheridan Rd & Greenleaf Ave,2019
344,2015,355,41.77366885,-87.56733865,South Shore Dr & 67th St,2019
345,2015,356,41.76649294,-87.58646088,Stony Island Ave & 71st St,2019
346,2015,359,41.90348607,-87.64335349,Larrabee St & Division St,2019
347,2015,364,41.90021949,-87.64298547,Larrabee St & Oak St,2019
348,2015,365,41.89936844,-87.64847988,Halsted St & North Branch St,2019
349,2015,366,41.84163254,-87.65743495,Loomis St & Archer Ave,2019
350,2015,368,41.83920868,-87.66560986,Ashland Ave & Archer Ave,2019
351,2015,369,41.83010465,-87.67029831,Wood St & 35th St,2019
352,2015,370,41.85418425,-87.61915374,Calumet Ave & 21st St,2019
353,2015,372,41.89935755,-87.69643947,California Ave & Augusta Blvd,2016
354,2015,373,41.8954653,-87.70612788,Kedzie Ave & Chicago Ave,2019
355,2015,374,41.89841769,-87.68659602,Western Ave & Walton St,2019
356,2015,375,41.889727,-87.70103,Sacramento Blvd & Franklin Blvd,2019
357,2015,376,41.88949182,-87.68821936,Artesian Ave & Hubbard St,2019
358,2015,377,41.88460329,-87.70630374,Kedzie Ave & Lake St,2019
359,2015,378,41.88445396,-87.69629814,California Ave & Lake St,2019
360,2015,381,41.87978771,-87.68611281,Western Ave & Monroe St,2019
361,2015,382,41.87474885,-87.68644528,Western Ave & Congress Pkwy,2019
362,2015,383,41.87429061,-87.66724564,Ashland Ave & Harrison St,2019
363,2015,384,41.80183164,-87.6452139,Halsted St & 51st St,2019
364,2015,385,41.794982,-87.633124,Princeton Ave & Garfield Blvd,2019
365,2015,386,41.79292965,-87.64499006,Halsted St & 56th St,2019
366,2015,388,41.77938114,-87.64462081,Halsted St & 63rd St,2019
367,2015,390,41.78007963,-87.62974631,Wentworth Ave & 63rd St,2019
368,2015,391,41.76906172,-87.64461358,Halsted St & 69th St,2019
369,2015,392,41.76929309,-87.62819593,Perry Ave & 69th St,2019
370,2015,393,41.76550801,-87.61691793,Calumet Ave & 71st St,2019
371,2015,395,41.75712007,-87.57583936,Jeffery Blvd & 76th St,2019
372,2015,396,41.758767999999996,-87.56644,Yates Blvd & 75th St,2019
373,2015,397,41.75874584,-87.56011478,Saginaw Ave & Exchange Ave,2019
374,2015,398,41.75787145,-87.54938625,Rainbow Beach,2019
375,2015,399,41.76218896,-87.55927465,South Shore Dr & 74th St,2019
376,2015,400,41.76571904,-87.60495971,Cottage Grove Ave & 71st St,2019
377,2015,401,41.842733,-87.635491,Shields Ave & 28th Pl,2019
378,2015,402,41.83802029,-87.63400933,Princeton Ave & 31st St,2016
379,2015,403,41.83452989,-87.63182298,Wentworth Ave & 33rd St,2019
380,2015,406,41.83127424,-87.60879919,Lake Park Ave & 35th St,2019
381,2015,407,41.82301524,-87.62656802,State St & Pershing Rd,2019
382,2015,408,41.81763809,-87.64356503,Union Ave & 42nd St,2017
383,2015,409,41.81620768,-87.63481935,Shields Ave & 43rd St,2018
384,2015,410,41.81665889,-87.61941246,Prairie Ave & 43rd St,2019
385,2015,411,41.80813391,-87.64561655,MLK Jr Dr & 56th St (*),2019
386,2015,412,41.80931771,-87.63344929,Princeton Ave & 47th St,2019
387,2015,413,41.81409271,-87.59700515,Woodlawn Ave & Lake Park Ave,2019
388,2015,414,41.85366109,-87.63513546,Princeton Ave & China Pl,2016
389,2015,415,41.80229465,-87.61805358,Calumet Ave & 51st St,2019
390,2015,416,41.805772,-87.592464,Dorchester Ave & 49th St,2019
391,2015,418,41.79933626,-87.60095811,Ellis Ave & 53rd St,2019
392,2015,419,41.79949429,-87.5864499,Lake Park Ave & 53rd St,2019
393,2015,420,41.79430062,-87.60144977,Ellis Ave & 55th St,2019
394,2015,422,41.79156801,-87.60785218,DuSable Museum,2019
395,2015,423,41.79147573,-87.59941433,University Ave & 57th St,2019
396,2015,424,41.79172821,-87.58394501,Museum of Science and Industry,2019
397,2015,425,41.78794281,-87.58831517,Harper Ave & 59th St,2019
398,2015,426,41.78509715,-87.60107276,Ellis Ave & 60th St,2019
399,2015,427,41.78059901,-87.60611239,Cottage Grove Ave & 63rd St,2019
400,2015,428,41.78040565,-87.59141599,Dorchester Ave & 63rd St,2019
401,2015,429,41.77372095,-87.60563486,Cottage Grove Ave & 67th St,2019
402,2015,430,41.78008064,-87.61594286,MLK Jr Dr & 63rd St,2019
403,2015,431,41.78414169,-87.61330783,Eberhart Ave & 61st St,2019
404,2015,432,42.00906913,-87.67371139,Clark St & Lunt Ave,2019
405,2015,433,41.87359967,-87.70487075,Kedzie Ave & Harrison St,2019
406,2015,434,41.86650148,-87.68469707,Ogden Ave & Roosevelt Rd,2019
407,2015,435,41.86649278,-87.70649618,Kedzie Ave & Roosevelt Rd,2019
408,2015,437,41.86148,-87.693374,Washtenaw Ave & 15th St (*),2019
409,2015,438,41.85420431,-87.71540584,Central Park Ave & Ogden Ave,2019
410,2015,439,41.85353363,-87.70507303,Kedzie Ave & 21st St,2019
411,2015,440,41.84988195,-87.71700039,Lawndale Ave & 23rd St,2018
412,2015,441,41.84819094,-87.70541375,Kedzie Ave & 24th St,2019
413,2015,442,41.84910969,-87.69513981,California Ave & 23rd Pl,2019
414,2015,443,41.84456685,-87.71591031,Millard Ave & 26th St,2019
415,2015,444,41.84447501,-87.70201301,Albany Ave & 26th St,2019
416,2015,445,41.84404003,-87.69529592,California Ave & 26th St,2019
417,2015,446,41.84151771,-87.68513144,Western Ave & 28th St,2017
418,2015,447,42.00797192,-87.66550239,Glenwood Ave & Morse Ave,2019
419,2015,448,42.00454962,-87.68066615,Warren Park East,2019
420,2015,449,42.00445063,-87.67240240000001,Clark St & Columbia Ave,2019
421,2015,450,42.00200726,-87.68972623,Warren Park West,2019
422,2015,451,42.00104378,-87.66119824,Sheridan Rd & Loyola Ave,2019
423,2015,452,41.99416137,-87.68943828,Western Ave & Granville Ave,2019
424,2015,453,41.99925182,-87.67137734,Clark St & Schreiber Ave,2019
425,2015,454,41.99477969,-87.66028453,Broadway & Granville Ave,2019
426,2015,455,41.99023603,-87.69336964,Maplewood Ave & Peterson Ave,2019
427,2015,456,41.991178000000005,-87.683593,2112 W Peterson Ave,2019
428,2015,457,41.99089375,-87.66958340000001,Clark St & Elmdale Ave,2019
429,2015,458,41.98974251,-87.66014062,Broadway & Thorndale Ave,2019
430,2015,459,41.984036700000004,-87.65231047,Lakefront Trail & Bryn Mawr Ave,2019
431,2015,460,41.98356935,-87.66912477,Clark St & Bryn Mawr Ave,2019
432,2015,461,41.98404461,-87.66027383,Broadway & Ridge Ave,2019
433,2015,462,41.97977022,-87.67581473,Ravenswood Ave & Balmoral Ave,2018
434,2015,464,41.975614799999995,-87.67945904,Damen Ave & Foster Ave,2019
435,2015,465,41.9716,-87.650154,Marine Dr & Ainslie St,2019
436,2015,466,42.01213228,-87.68291264,Ridge Blvd & Touhy Ave,2019
437,2015,467,42.00859439999999,-87.69049224,Western Ave & Lunt Ave,2019
438,2015,468,41.98366471,-87.69642256,Budlong Woods Library,2019
439,2015,469,41.98039423,-87.71611496,St. Louis Ave & Balmoral Ave,2019
440,2015,470,41.975671999999996,-87.709261,Kedzie Ave & Foster Ave,2019
441,2015,471,41.97563273,-87.70141944,Francisco Ave & Foster Ave,2019
442,2015,472,41.974911299999995,-87.69250256,Lincoln Ave & Winona St,2019
443,2015,474,41.96835449,-87.71183067,Christiana Ave & Lawrence Ave,2019
444,2015,475,41.96871107,-87.69616957,Washtenaw Ave & Lawrence Ave,2019
445,2015,476,41.96668636,-87.70805198,Kedzie Ave & Leland Ave,2019
446,2015,477,41.96631753,-87.70108268,Manor Ave & Leland Ave,2019
447,2015,478,41.96590014,-87.69363849,Rockwell St & Eastwood Ave,2019
448,2015,479,41.96115408,-87.71656907,Drake Ave & Montrose Ave,2019
449,2015,480,41.96198976,-87.70816838,Kedzie Ave & Montrose Ave,2017
450,2015,481,41.961068,-87.69543900000001,California Ave & Montrose Ave,2019
451,2015,482,41.96152593,-87.69116504,Campbell Ave & Montrose Ave,2019
452,2015,483,41.95384975,-87.73237045,Keeler Ave & Irving Park Rd,2016
453,2015,484,41.95400484,-87.71912818,Monticello Ave & Irving Park Rd,2019
454,2015,485,41.95358618,-87.7093108,Sawyer Ave & Irving Park Rd,2019
455,2015,486,41.95434085,-87.68607962,Oakley Ave & Irving Park Rd,2019
456,2015,488,41.94563644,-87.72773681,Pulaksi Rd & Eddy St,2016
457,2015,489,41.94678185,-87.71642152,Drake Ave & Addison St,2019
458,2015,490,41.94524357,-87.7066499,Troy St & Elston Ave,2019
459,2015,491,41.94663583,-87.69461476,Talman Ave & Addison St,2019
460,2015,492,41.94702904,-87.68336721,Leavitt St & Addison St,2019
461,2015,493,41.94302616,-87.68739454,Western Ave & Roscoe St,2017
462,2015,494,41.98239708,-87.70892252,Kedzie Ave & Bryn Mawr Ave,2019
463,2015,495,41.96110802,-87.72897009999998,Keystone Ave & Montrose Ave,2019
464,2015,496,41.93944839,-87.72355383,Avers Ave & Belmont Ave,2019
465,2015,497,41.93939154,-87.71224084,Kimball Ave & Belmont Ave,2019
466,2015,498,41.93842879,-87.69800776,California Ave & Fletcher St,2019
467,2015,499,41.93058537,-87.72377736,Kosciuszko Park,2019
468,2015,500,41.93533728,-87.71688929,Central Park Ave & Elbridge Ave,2019
469,2015,501,41.93190197,-87.70119513,Richmond St & Diversey Ave,2019
470,2015,502,41.926618,-87.69789899999999,California Ave & Altgeld St,2019
471,2015,503,41.92439882,-87.71544104,Drake Ave & Fullerton Ave,2019
472,2015,504,41.92463247,-87.68930701,Campbell Ave & Fullerton Ave,2019
473,2015,505,41.92409085,-87.67646007,Winchester Ave & Elston Ave,2019
474,2015,506,41.91718375,-87.71035665,Spaulding Ave & Armitage Ave,2019
475,2015,507,41.91751339,-87.70180896,Humboldt Blvd & Armitage Ave,2019
476,2015,508,41.90965688,-87.71663195,Central Park Ave & North Ave,2019
477,2015,509,41.909769299999994,-87.70528049,Troy St & North Ave,2019
478,2015,510,41.90270659,-87.70921957,Spaulding Ave & Division St,2019
479,2015,511,41.91402671,-87.70512646,Albany Ave & Bloomingdale Ave,2019
480,2016,80,41.880456,-87.653929,Aberdeen St & Monroe St,2016
481,2016,555,41.803022999999996,-87.664699,Ashland Ave & 50th St,2019
482,2016,563,41.779374,-87.664843,Ashland Ave & 63rd St,2019
483,2016,565,41.774074,-87.663815,Ashland Ave & 66th St,2019
484,2016,566,41.768726,-87.664069,Ashland Ave & 69th St,2019
485,2016,558,41.792821999999994,-87.664429,Ashland Ave & Garfield Blvd,2016
486,2016,552,41.80887,-87.66454,Ashland Ave & McDowell Ave,2019
487,2016,547,41.823465,-87.665577,Ashland Ave & Pershing Rd,2019
488,2016,532,41.887919000000004,-87.774446,Austin Blvd & Lake St,2019
489,2016,2,41.872667,-87.623971,Buckingham Fountain,2019
490,2016,414,41.870257,-87.63947399999999,Canal St & Taylor St,2015
491,2016,541,41.872993,-87.764499,Central Ave & Harrison St,2019
492,2016,542,41.880121,-87.763238,Central Ave & Madison St,2017
493,2016,533,41.875679,-87.71547,Central Park Blvd & 5th Ave,2019
494,2016,538,41.872131,-87.746619,Cicero Ave & Flournoy St,2018
495,2016,529,41.886841,-87.745261,Cicero Ave & Lake St,2019
496,2016,394,41.870816,-87.63124599999999,Clark St & 9th St (AMLI),2019
497,2016,518,41.885502,-87.71686600000001,Conservatory Dr & Lake St,2019
498,2016,554,41.800908,-87.674684,Damen Ave & 51st St,2018
499,2016,561,41.783681,-87.67410100000001,Damen Ave & 61st St,2017
500,2016,557,41.794587,-87.674254,Damen Ave & Garfield Blvd,2017
501,2016,546,41.823192,-87.676597,Damen Ave & Pershing Rd,2019
502,2016,6,41.885042,-87.61279499999999,DuSable Harbor,2019
503,2016,553,41.80839,-87.656526,Elizabeth St & 47th St,2019
504,2016,315,41.912919,-87.664169,Elston Ave & Wabansia Ave,2019
505,2016,570,41.758308,-87.606685,Evans Ave & 75th St,2019
506,2016,436,41.866624,-87.694521,Sangamon St & Washington Blvd (*),2019
507,2016,287,41.880317,-87.63518499999999,Franklin St & Monroe St,2018
508,2016,198,41.881892,-87.64878900000001,Green St & Madison St,2019
509,2016,593,41.787539,-87.644874,Halsted St & 59th St,2019
510,2016,55,41.867323999999996,-87.648625,Halsted St & Roosevelt Rd,2019
511,2016,551,41.808227,-87.67718,Wallace St & 35th St,2019
512,2016,372,41.900146,-87.70288199999999,Humboldt Dr & Luis Munoz Marin Dr,2019
513,2016,537,41.880708,-87.74101800000001,Kenton Ave & Madison St,2019
514,2016,545,41.877917,-87.735737,Kostner Ave & Adams St,2019
515,2016,536,41.885928,-87.73541,Kostner Ave & Lake St,2019
516,2016,543,41.875806,-87.755285,Laramie Ave & Gladys Ave,2019
517,2016,530,41.887832,-87.755527,Laramie Ave & Kinzie St,2019
518,2016,540,41.88051,-87.75393299999999,Laramie Ave & Madison St,2018
519,2016,549,41.813996,-87.666589,Marshfield Ave & 44th St,2019
520,2016,560,41.786833,-87.66621500000001,Marshfield Ave & 59th St,2019
521,2016,544,41.879979999999996,-87.773264,Mason Ave & Madison St,2017
522,2016,567,41.768938,-87.652934,May St & 69th St,2019
523,2016,548,41.823613,-87.650931,Morgan St & Pershing Rd,2019
524,2016,568,41.763462,-87.637297,Normal Ave & 72nd St,2019
525,2016,16,41.910337,-87.67007199999999,Paulina Ave & North Ave,2019
526,2016,535,41.874325,-87.72570400000001,Pulaski Rd & Congress Pkwy,2017
527,2016,488,41.945636,-87.727737,Pulaski Rd & Eddy St,2018
528,2016,528,41.885409,-87.72649100000001,Pulaski Rd & Lake St,2019
529,2016,562,41.783189,-87.654372,Racine Ave & 61st St,2019
530,2016,564,41.775393,-87.654308,Racine Ave & 65th St,2019
531,2016,559,41.794694,-87.65494699999999,Racine Ave & Garfield Blvd,2019
532,2016,402,41.838464,-87.635406,Shields Ave & 31st St,2019
533,2016,572,41.756971,-87.62462099999999,State St & 76th St,2019
534,2016,35,41.892278000000005,-87.612043,Streeter Dr & Grand Ave,2019
535,2016,556,41.799659000000005,-87.657195,Throop St & 52nd St,2019
536,2016,72,41.860384,-87.625813,Wabash Ave & 16th St,2019
537,2016,212,41.892154,-87.636928,Orleans St & Ohio St,2019
538,2016,53,41.894729,-87.633775,Wells St & Huron St,2019
539,2016,594,41.805661,-87.683392,Western Blvd & 48th Pl,2019
540,2016,569,41.759159999999994,-87.595751,Woodlawn Ave & 75th St,2019
541,2016,596,42.048214,-87.683485,Benson Ave & Church St,2019
542,2016,601,42.063598,-87.69873,Central St Metra,2019
543,2016,597,42.032562,-87.679101,Chicago Ave & Washington St,2019
544,2016,600,42.048308,-87.698224,Dodge Ave & Church St,2019
545,2016,607,41.898168,-87.783055,Cuyler Ave & Augusta St,2017
546,2016,617,41.871311999999996,-87.788938,East Ave & Garfield St,2019
547,2016,614,41.880113,-87.789247,East Ave & Madison St,2019
548,2016,609,41.888909999999996,-87.800255,Forest Ave & Lake St,2019
549,2016,608,41.890491,-87.776842,Humphrey Ave & Ontario St,2019
550,2016,618,41.87055,-87.77919,Lombard Ave & Garfield St,2019
551,2016,615,41.87981,-87.779425,Lombard Ave & Madison St,2019
552,2016,610,41.88681,-87.80287,Marion St & South Blvd,2019
553,2016,616,41.872987,-87.793945,Oak Park Ave & Harrison St,2019
554,2016,611,41.886922999999996,-87.793899,Oak Park Ave & South Blvd,2019
555,2016,613,41.879837,-87.80224,Wisconsin Ave & Madison St,2017
556,2016,480,41.961040999999994,-87.705866,Albany (Kedzie) Ave & Montrose Ave,2019
557,2016,524,41.894887,-87.774704,Austin Blvd & Chicago Ave,2019
558,2016,483,41.953393,-87.73200200000001,Avondale Ave & Irving Park Rd,2019
559,2016,522,42.019537,-87.669563,Bosworth Ave & Howard St,2019
560,2016,191,41.880884,-87.639525,Canal St & Monroe St (*),2019
561,2016,550,41.894958,-87.764902,Central Ave & Chicago Ave,2019
562,2016,531,41.887664,-87.765469,Central Ave & Lake St,2018
563,2016,602,42.063999,-87.685962,Central St & Girard Ave,2019
564,2016,578,41.751802000000005,-87.574845,Chappel Ave & 79th St,2017
565,2016,603,42.050491,-87.677821,Chicago Ave & Sheridan Rd,2019
566,2016,517,42.015963,-87.675005,Clark St & Jarvis Ave,2019
567,2016,581,41.744607,-87.551201,Commercial Ave & 83rd St,2019
568,2016,575,41.753174,-87.605026,Cottage Grove Ave & 78th St,2017
569,2016,585,41.744053,-87.604786,Cottage Grove Ave & 83rd St,2019
570,2016,584,41.744122999999995,-87.599034,Ellis Ave & 83rd St,2019
571,2016,598,42.025784,-87.684107,Elmwood Ave & Austin St,2019
572,2016,580,41.751731,-87.552812,Exchange Ave & 79th St,2019
573,2016,97,41.865312,-87.617867,Field Museum,2019
574,2016,606,41.894071000000004,-87.80036700000001,Forest Ave & Chicago Ave,2019
575,2016,525,42.012701,-87.66605799999999,Glenwood Ave & Touhy Ave,2019
576,2016,520,42.015962,-87.66856999999999,Greenview Ave & Jarvis Ave,2019
577,2016,576,41.751294,-87.59755200000001,Greenwood Ave & 79th St,2019
578,2016,331,41.908537,-87.648627,Halsted St & Blackhawk St (*),2019
579,2016,619,41.924361,-87.727752,Keystone Ave & Fullerton Ave,2016
580,2016,590,41.953733,-87.740569,Kilbourn Ave & Irving Park Rd,2019
581,2016,591,41.948818,-87.74002,Kilbourn Ave & Milwaukee Ave,2019
582,2016,592,41.960631,-87.745359,Knox Ave & Montrose Ave,2019
583,2016,589,41.954468,-87.74959399999999,Milwaukee Ave & Cuyler Ave,2019
584,2016,586,41.743116,-87.6148,MLK Jr Dr & 83rd St,2019
585,2016,526,42.012342,-87.688243,Oakley Ave & Touhy Ave,2019
586,2016,620,41.898203,-87.637536,Orleans St & Chestnut St (NEXT Apts),2019
587,2016,515,42.019159,-87.673573,Paulina St & Howard St,2019
588,2016,579,41.75182,-87.565211,Phillips Ave & 79th St,2019
589,2016,582,41.746334000000004,-87.564725,Phillips Ave & 82nd St,2017
590,2016,238,41.961615,-87.67436500000001,Ravenswood Ave & Montrose Ave (*),2019
591,2016,514,42.019276,-87.68451999999999,Ridge Blvd & Howard St,2019
592,2016,612,41.888085,-87.785236,Ridgeland Ave & Lake St,2019
593,2016,604,42.058239,-87.677432,Sheridan Rd & Noyes St (NU),2019
594,2016,588,41.743921,-87.575225,South Chicago Ave & 83rd St,2019
595,2016,573,41.750794,-87.624424,State St & 79th St,2019
596,2016,583,41.746559000000005,-87.586005,Stony Island Ave & 82nd St,2019
597,2016,577,41.751173,-87.585337,Stony Island Ave & South Chicago Ave,2019
598,2016,605,42.052939,-87.673447,University Library (NU),2019
599,2016,599,42.039742,-87.699413,Valli Produce - Evanston Plaza,2019
600,2016,571,41.758361,-87.614138,Vernon Ave & 75th St,2019
601,2016,574,41.750951,-87.613783,Vernon Ave & 79th St,2017
602,2016,587,41.743316,-87.622849,Wabash Ave & 83rd St,2019
603,2016,595,41.736646,-87.62263399999999,Wabash Ave & 87th St,2019
604,2016,405,41.830777000000005,-87.632504,Wentworth Ave & 35th St,2019
605,2016,527,42.018901,-87.690048,Western Ave & Howard St,2019
606,2016,519,42.016977000000004,-87.677725,Wolcott Ave & Fargo Ave,2019
607,2017,80,41.881567,-87.655056,Aberdeen St & Madison (Monroe) St,2016
608,2017,578,41.751785,-87.578496,Bennett Ave & 79th St,2017
609,2017,622,41.900363,-87.696704,California Ave & Cortez St,2019
610,2017,561,41.78602,-87.67416700000001,Damen Ave & 59th St,2016
611,2017,623,41.872772999999995,-87.623981,Michigan Ave & 8th St,2019
612,2017,84,41.891578,-87.648384,Milwaukee Ave & Grand Ave,2019
613,2017,88,41.884069000000004,-87.656853,Racine Ave & Randolph St,2019
614,2017,217,41.886926,-87.65691899999999,Racine Ave (May St) & Fulton St,2019
615,2017,557,41.794087,-87.675478,Seeley Ave & Garfield Blvd,2019
616,2017,114,41.949399,-87.65452900000001,Sheffield Ave & Waveland Ave,2019
617,2017,408,41.819102,-87.64327800000001,Union Ave & Root St,2019
618,2017,285,41.889587,-87.67195600000001,Wood St & Hubbard St,2019
619,2017,17,41.903119000000004,-87.673935,Honore St & Division St,2019
620,2017,53,41.894882,-87.632326,LaSalle (Wells) St & Huron St,2019
621,2017,321,41.870769,-87.625734,Wabash Ave & 9th St,2019
622,2017,437,41.861894,-87.693511,Washtenaw Ave & Ogden Ave (*),2019
623,2017,480,41.961040999999994,-87.705866,Albany Ave & Montrose Ave,2019
624,2017,544,41.880281,-87.77445300000001,Austin Blvd & Madison St,2019
625,2017,574,41.751345,-87.61256800000001,Eberhart (Vernon) Ave & 79th St,2019
626,2017,582,41.744688000000004,-87.566066,Phillips Ave & 83rd St,2019
627,2017,613,41.879902,-87.803911,Wisconsin Ave & Madison St (Temp),2019
628,2017,624,41.876267999999996,-87.62915500000001,Dearborn St & Van Buren St (*),2019
629,2017,625,42.041691,-87.680687,Chicago Ave & Dempster St,2019
630,2017,626,41.867490999999994,-87.63219000000001,Delano Ct & Roosevelt Rd,2019
631,2018,621,41.884114000000004,-87.654264,Aberdeen St & Randolph St,2019
632,2019,645,41.826712,-87.683144,Archer (Damen) Ave & 37th St,2019
633,2018,640,41.949923,-87.713949,Bernard St & Elston Ave,2019
634,2018,332,41.93314,-87.64775999999999,Burling St (Halsted) & Diversey Pkwy (Temp),2019
635,2018,648,41.77987,-87.65091899999999,Carpenter St & 63rd St,2019
636,2018,440,41.8481,-87.715068,Central Park Ave & 24th St,2019
637,2018,641,41.914165999999994,-87.716755,Central Park Ave & Bloomingdale Ave,2019
638,2019,666,41.907221,-87.655618,Cherry Ave & Blackhawk St,2019
639,2018,220,41.931248,-87.644336,Clark St & Drummond Pl,2019
640,2019,50,41.875932666,-87.630584536,Clark St & Ida B Wells Dr,2019
641,2018,632,41.94454,-87.654678,Clark St & Newport St,2019
642,2019,638,41.87811603,-87.63983845700001,Clinton St & Jackson Blvd (*),2019
643,2018,653,41.780595,-87.584846,Cornell Dr & Hayes Dr,2019
644,2018,183,41.901315000000004,-87.677409,Damen Ave & Thomas St (Augusta Blvd),2019
645,2018,656,41.885951,-87.677009,Damen Ave & Walnut (Lake) St (*),2019
646,2018,662,42.023463,-87.699595,Dodge Ave & Mulford St,2019
647,2018,650,41.768898,-87.635876,Eggleston Ave & 69th St (*),2019
648,2019,217,41.886616486,-87.658039927,Elizabeth (May) St & Fulton St,2019
649,2018,661,42.057044,-87.686554,Evanston Civic Center,2019
650,2019,635,41.895748,-87.620104,Fairbanks St & Superior St (*),2019
651,2019,89,41.875023628,-87.63309404299999,Financial Pl & Ida B Wells Dr,2019
652,2019,286,41.879434091,-87.63550400700001,Franklin St & Adams St (Temp),2019
653,2019,672,41.89102331,-87.635479867,Franklin St & Illinois St,2019
654,2019,331,41.909667999999996,-87.648128,Halsted St & Clybourn Ave (*),2019
655,2018,655,41.979851000000004,-87.68193199999999,Hoyne Ave & Balmoral Ave,2019
656,2018,534,41.88085,-87.727907,Karlov Ave & Madison St,2019
657,2018,630,41.961079999999995,-87.73569,Kildare Ave & Montrose Ave,2019
658,2019,627,41.894877,-87.632326,LaSalle Dr & Huron St (*),2019
659,2018,639,41.965845,-87.645361,Lakefront Trail & Wilson Ave,2019
660,2019,642,41.894745,-87.756895,Latrobe Ave & Chicago Ave,2019
661,2018,664,41.939353999999994,-87.68328199999999,Leavitt St & Belmont Ave (*),2019
662,2018,659,41.895501,-87.682017,Leavitt St & Chicago Ave,2019
663,2018,658,41.902997,-87.683825,Leavitt St & Division St (*),2019
664,2018,243,41.963004,-87.684781,Lincoln Ave & Sunnyside Ave,2019
665,2019,673,41.923931311,-87.635824531,Lincoln Park Conservatory,2019
666,2018,663,42.064854,-87.71529699999999,Lincolnwood Dr & Central St,2019
667,2018,179,41.8246,-87.61678,MLK Jr Dr & Pershing Rd,2019
668,2018,631,41.877618,-87.673895,Malcolm X College,2019
669,2018,651,41.765285999999996,-87.621748,Michigan Ave & 71st St,2019
670,2019,45,41.876243,-87.624426,Michigan Ave & Ida B Wells Dr,2019
671,2019,636,41.890028,-87.636618,Orleans St & Hubbard St (*),2019
672,2019,383,41.87295,-87.66913000000001,Paulina St & Flournoy St,2019
673,2018,488,41.946264,-87.731023,Pulaski Rd & Eddy St (Temp),2019
674,2018,654,41.883072999999996,-87.656952,Racine Ave & Washington Blvd (*),2019
675,2019,652,41.766000000000005,-87.611726,Rhodes Ave & 71st St,2019
676,2018,660,42.004583000000004,-87.661406,Sheridan Rd & Columbia Ave,2019
677,2018,643,41.892047999999996,-87.689397,Smith Park (*),2019
678,2019,665,41.747363,-87.580046,South Chicago Ave & Elliot Ave,2019
679,2018,646,41.796642,-87.625923,State St & 54th St,2019
680,2018,649,41.779835,-87.634774,Stewart Ave & 63rd St (*),2019
681,2019,19,41.868968,-87.659141,Throop (Loomis) St & Taylor St,2019
682,2019,568,41.75797,-87.63121,Vincennes Ave & 75th St,2019
683,2018,628,41.914609999999996,-87.667968,Walsh Park,2019
684,2019,132,41.850083693,-87.63214051700001,Wentworth Ave & 24th St (Temp),2019
685,2018,120,41.853004999999996,-87.630578,Wentworth Ave & Cermak Rd (Temp),2019
686,2018,644,41.868563,-87.686234,Western Ave & Fillmore St (*),2019
687,2018,462,41.979762,-87.67753,Winchester (Ravenswood) Ave & Balmoral Ave,2019
688,2018,253,41.968812,-87.657659,Winthrop Ave & Lawrence Ave,2019
689,2019,238,41.961406,-87.67616899999999,Wolcott (Ravenswood) Ave & Montrose Ave (*),2019
690,2018,657,41.899181,-87.6722,Wood St & Augusta Blvd,2019
691,2018,637,41.895634,-87.672069,Wood St & Chicago Ave (*),2019
