[{"id": "3160", "name": "38th & Market", "lat": 39.956619, "lon": -75.198624, "first": "2017-04-01", "last": "2022-03-31"}, {"id": "3046", "name": "2nd & Market", "lat": 39.950119, "lon": -75.144722, "first": "2016-01-01", "last": "2022-03-31"}, {"id": "3006", "name": "40th & Spruce", "lat": 39.952202, "lon": -75.20311, "first": "2016-01-01", "last": "2022-03-31"}, {"id": "3010", "name": "15th & Spruce", "lat": 39.947109, "lon": -75.166183, "first": "2016-01-01", "last": "2022-03-31"}, {"id": "3070", "name": "Spring Garden Station, MFL", "lat": 39.960621, "lon": -75.139832, "first": "2016-01-01", "last": "2022-03-31"}, {"id": "3052", "name": "9th & Locust", "lat": 39.947319, "lon": -75.156952, "first": "2016-01-01", "last": "2022-03-31"}, {"id": "3026", "name": "2nd & Lombard", "lat": 39.94138, "lon": -75.145638, "first": "2016-01-01", "last": "2022-03-31"}, {"id": "3037", "name": "Pennsylvania Convention Center", "lat": 39.954239, "lon": -75.161377, "first": "2016-01-01", "last": "2022-03-31"}, {"id": "3041", "name": "Girard Station, MFL", "lat": 39.968491, "lon": -75.13546, "first": "2016-01-01", "last": "2022-03-31"}, {"id": "3063", "name": "17th & Pine", "lat": 39.946331, "lon": -75.1698, "first": "2016-01-01", "last": "2022-03-31"}, {"id": "3125", "name": "15th & South", "lat": 39.943909, "lon": -75.167351, "first": "2016-04-01", "last": "2022-03-31"}, {"id": "3020", "name": "University City Station", "lat": 39.949219, "lon": -75.190361, "first": "2016-01-01", "last": "2022-03-31"}, {"id": "3099", "name": "4th & Washington", "lat": 39.93401, "lon": -75.15094, "first": "2016-04-01", "last": "2022-03-31"}, {"id": "3061", "name": "23rd & Market", "lat": 39.95425, "lon": -75.177612, "first": "2016-01-01", "last": "2022-03-31"}, {"id": "3072", "name": "Front & Carpenter", "lat": 39.934448, "lon": -75.145409, "first": "2016-01-01", "last": "2022-03-31"}, {"id": "3032", "name": "23rd & South", "lat": 39.945271, "lon": -75.17971, "first": "2016-01-01", "last": "2022-03-31"}, {"id": "3124", "name": "Race Street Pier", "lat": 39.95295, "lon": -75.139793, "first": "2016-04-01", "last": "2022-03-31"}, {"id": "3157", "name": "8th & Mifflin, Bok Building", "lat": 39.925449, "lon": -75.159538, "first": "2017-04-01", "last": "2022-03-31"}, {"id": "3008", "name": "Temple University Station", "lat": 39.980782, "lon": -75.150551, "first": "2016-01-01", "last": "2022-03-31"}, {"id": "3057", "name": "Philadelphia Museum of Art", "lat": 39.964581, "lon": -75.180031, "first": "2016-01-01", "last": "2022-03-31"}, {"id": "3028", "name": "4th & Bainbridge", "lat": 39.940609, "lon": -75.149582, "first": "2016-01-01", "last": "2022-03-31"}, {"id": "3098", "name": "10th & Federal", "lat": 39.934311, "lon": -75.160423, "first": "2016-04-01", "last": "2022-03-31"}, {"id": "3154", "name": "12th & Callowhill", "lat": 39.95924, "lon": -75.158211, "first": "2017-04-01", "last": "2022-03-31"}, {"id": "3045", "name": "13th & Locust", "lat": 39.947922, "lon": -75.162369, "first": "2016-01-01", "last": "2022-03-31"}, {"id": "3004", "name": "Municipal Services Building Plaza", "lat": 39.953781, "lon": -75.163742, "first": "2016-01-01", "last": "2022-03-31"}, {"id": "3112", "name": "48th & Spruce", "lat": 39.953732, "lon": -75.218246, "first": "2016-04-01", "last": "2022-03-31"}, {"id": "3064", "name": "18th & Washington, Chew Playground", "lat": 39.9384, "lon": -75.173271, "first": "2016-01-01", "last": "2022-03-31"}, {"id": "3161", "name": "30th Street Station East", "lat": 39.954861, "lon": -75.180908, "first": "2017-04-01", "last": "2022-03-31"}, {"id": "3049", "name": "Foglietta Plaza", "lat": 39.945091, "lon": -75.142502, "first": "2016-01-01", "last": "2022-03-31"}, {"id": "3036", "name": "2nd & Germantown", "lat": 39.968441, "lon": -75.140007, "first": "2016-01-01", "last": "2019-06-30"}, {"id": "3062", "name": "24th & Sansom", "lat": 39.951969, "lon": -75.179428, "first": "2016-01-01", "last": "2022-03-31"}, {"id": "3170", "name": "Grays Ferry & Pemberton", "lat": 39.94426, "lon": -75.181343, "first": "2017-04-01", "last": "2022-03-31"}, {"id": "3005", "name": "Welcome Park, NPS", "lat": 39.94733, "lon": -75.144028, "first": "2016-01-01", "last": "2022-03-31"}, {"id": "3053", "name": "Point Breeze & Tasker", "lat": 39.932308, "lon": -75.181541, "first": "2016-01-01", "last": "2022-03-31"}, {"id": "3068", "name": "Broad & Federal", "lat": 39.93549, "lon": -75.167107, "first": "2016-01-01", "last": "2022-03-31"}, {"id": "3033", "name": "10th & Chestnut", "lat": 39.95005, "lon": -75.156723, "first": "2016-01-01", "last": "2022-03-31"}, {"id": "3054", "name": "Rodin Museum", "lat": 39.962502, "lon": -75.174202, "first": "2016-01-01", "last": "2022-03-31"}, {"id": "3034", "name": "11th & Reed", "lat": 39.933151, "lon": -75.162483, "first": "2016-01-01", "last": "2022-03-31"}, {"id": "3088", "name": "3rd & Girard", "lat": 39.969841, "lon": -75.1418, "first": "2016-01-01", "last": "2022-03-31"}, {"id": "3019", "name": "6th & Race", "lat": 39.954029, "lon": -75.149834, "first": "2016-01-01", "last": "2022-03-31"}, {"id": "3111", "name": "Parkside & Belmont, Case Building", "lat": 39.978039, "lon": -75.212196, "first": "2016-04-01", "last": "2022-03-31"}, {"id": "3069", "name": "4th & Christian", "lat": 39.937038, "lon": -75.150383, "first": "2016-01-01", "last": "2022-03-31"}, {"id": "3153", "name": "Thompson & Palmer, Adaire School", "lat": 39.97216, "lon": -75.129936, "first": "2017-04-01", "last": "2022-03-31"}, {"id": "3105", "name": "Penn Treaty Park", "lat": 39.966518, "lon": -75.129959, "first": "2016-04-01", "last": "2019-03-31"}, {"id": "3023", "name": "Rittenhouse Square", "lat": 39.950481, "lon": -75.172859, "first": "2016-01-01", "last": "2018-09-30"}, {"id": "3030", "name": "Darien & Catharine", "lat": 39.93935, "lon": -75.157158, "first": "2016-01-01", "last": "2022-03-31"}, {"id": "3066", "name": "19th & Lombard", "lat": 39.94561, "lon": -75.173477, "first": "2016-01-01", "last": "2022-03-31"}, {"id": "3024", "name": "43rd & Chester, Clark Park", "lat": 39.948219, "lon": -75.209084, "first": "2016-01-01", "last": "2022-03-31"}, {"id": "3073", "name": "9th & Spring Garden", "lat": 39.96143, "lon": -75.15242, "first": "2016-01-01", "last": "2022-03-31"}, {"id": "3075", "name": "Fairmount & Ridge", "lat": 39.967178, "lon": -75.161247, "first": "2016-01-01", "last": "2022-03-31"}, {"id": "3018", "name": "12th & Filbert", "lat": 39.952728, "lon": -75.15979, "first": "2016-01-01", "last": "2022-03-31"}, {"id": "3095", "name": "29th & Diamond", "lat": 39.987709, "lon": -75.180519, "first": "2016-04-01", "last": "2019-06-30"}, {"id": "3086", "name": "Broad & Christian", "lat": 39.940189, "lon": -75.166908, "first": "2016-01-01", "last": "2022-03-31"}, {"id": "3050", "name": "9th & Arch", "lat": 39.953388, "lon": -75.154259, "first": "2016-01-01", "last": "2022-03-31"}, {"id": "3056", "name": "Broad & Oxford", "lat": 39.976688, "lon": -75.158127, "first": "2016-01-01", "last": "2022-03-31"}, {"id": "3051", "name": "23rd & Fairmount", "lat": 39.967442, "lon": -75.175072, "first": "2016-01-01", "last": "2022-03-31"}, {"id": "3102", "name": "Pennsylvania & Fairmount Perelman Building", "lat": 39.968182, "lon": -75.180344, "first": "2016-04-01", "last": "2022-03-31"}, {"id": "3097", "name": "Berks Station, MFL", "lat": 39.978882, "lon": -75.133392, "first": "2016-04-01", "last": "2022-03-31"}, {"id": "3022", "name": "Amtrak 30th Street Station", "lat": 39.95472, "lon": -75.183228, "first": "2016-01-01", "last": "2022-03-31"}, {"id": "3156", "name": "20th & Market", "lat": 39.953812, "lon": -75.174072, "first": "2017-04-01", "last": "2022-03-31"}, {"id": "3040", "name": "17th & Spring Garden", "lat": 39.962891, "lon": -75.166061, "first": "2016-01-01", "last": "2022-03-31"}, {"id": "3078", "name": "19th & Market", "lat": 39.953548, "lon": -75.171921, "first": "2016-01-01", "last": "2022-03-31"}, {"id": "3043", "name": "18th & Fernon, Aquinas Center", "lat": 39.93082, "lon": -75.174744, "first": "2016-01-01", "last": "2022-03-31"}, {"id": "3074", "name": "44th & Walnut", "lat": 39.955109, "lon": -75.209869, "first": "2016-01-01", "last": "2022-03-31"}, {"id": "3163", "name": "25th & Locust", "lat": 39.949741, "lon": -75.180969, "first": "2017-04-01", "last": "2022-03-31"}, {"id": "3115", "name": "19th & Girard, PTTI", "lat": 39.97263, "lon": -75.167572, "first": "2016-04-01", "last": "2022-03-31"}, {"id": "3114", "name": "22nd & Federal", "lat": 39.937752, "lon": -75.180122, "first": "2016-04-01", "last": "2022-03-31"}, {"id": "3031", "name": "13th & Montgomery", "lat": 39.980049, "lon": -75.15522, "first": "2016-01-01", "last": "2022-03-31"}, {"id": "3021", "name": "18th & JFK", "lat": 39.953899, "lon": -75.169022, "first": "2016-01-01", "last": "2022-03-31"}, {"id": "3007", "name": "11th & Pine, Kahn Park", "lat": 39.945171, "lon": -75.159927, "first": "2016-01-01", "last": "2022-03-31"}, {"id": "3121", "name": "27th & Girard", "lat": 39.97274, "lon": -75.17939, "first": "2016-04-01", "last": "2022-03-31"}, {"id": "3093", "name": "33rd & Diamond", "lat": 39.988369, "lon": -75.187012, "first": "2016-04-01", "last": "2022-03-31"}, {"id": "3011", "name": "38th & Powelton", "lat": 39.960461, "lon": -75.197006, "first": "2016-01-01", "last": "2022-03-31"}, {"id": "3107", "name": "33rd & Reservoir", "lat": 39.982029, "lon": -75.18866, "first": "2016-04-01", "last": "2022-03-31"}, {"id": "3013", "name": "6th & Fairmount", "lat": 39.963169, "lon": -75.147919, "first": "2016-01-01", "last": "2022-03-31"}, {"id": "3012", "name": "21st & Catharine", "lat": 39.942181, "lon": -75.177467, "first": "2016-01-01", "last": "2022-03-31"}, {"id": "3038", "name": "The Children's Hospital of Philadelphia (CHOP)", "lat": 39.947811, "lon": -75.194092, "first": "2016-01-01", "last": "2022-03-31"}, {"id": "3101", "name": "11th & South", "lat": 39.942951, "lon": -75.159554, "first": "2016-04-01", "last": "2022-03-31"}, {"id": "3120", "name": "31st & Girard", "lat": 39.97522, "lon": -75.186691, "first": "2016-04-01", "last": "2022-03-31"}, {"id": "3058", "name": "20th & Fairmount", "lat": 39.967159, "lon": -75.170013, "first": "2016-01-01", "last": "2022-03-31"}, {"id": "3117", "name": "ParkWest Town Center", "lat": 39.978409, "lon": -75.223991, "first": "2016-07-01", "last": "2022-03-31"}, {"id": "3027", "name": "40th Street Station, MFL", "lat": 39.95694, "lon": -75.200691, "first": "2016-01-01", "last": "2019-12-31"}, {"id": "3025", "name": "11th & Washington", "lat": 39.937241, "lon": -75.161201, "first": "2016-01-01", "last": "2022-03-31"}, {"id": "3100", "name": "Moyamensing & Tasker", "lat": 39.927769, "lon": -75.151031, "first": "2016-04-01", "last": "2022-03-31"}, {"id": "3009", "name": "33rd & Market", "lat": 39.955761, "lon": -75.189819, "first": "2016-01-01", "last": "2022-03-31"}, {"id": "3039", "name": "Broad & Girard", "lat": 39.97121, "lon": -75.159698, "first": "2016-01-01", "last": "2022-03-31"}, {"id": "3029", "name": "36th & Sansom", "lat": 39.9538, "lon": -75.194794, "first": "2016-01-01", "last": "2022-03-31"}, {"id": "3065", "name": "Girard & Hutchinson", "lat": 39.970699, "lon": -75.151711, "first": "2016-01-01", "last": "2022-03-31"}, {"id": "3059", "name": "Spring Garden Station, BSL", "lat": 39.96265, "lon": -75.161743, "first": "2016-01-01", "last": "2022-03-31"}, {"id": "3017", "name": "6th & Berks", "lat": 39.98003, "lon": -75.143707, "first": "2016-01-01", "last": "2022-03-31"}, {"id": "3071", "name": "32nd & Baring, Drexel Park", "lat": 39.961731, "lon": -75.187881, "first": "2016-01-01", "last": "2022-03-31"}, {"id": "3055", "name": "8th & Market", "lat": 39.951118, "lon": -75.154572, "first": "2016-01-01", "last": "2022-03-31"}, {"id": "3060", "name": "Free Library of Philadelphia - Central Library", "lat": 39.959229, "lon": -75.170357, "first": "2016-01-01", "last": "2022-03-31"}, {"id": "3108", "name": "15th & Market", "lat": 39.953159, "lon": -75.165512, "first": "2016-04-01", "last": "2022-03-31"}, {"id": "3119", "name": "42nd & Lancaster", "lat": 39.96674, "lon": -75.207993, "first": "2016-04-01", "last": "2022-03-31"}, {"id": "3035", "name": "Dornsife Center", "lat": 39.962711, "lon": -75.194191, "first": "2016-01-01", "last": "2022-03-31"}, {"id": "3150", "name": "15th & Castle, DiSilvestro Playground", "lat": 39.928841, "lon": -75.170212, "first": "2017-04-01", "last": "2022-03-31"}, {"id": "3123", "name": "22nd & Cecil B. Moore", "lat": 39.980042, "lon": -75.170883, "first": "2016-04-01", "last": "2022-03-31"}, {"id": "3158", "name": "Broad & Passyunk", "lat": 39.925522, "lon": -75.169037, "first": "2017-04-01", "last": "2022-03-31"}, {"id": "3122", "name": "24th & Cecil B. Moore, Cecil B. Moore Library", "lat": 39.980621, "lon": -75.1735, "first": "2016-04-01", "last": "2018-12-31"}, {"id": "3015", "name": "4th & Walnut, NPS", "lat": 39.94735, "lon": -75.148857, "first": "2016-01-01", "last": "2022-03-31"}, {"id": "3118", "name": "46th Street Station, MFL", "lat": 39.95866, "lon": -75.213226, "first": "2016-04-01", "last": "2022-03-31"}, {"id": "3047", "name": "Independence Mall, NPS", "lat": 39.95071, "lon": -75.149208, "first": "2016-01-01", "last": "2022-03-31"}, {"id": "3016", "name": "11th & Poplar, John F. Street Community Center", "lat": 39.968922, "lon": -75.154701, "first": "2016-01-01", "last": "2022-03-31"}, {"id": "3113", "name": "Philadelphia Zoo", "lat": 39.97472, "lon": -75.197807, "first": "2016-04-01", "last": "2022-03-31"}, {"id": "3162", "name": "27th & South", "lat": 39.94595, "lon": -75.184753, "first": "2017-04-01", "last": "2022-03-31"}, {"id": "3110", "name": "Del. River Trail & Penn St.", "lat": 39.96175, "lon": -75.136414, "first": "2016-04-01", "last": "2022-03-31"}, {"id": "3129", "name": "The Children's Hospital of Philadelphia, Osler Circle", "lat": 39.946812, "lon": -75.193108, "first": "2016-04-01", "last": "2020-06-30"}, {"id": "3106", "name": "33rd & Dauphin", "lat": 39.991791, "lon": -75.186371, "first": "2016-04-01", "last": "2022-03-31"}, {"id": "3103", "name": "27th & Master, Athletic Recreation Center", "lat": 39.977139, "lon": -75.179398, "first": "2016-04-01", "last": "2019-06-30"}, {"id": "3152", "name": "40th & Baltimore, Trolley Portal", "lat": 39.94952, "lon": -75.20256, "first": "2017-04-01", "last": "2022-03-31"}, {"id": "3159", "name": "38th & Spruce", "lat": 39.95121, "lon": -75.199623, "first": "2017-04-01", "last": "2022-03-31"}, {"id": "3077", "name": "17th & Girard", "lat": 39.972069, "lon": -75.163513, "first": "2016-01-01", "last": "2022-03-31"}, {"id": "3104", "name": "34th & Mantua", "lat": 39.96664, "lon": -75.192093, "first": "2016-04-01", "last": "2022-03-31"}, {"id": "3109", "name": "Parkside & Girard", "lat": 39.974861, "lon": -75.205238, "first": "2016-04-01", "last": "2017-12-31"}, {"id": "3096", "name": "29th & Dauphin", "lat": 39.991192, "lon": -75.179749, "first": "2016-04-01", "last": "2022-03-31"}, {"id": "3067", "name": "39th & Mt. Vernon, Mantua Haverford Community Center", "lat": 39.964111, "lon": -75.19973, "first": "2016-01-01", "last": "2022-03-31"}, {"id": "3014", "name": "21st & Winter, Franklin Institute", "lat": 39.958858, "lon": -75.173691, "first": "2016-01-01", "last": "2022-03-31"}, {"id": "3155", "name": "7th & Fitzwater", "lat": 39.940182, "lon": -75.154419, "first": "2017-09-26", "last": "2022-03-31"}, {"id": "3164", "name": "12th & Passyunk", "lat": 39.928139, "lon": -75.165154, "first": "2017-09-26", "last": "2022-03-31"}, {"id": "3165", "name": "24th & Race SRT", "lat": 39.958191, "lon": -75.1782, "first": "2017-09-27", "last": "2022-03-31"}, {"id": "3169", "name": "2nd & Race", "lat": 39.953819, "lon": -75.142632, "first": "2017-09-28", "last": "2022-03-31"}, {"id": "3168", "name": "20th & Sansom", "lat": 39.95121, "lon": -75.173698, "first": "2017-12-13", "last": "2022-03-31"}, {"id": "3116", "name": "Barnes Foundation", "lat": 39.96006, "lon": -75.171982, "first": "2017-12-14", "last": "2022-03-31"}, {"id": "3167", "name": "12th & Chestnut", "lat": 39.950249, "lon": -75.160278, "first": "2018-01-24", "last": "2022-03-31"}, {"id": "3166", "name": "Frankford & Belgrade", "lat": 39.972351, "lon": -75.134453, "first": "2018-05-09", "last": "2022-03-31"}, {"id": "3184", "name": "Health Sciences Drive", "lat": 39.945621, "lon": -75.195618, "first": "2018-06-19", "last": "2022-03-31"}, {"id": "3183", "name": "15th & Kitty Hawk", "lat": 39.889938, "lon": -75.176788, "first": "2018-06-19", "last": "2022-03-31"}, {"id": "3186", "name": "12th & Normandy", "lat": 39.89307, "lon": -75.171677, "first": "2018-06-19", "last": "2022-03-31"}, {"id": "3185", "name": "11th & Market", "lat": -39.951759, "lon": -75.158318, "first": "2018-06-19", "last": "2022-03-31"}, {"id": "3188", "name": "Broad & Pattison, BSL", "lat": 39.904709, "lon": -75.173401, "first": "2018-06-20", "last": "2022-03-31"}, {"id": "3181", "name": "Crescent Park", "lat": 39.89629, "lon": -75.17514, "first": "2018-06-26", "last": "2022-03-31"}, {"id": "3192", "name": "2nd & Fairmount", "lat": 39.96207, "lon": -75.141113, "first": "2018-08-09", "last": "2021-06-30"}, {"id": "3190", "name": "17th & Locust", "lat": 39.948921, "lon": -75.169907, "first": "2018-09-13", "last": "2022-03-31"}, {"id": "3187", "name": "20th & Race", "lat": 39.957249, "lon": -75.172318, "first": "2018-09-25", "last": "2022-03-31"}, {"id": "3182", "name": "17th & Sansom", "lat": 39.950809, "lon": -75.169533, "first": "2018-10-17", "last": "2022-03-31"}, {"id": "3195", "name": "18th & JFK Curbside", "lat": 39.954102, "lon": -75.169647, "first": "2019-04-06", "last": "2020-06-30"}, {"id": "3196", "name": "25th & Diamond", "lat": 39.987171, "lon": -75.174767, "first": "2019-04-18", "last": "2022-03-31"}, {"id": "3197", "name": "Broad & Ritner", "lat": 39.92083, "lon": -75.170326, "first": "2019-05-14", "last": "2022-03-31"}, {"id": "3200", "name": "Ridge & Master", "lat": 39.97583, "lon": -75.168457, "first": "2019-06-27", "last": "2022-03-31"}, {"id": "3210", "name": "Broad & Diamond", "lat": 39.984921, "lon": -75.156677, "first": "2019-08-28", "last": "2022-03-31"}, {"id": "3206", "name": "18th & Chestnut", "lat": 39.95174, "lon": -75.170631, "first": "2019-08-29", "last": "2022-03-31"}, {"id": "3202", "name": "16th & Chestnut", "lat": 39.95134, "lon": -75.16758, "first": "2019-08-30", "last": "2022-03-31"}, {"id": "3201", "name": "16th & Arch", "lat": 39.955231, "lon": -75.166199, "first": "2019-09-10", "last": "2022-03-31"}, {"id": "3209", "name": "45th & Baltimore", "lat": 39.949001, "lon": -75.212784, "first": "2019-09-11", "last": "2022-03-31"}, {"id": "3208", "name": "34th & Spruce", "lat": 39.950481, "lon": -75.193237, "first": "2019-10-05", "last": "2022-03-31"}, {"id": "3203", "name": "18th & Christian", "lat": 39.940769, "lon": -75.172272, "first": "2019-11-07", "last": "2022-03-31"}, {"id": "3204", "name": "17th & Green", "lat": 39.964371, "lon": -75.165817, "first": "2019-11-15", "last": "2022-03-31"}, {"id": "3205", "name": "17th & JFK", "lat": 39.954048, "lon": -75.167831, "first": "2019-11-25", "last": "2022-03-31"}, {"id": "3211", "name": "Corinthian & Poplar", "lat": 39.971722, "lon": -75.170601, "first": "2020-02-06", "last": "2022-03-31"}, {"id": "3207", "name": "34th & Chestnut", "lat": 39.954411, "lon": -75.192001, "first": "2020-05-20", "last": "2022-03-31"}, {"id": "3212", "name": "Schuylkill Banks Pergola", "lat": 39.963791, "lon": -75.18158, "first": "2020-07-01", "last": "2022-03-31"}, {"id": "3213", "name": "Broad & Carpenter", "lat": 39.938869, "lon": -75.166634, "first": "2020-09-08", "last": "2021-06-30"}, {"id": "3214", "name": "Broad & Cecil B Moore", "lat": 39.978909, "lon": -75.157799, "first": "2020-09-21", "last": "2021-06-30"}, {"id": "3226", "name": "2nd & Norris", "lat": 39.98101, "lon": -75.137207, "first": "2020-12-25", "last": "2022-03-31"}, {"id": "3233", "name": "Race & Franklin", "lat": 39.955009, "lon": -75.152077, "first": "2021-05-14", "last": "2022-03-31"}, {"id": "3234", "name": "20th & Cuthbert", "lat": 39.954849, "lon": -75.172981, "first": "2021-05-11", "last": "2022-03-31"}, {"id": "3235", "name": "16th & Callowhill", "lat": 39.959999, "lon": -75.1651, "first": "2021-05-19", "last": "2022-03-31"}, {"id": "3236", "name": "24th & Pennsylvania", "lat": 39.96566, "lon": -75.17765, "first": "2021-06-01", "last": "2022-03-31"}, {"id": "3237", "name": "Broad & Oregon", "lat": 39.917171, "lon": -75.170959, "first": "2021-05-21", "last": "2022-03-31"}, {"id": "3238", "name": "6th & S Washington Square", "lat": 39.946281, "lon": -75.151382, "first": "2021-06-01", "last": "2022-03-31"}, {"id": "3240", "name": "44th & Haverford", "lat": 39.962769, "lon": -75.211853, "first": "2021-06-25", "last": "2022-03-31"}, {"id": "3241", "name": "52nd & Larchwood - Malcolm X Park", "lat": 39.952251, "lon": -75.226372, "first": "2021-06-15", "last": "2022-03-31"}, {"id": "3253", "name": "27th & Morris - Vare Recreation Center", "lat": 39.93174, "lon": -75.189957, "first": "2022-01-01", "last": "2022-03-31"}, {"id": "3261", "name": "2nd & Brown", "lat": 39.963039, "lon": -75.140991, "first": "2022-01-01", "last": "2022-03-31"}, {"id": "3244", "name": "Broad & Carpenter", "lat": 39.938648, "lon": -75.16674, "first": "2022-01-01", "last": "2022-03-31"}, {"id": "3256", "name": "23rd & Chestnut", "lat": 39.95269, "lon": -75.177788, "first": "2022-01-01", "last": "2022-03-31"}, {"id": "3255", "name": "Broad & Chestnut", "lat": 39.950951, "lon": -75.164383, "first": "2022-01-01", "last": "2022-03-31"}, {"id": "3248", "name": "24th & Christian", "lat": 39.942131, "lon": -75.18335, "first": "2022-01-01", "last": "2022-03-31"}, {"id": "3258", "name": "52nd & Chestnut", "lat": 39.958279, "lon": -75.224243, "first": "2022-01-01", "last": "2022-03-31"}, {"id": "3249", "name": "34th & Arch", "lat": 39.95784, "lon": -75.190788, "first": "2022-01-01", "last": "2022-03-31"}, {"id": "3245", "name": "Broad & Cecil B Moore", "lat": 39.97887, "lon": -75.157768, "first": "2022-01-01", "last": "2022-03-31"}, {"id": "3252", "name": "30th & Oakford", "lat": 39.93882, "lon": -75.193237, "first": "2022-01-01", "last": "2022-03-31"}, {"id": "3259", "name": "Saunders & Pearl", "lat": 39.960159, "lon": -75.198837, "first": "2022-01-01", "last": "2022-03-31"}, {"id": "3254", "name": "16th & Montgomery", "lat": 39.980911, "lon": -75.160652, "first": "2022-01-01", "last": "2022-03-31"}, {"id": "3250", "name": "4th & Wood", "lat": 39.95673, "lon": -75.145752, "first": "2022-01-02", "last": "2022-03-31"}, {"id": "3257", "name": "2nd & Snyder", "lat": 39.9216, "lon": -75.150002, "first": "2022-01-02", "last": "2022-03-31"}, {"id": "3246", "name": "50th & Baltimore", "lat": 39.947819, "lon": -75.223007, "first": "2022-01-02", "last": "2022-03-31"}, {"id": "3266", "name": "Water & Mifflin", "lat": 39.923698, "lon": -75.147011, "first": "2022-02-15", "last": "2022-03-31"}, {"id": "3267", "name": "19th & Oregon", "lat": 39.917999, "lon": -75.179604, "first": "2022-02-17", "last": "2022-03-31"}, {"id": "3263", "name": "43rd & Powelton", "lat": 39.958599, "lon": -75.208099, "first": "2022-02-23", "last": "2022-03-31"}]