[
  {
    "id": "3030",
    "name": "Main & 1st",
    "lat": 34.051941,
    "lon": -118.24353,
    "first": "2016-07-07",
    "last": "2022-03-31"
  },
  {
    "id": "3028",
    "name": "Grand & Temple",
    "lat": 34.058319,
    "lon": -118.246094,
    "first": "2016-07-07",
    "last": "2022-03-31"
  },
  {
    "id": "3027",
    "name": "Spring & 3rd",
    "lat": 34.04998,
    "lon": -118.247162,
    "first": "2016-07-07",
    "last": "2022-03-31"
  },
  {
    "id": "3007",
    "name": "5th & Grand",
    "lat": 34.05048,
    "lon": -118.254593,
    "first": "2016-07-07",
    "last": "2022-03-31"
  },
  {
    "id": "3066",
    "name": "Spring & College",
    "lat": 34.063389,
    "lon": -118.23616,
    "first": "2016-07-07",
    "last": "2022-03-31"
  },
  {
    "id": "3029",
    "name": "Main & 4th",
    "lat": 34.048851,
    "lon": -118.246422,
    "first": "2016-07-07",
    "last": "2022-03-31"
  },
  {
    "id": "3063",
    "name": "Pershing Square",
    "lat": 34.049198,
    "lon": -118.252831,
    "first": "2016-07-07",
    "last": "2022-03-31"
  },
  {
    "id": "3078",
    "name": "Hill & College",
    "lat": 34.064281,
    "lon": -118.238937,
    "first": "2016-07-07",
    "last": "2022-03-31"
  },
  {
    "id": "3082",
    "name": "Traction & Rose",
    "lat": 34.04652,
    "lon": -118.237411,
    "first": "2016-07-07",
    "last": "2022-03-31"
  },
  {
    "id": "3052",
    "name": "7th & Bixel",
    "lat": 34.051102,
    "lon": -118.264557,
    "first": "2016-07-07",
    "last": "2022-03-31"
  },
  {
    "id": "3008",
    "name": "Figueroa & 9th",
    "lat": 34.046612,
    "lon": -118.262733,
    "first": "2016-07-07",
    "last": "2022-03-31"
  },
  {
    "id": "3022",
    "name": "3rd & Santa Fe",
    "lat": 34.04607,
    "lon": -118.233093,
    "first": "2016-07-07",
    "last": "2022-03-31"
  },
  {
    "id": "3034",
    "name": "Hope & 11th",
    "lat": 34.042061,
    "lon": -118.263382,
    "first": "2016-07-07",
    "last": "2022-03-31"
  },
  {
    "id": "3005",
    "name": "7th & Flower",
    "lat": 34.04855,
    "lon": -118.259048,
    "first": "2016-07-07",
    "last": "2022-03-31"
  },
  {
    "id": "3055",
    "name": "7th & Main",
    "lat": 34.044159,
    "lon": -118.251579,
    "first": "2016-07-07",
    "last": "2018-09-30"
  },
  {
    "id": "3038",
    "name": "Main & 5th",
    "lat": 34.046822,
    "lon": -118.248352,
    "first": "2016-07-07",
    "last": "2019-12-31"
  },
  {
    "id": "3069",
    "name": "Broadway & 3rd",
    "lat": 34.05088,
    "lon": -118.248253,
    "first": "2016-07-07",
    "last": "2022-03-31"
  },
  {
    "id": "3051",
    "name": "7th & Broadway",
    "lat": 34.045422,
    "lon": -118.253517,
    "first": "2016-07-07",
    "last": "2020-06-30"
  },
  {
    "id": "3006",
    "name": "Olive & 8th",
    "lat": 34.04554,
    "lon": -118.256668,
    "first": "2016-07-07",
    "last": "2022-03-31"
  },
  {
    "id": "3067",
    "name": "Main & 6th",
    "lat": 34.045181,
    "lon": -118.250237,
    "first": "2016-07-07",
    "last": "2020-12-31"
  },
  {
    "id": "3042",
    "name": "1st & Central",
    "lat": 34.049301,
    "lon": -118.238808,
    "first": "2016-07-07",
    "last": "2022-03-31"
  },
  {
    "id": "3018",
    "name": "Grand & Olympic",
    "lat": 34.043732,
    "lon": -118.260139,
    "first": "2016-07-07",
    "last": "2022-03-31"
  },
  {
    "id": "3062",
    "name": "3rd & San Pedro",
    "lat": 34.047749,
    "lon": -118.243172,
    "first": "2016-07-07",
    "last": "2022-03-31"
  },
  {
    "id": "3037",
    "name": "Imperial & 7th",
    "lat": 34.034801,
    "lon": -118.231277,
    "first": "2016-07-07",
    "last": "2022-03-31"
  },
  {
    "id": "3068",
    "name": "Grand & 3rd",
    "lat": 34.0532,
    "lon": -118.250954,
    "first": "2016-07-07",
    "last": "2022-03-31"
  },
  {
    "id": "3065",
    "name": "New High & Ord",
    "lat": 34.060558,
    "lon": -118.238327,
    "first": "2016-07-07",
    "last": "2022-03-31"
  },
  {
    "id": "3035",
    "name": "Figueroa & 8th",
    "lat": 34.048401,
    "lon": -118.260948,
    "first": "2016-07-07",
    "last": "2022-03-31"
  },
  {
    "id": "3058",
    "name": "Industrial St & Mateo St",
    "lat": 34.035801,
    "lon": -118.23317,
    "first": "2016-07-07",
    "last": "2022-03-31"
  },
  {
    "id": "3036",
    "name": "Willow St & Mateo St",
    "lat": 34.039188,
    "lon": -118.232529,
    "first": "2016-07-07",
    "last": "2022-03-31"
  },
  {
    "id": "3075",
    "name": "Broadway & 9th",
    "lat": 34.04211,
    "lon": -118.256187,
    "first": "2016-07-07",
    "last": "2022-03-31"
  },
  {
    "id": "3074",
    "name": "Hope & Olympic",
    "lat": 34.04417,
    "lon": -118.261169,
    "first": "2016-07-07",
    "last": "2022-03-31"
  },
  {
    "id": "3048",
    "name": "5th & Hewitt",
    "lat": 34.041691,
    "lon": -118.235352,
    "first": "2016-07-07",
    "last": "2022-03-31"
  },
  {
    "id": "3011",
    "name": "Figueroa & Pico",
    "lat": 34.04113,
    "lon": -118.267982,
    "first": "2016-07-07",
    "last": "2022-03-31"
  },
  {
    "id": "3040",
    "name": "Wilshire & Witmer",
    "lat": 34.05357,
    "lon": -118.266357,
    "first": "2016-07-07",
    "last": "2022-03-31"
  },
  {
    "id": "3014",
    "name": "Union Station West Portal",
    "lat": 34.05661,
    "lon": -118.237213,
    "first": "2016-07-07",
    "last": "2022-03-31"
  },
  {
    "id": "3076",
    "name": "9th & Los Angeles",
    "lat": 34.0406,
    "lon": -118.253838,
    "first": "2016-07-07",
    "last": "2022-03-31"
  },
  {
    "id": "3049",
    "name": "2nd & Figueroa",
    "lat": 34.056969,
    "lon": -118.253593,
    "first": "2016-07-07",
    "last": "2022-03-31"
  },
  {
    "id": "3080",
    "name": "San Julian & 12th",
    "lat": 34.03421,
    "lon": -118.254593,
    "first": "2016-07-07",
    "last": "2018-09-30"
  },
  {
    "id": "3023",
    "name": "1st & Judge John Aiso",
    "lat": 34.050911,
    "lon": -118.240967,
    "first": "2016-07-07",
    "last": "2022-03-31"
  },
  {
    "id": "3046",
    "name": "2nd & Hill",
    "lat": 34.05302,
    "lon": -118.247948,
    "first": "2016-07-07",
    "last": "2022-03-31"
  },
  {
    "id": "3057",
    "name": "18th & Figueroa",
    "lat": 34.035679,
    "lon": -118.270813,
    "first": "2016-07-07",
    "last": "2022-03-31"
  },
  {
    "id": "3024",
    "name": "Hope & 1st",
    "lat": 34.05772,
    "lon": -118.24897,
    "first": "2016-07-07",
    "last": "2022-03-31"
  },
  {
    "id": "3026",
    "name": "Figueroa & Cesar Chavez",
    "lat": 34.063179,
    "lon": -118.24588,
    "first": "2016-07-07",
    "last": "2022-03-31"
  },
  {
    "id": "3064",
    "name": "Grand & 8th",
    "lat": 34.04681,
    "lon": -118.256981,
    "first": "2016-07-07",
    "last": "2022-03-31"
  },
  {
    "id": "3031",
    "name": "7th & Spring",
    "lat": 34.044701,
    "lon": -118.252441,
    "first": "2016-07-07",
    "last": "2022-03-31"
  },
  {
    "id": "3059",
    "name": "11th & Santee",
    "lat": 34.037949,
    "lon": -118.256271,
    "first": "2016-07-07",
    "last": "2017-03-31"
  },
  {
    "id": "3056",
    "name": "Grand & 14th",
    "lat": 34.03746,
    "lon": -118.265381,
    "first": "2016-07-07",
    "last": "2022-03-31"
  },
  {
    "id": "3077",
    "name": "8th & Wall",
    "lat": 34.039871,
    "lon": -118.250038,
    "first": "2016-07-07",
    "last": "2022-03-31"
  },
  {
    "id": "3060",
    "name": "Pico & Maple",
    "lat": 34.034882,
    "lon": -118.25769,
    "first": "2016-07-07",
    "last": "2017-12-31"
  },
  {
    "id": "3047",
    "name": "Pico & Flower",
    "lat": 34.039982,
    "lon": -118.266403,
    "first": "2016-07-07",
    "last": "2022-03-31"
  },
  {
    "id": "3016",
    "name": "Los Angeles & Temple",
    "lat": 34.052898,
    "lon": -118.241562,
    "first": "2016-07-07",
    "last": "2022-03-31"
  },
  {
    "id": "3079",
    "name": "Temple & Vignes",
    "lat": 34.05014,
    "lon": -118.233238,
    "first": "2016-07-07",
    "last": "2022-03-31"
  },
  {
    "id": "3025",
    "name": "Grand & Washington",
    "lat": 34.03286,
    "lon": -118.268082,
    "first": "2016-07-07",
    "last": "2022-03-31"
  },
  {
    "id": "3032",
    "name": "Hope & 6th",
    "lat": 34.049889,
    "lon": -118.255882,
    "first": "2016-07-07",
    "last": "2022-03-31"
  },
  {
    "id": "3020",
    "name": "Hill & Washington",
    "lat": 34.031052,
    "lon": -118.26709,
    "first": "2016-07-07",
    "last": "2022-03-31"
  },
  {
    "id": "3033",
    "name": "Main & 9th",
    "lat": 34.040989,
    "lon": -118.255798,
    "first": "2016-07-07",
    "last": "2022-03-31"
  },
  {
    "id": "3019",
    "name": "12th & Hill",
    "lat": 34.038609,
    "lon": -118.260857,
    "first": "2016-07-07",
    "last": "2022-03-31"
  },
  {
    "id": "3081",
    "name": "Stanford & 12th",
    "lat": 34.031891,
    "lon": -118.250183,
    "first": "2016-07-07",
    "last": "2022-03-31"
  },
  {
    "id": "3010",
    "name": "11th & Maple",
    "lat": 34.037048,
    "lon": -118.254868,
    "first": "2016-07-07",
    "last": "2022-03-31"
  },
  {
    "id": "3045",
    "name": "18th & San Pedro",
    "lat": 34.028511,
    "lon": -118.256668,
    "first": "2016-07-07",
    "last": "2022-03-31"
  },
  {
    "id": "3054",
    "name": "Factory Place & Alameda",
    "lat": 34.039219,
    "lon": -118.236488,
    "first": "2016-07-07",
    "last": "2022-03-31"
  },
  {
    "id": "4108",
    "name": "4108",
    "lat": 34.02589,
    "lon": -118.238243,
    "first": "2016-07-07",
    "last": "2019-12-31"
  },
  {
    "id": "3039",
    "name": "3039",
    "lat": 34.024479,
    "lon": -118.393867,
    "first": "2017-03-17",
    "last": "2017-04-16"
  },
  {
    "id": "4155",
    "name": "Lake & Union",
    "lat": 34.147812,
    "lon": -118.132217,
    "first": "2017-06-26",
    "last": "2018-09-30"
  },
  {
    "id": "4156",
    "name": "Madison & Walnut",
    "lat": 34.14991,
    "lon": -118.13839,
    "first": "2017-06-27",
    "last": "2018-09-30"
  },
  {
    "id": "4176",
    "name": "Caltech East",
    "lat": 34.137859,
    "lon": -118.122414,
    "first": "2017-06-27",
    "last": "2018-09-30"
  },
  {
    "id": "4150",
    "name": "Villa Parke",
    "lat": 34.15427,
    "lon": -118.142151,
    "first": "2017-06-21",
    "last": "2018-09-30"
  },
  {
    "id": "4177",
    "name": "Madison & Colorado",
    "lat": 34.144981,
    "lon": -118.13826,
    "first": "2017-06-21",
    "last": "2018-09-30"
  },
  {
    "id": "4151",
    "name": "Los Robles & Cordova",
    "lat": 34.142361,
    "lon": -118.14151,
    "first": "2017-06-22",
    "last": "2018-09-30"
  },
  {
    "id": "4169",
    "name": "Oakland & Union",
    "lat": 34.146961,
    "lon": -118.139839,
    "first": "2017-06-22",
    "last": "2018-09-30"
  },
  {
    "id": "4148",
    "name": "Pasadena Central Library",
    "lat": 34.14962,
    "lon": -118.14431,
    "first": "2017-06-28",
    "last": "2018-09-30"
  },
  {
    "id": "4170",
    "name": "Lake & Merrett",
    "lat": 34.160709,
    "lon": -118.132401,
    "first": "2017-06-28",
    "last": "2018-09-30"
  },
  {
    "id": "4162",
    "name": "Memorial Park Station",
    "lat": 34.147499,
    "lon": -118.14801,
    "first": "2017-06-28",
    "last": "2018-09-30"
  },
  {
    "id": "4142",
    "name": "Pasadena Convention Center",
    "lat": 34.144588,
    "lon": -118.144592,
    "first": "2017-06-23",
    "last": "2018-09-30"
  },
  {
    "id": "4163",
    "name": "Lake & Locust",
    "lat": 34.150471,
    "lon": -118.132019,
    "first": "2017-06-30",
    "last": "2018-09-30"
  },
  {
    "id": "4157",
    "name": "Lake & Del Mar",
    "lat": 34.140999,
    "lon": -118.132088,
    "first": "2017-06-26",
    "last": "2018-09-30"
  },
  {
    "id": "4183",
    "name": "Catalina & Colorado",
    "lat": 34.146069,
    "lon": -118.129181,
    "first": "2017-06-23",
    "last": "2018-09-30"
  },
  {
    "id": "4181",
    "name": "Oak Knoll & Colorado",
    "lat": 34.146221,
    "lon": -118.135262,
    "first": "2017-06-26",
    "last": "2018-09-30"
  },
  {
    "id": "4138",
    "name": "Old Pasadena",
    "lat": 34.145691,
    "lon": -118.148239,
    "first": "2017-06-27",
    "last": "2018-09-30"
  },
  {
    "id": "4165",
    "name": "Del Mar Station",
    "lat": 34.14175,
    "lon": -118.149063,
    "first": "2017-06-29",
    "last": "2018-09-30"
  },
  {
    "id": "4144",
    "name": "Cordova & Lake",
    "lat": 34.142399,
    "lon": -118.132652,
    "first": "2017-06-29",
    "last": "2018-09-30"
  },
  {
    "id": "4159",
    "name": "Pasadena City College",
    "lat": 34.145901,
    "lon": -118.116539,
    "first": "2017-06-21",
    "last": "2018-09-30"
  },
  {
    "id": "4146",
    "name": "City Hall West",
    "lat": 34.147652,
    "lon": -118.145569,
    "first": "2017-06-21",
    "last": "2018-09-30"
  },
  {
    "id": "4160",
    "name": "Fillmore Station",
    "lat": 34.133011,
    "lon": -118.14856,
    "first": "2017-06-22",
    "last": "2018-09-30"
  },
  {
    "id": "4167",
    "name": "Pasadena & Dayton",
    "lat": 34.143822,
    "lon": -118.154099,
    "first": "2017-06-22",
    "last": "2018-09-30"
  },
  {
    "id": "4147",
    "name": "Fair Oaks & Mercantile Alley",
    "lat": 34.145248,
    "lon": -118.15007,
    "first": "2017-07-14",
    "last": "2018-09-30"
  },
  {
    "id": "4149",
    "name": "Arroyo Parkway & Bellevue",
    "lat": 34.13821,
    "lon": -118.147079,
    "first": "2017-07-14",
    "last": "2018-09-30"
  },
  {
    "id": "4153",
    "name": "Rose Bowl",
    "lat": 34.156181,
    "lon": -118.166687,
    "first": "2017-07-14",
    "last": "2018-09-30"
  },
  {
    "id": "4158",
    "name": "Lake & California",
    "lat": 34.13525,
    "lon": -118.13237,
    "first": "2017-07-14",
    "last": "2018-09-30"
  },
  {
    "id": "4154",
    "name": "Fair Oaks & Peoria",
    "lat": 34.15612,
    "lon": -118.151192,
    "first": "2017-07-14",
    "last": "2018-09-30"
  },
  {
    "id": "4152",
    "name": "Pasadena Museum",
    "lat": 34.149712,
    "lon": -118.160172,
    "first": "2017-07-14",
    "last": "2018-09-30"
  },
  {
    "id": "4174",
    "name": "Fair Oaks & Hammond",
    "lat": 34.165291,
    "lon": -118.15097,
    "first": "2017-07-15",
    "last": "2018-09-30"
  },
  {
    "id": "4166",
    "name": "Colorado & Hill",
    "lat": 34.145908,
    "lon": -118.12175,
    "first": "2017-07-15",
    "last": "2018-09-30"
  },
  {
    "id": "4125",
    "name": "Banning's Landing",
    "lat": 33.766659,
    "lon": -118.261017,
    "first": "2017-07-18",
    "last": "2019-12-31"
  },
  {
    "id": "4136",
    "name": "Waterfront Park (West)",
    "lat": 33.771759,
    "lon": -118.276543,
    "first": "2017-07-18",
    "last": "2019-12-31"
  },
  {
    "id": "4134",
    "name": "USS IOWA",
    "lat": 33.74136,
    "lon": -118.278069,
    "first": "2017-07-18",
    "last": "2019-12-31"
  },
  {
    "id": "4129",
    "name": "Crafted 22nd St Park",
    "lat": 33.725819,
    "lon": -118.28051,
    "first": "2017-07-19",
    "last": "2019-12-31"
  },
  {
    "id": "4132",
    "name": "Fanfare Fountain",
    "lat": 33.74913,
    "lon": -118.280182,
    "first": "2017-07-19",
    "last": "2019-12-31"
  },
  {
    "id": "4133",
    "name": "Ports O'Call",
    "lat": 33.733521,
    "lon": -118.277786,
    "first": "2017-07-19",
    "last": "2019-12-31"
  },
  {
    "id": "4126",
    "name": "Cabrillo Beach",
    "lat": 33.710979,
    "lon": -118.284668,
    "first": "2017-07-20",
    "last": "2019-12-31"
  },
  {
    "id": "4127",
    "name": "Catalina Express",
    "lat": 33.74892,
    "lon": -118.275192,
    "first": "2017-07-20",
    "last": "2019-12-31"
  },
  {
    "id": "4130",
    "name": "DoubleTree Hotel",
    "lat": 33.719261,
    "lon": -118.282722,
    "first": "2017-07-20",
    "last": "2019-12-31"
  },
  {
    "id": "4180",
    "name": "Caltech West",
    "lat": 34.137951,
    "lon": -118.128502,
    "first": "2017-07-21",
    "last": "2018-09-30"
  },
  {
    "id": "4194",
    "name": "Union Station East",
    "lat": 34.056702,
    "lon": -118.231392,
    "first": "2017-07-26",
    "last": "2017-09-30"
  },
  {
    "id": "4131",
    "name": "Downtown Harbor",
    "lat": 33.738979,
    "lon": -118.279266,
    "first": "2017-07-31",
    "last": "2019-12-31"
  },
  {
    "id": "4135",
    "name": "Waterfront Park (East)",
    "lat": 33.772301,
    "lon": -118.268044,
    "first": "2017-07-31",
    "last": "2019-12-31"
  },
  {
    "id": "3013",
    "name": "Anaheim & Avalon",
    "lat": 33.779819,
    "lon": -118.263023,
    "first": "2017-08-02",
    "last": "2019-09-30"
  },
  {
    "id": "4205",
    "name": "Venice & Lincoln",
    "lat": 33.993771,
    "lon": -118.453667,
    "first": "2017-09-01",
    "last": "2022-03-31"
  },
  {
    "id": "4212",
    "name": "Windward & Main",
    "lat": 33.988129,
    "lon": -118.471741,
    "first": "2017-09-01",
    "last": "2022-03-31"
  },
  {
    "id": "4208",
    "name": "Rose & Rennie",
    "lat": 33.99868,
    "lon": -118.472977,
    "first": "2017-09-01",
    "last": "2022-03-31"
  },
  {
    "id": "4206",
    "name": "California & Lincoln",
    "lat": 33.998341,
    "lon": -118.461014,
    "first": "2017-09-01",
    "last": "2022-03-31"
  },
  {
    "id": "4207",
    "name": "Rose & 7th",
    "lat": 34.000881,
    "lon": -118.46891,
    "first": "2017-09-01",
    "last": "2022-03-31"
  },
  {
    "id": "4214",
    "name": "Ocean Front Walk & Navy",
    "lat": 33.99556,
    "lon": -118.481552,
    "first": "2017-09-07",
    "last": "2022-03-31"
  },
  {
    "id": "4216",
    "name": "17th St / SMC E Line Station",
    "lat": 34.023392,
    "lon": -118.479637,
    "first": "2017-09-07",
    "last": "2022-03-31"
  },
  {
    "id": "4210",
    "name": "Ocean Front Walk & North Venice",
    "lat": 33.984341,
    "lon": -118.47155,
    "first": "2017-09-07",
    "last": "2022-03-31"
  },
  {
    "id": "4215",
    "name": "Downtown Santa Monica E Line Station",
    "lat": 34.014309,
    "lon": -118.491341,
    "first": "2017-09-07",
    "last": "2022-03-31"
  },
  {
    "id": "4209",
    "name": "Rose & Main",
    "lat": 33.996239,
    "lon": -118.477448,
    "first": "2017-09-07",
    "last": "2022-03-31"
  },
  {
    "id": "4211",
    "name": "Pacific & North Venice",
    "lat": 33.984928,
    "lon": -118.469963,
    "first": "2017-09-07",
    "last": "2022-03-31"
  },
  {
    "id": "4202",
    "name": "Abbot Kinney & Cadiz",
    "lat": 33.991161,
    "lon": -118.468292,
    "first": "2017-09-07",
    "last": "2022-03-31"
  },
  {
    "id": "4204",
    "name": "Washington & Abbot Kinney",
    "lat": 33.988419,
    "lon": -118.45163,
    "first": "2017-09-07",
    "last": "2022-03-31"
  },
  {
    "id": "4213",
    "name": "7th & Westminster",
    "lat": 33.994701,
    "lon": -118.464081,
    "first": "2017-09-08",
    "last": "2022-03-31"
  },
  {
    "id": "4220",
    "name": "Park & Echo Park",
    "lat": 34.074829,
    "lon": -118.25872,
    "first": "2017-12-30",
    "last": "2022-03-31"
  },
  {
    "id": "4227",
    "name": "Grand / LATTC",
    "lat": 34.030628,
    "lon": -118.2696,
    "first": "2017-12-17",
    "last": "2022-03-31"
  },
  {
    "id": "4254",
    "name": "Hoover & 29th",
    "lat": 34.028679,
    "lon": -118.284111,
    "first": "2018-06-28",
    "last": "2022-03-31"
  },
  {
    "id": "4249",
    "name": "Figueroa & McCarthy Way",
    "lat": 34.020302,
    "lon": -118.281181,
    "first": "2018-06-29",
    "last": "2022-03-31"
  },
  {
    "id": "4248",
    "name": "29th & Ellendale",
    "lat": 34.028351,
    "lon": -118.288673,
    "first": "2018-07-02",
    "last": "2022-03-31"
  },
  {
    "id": "4246",
    "name": "32nd & Figueroa",
    "lat": 34.023708,
    "lon": -118.279167,
    "first": "2018-07-03",
    "last": "2022-03-31"
  },
  {
    "id": "4250",
    "name": "Severance & Adams",
    "lat": 34.03017,
    "lon": -118.280952,
    "first": "2018-07-09",
    "last": "2022-03-31"
  },
  {
    "id": "4245",
    "name": "University & Hoover",
    "lat": 34.02404,
    "lon": -118.283409,
    "first": "2018-07-10",
    "last": "2022-03-31"
  },
  {
    "id": "4267",
    "name": "28th & University",
    "lat": 34.027618,
    "lon": -118.280678,
    "first": "2018-08-23",
    "last": "2022-03-31"
  },
  {
    "id": "4273",
    "name": "Hoover & 32nd",
    "lat": 34.02586,
    "lon": -118.284103,
    "first": "2018-10-10",
    "last": "2022-03-31"
  },
  {
    "id": "4266",
    "name": "28th & Figueroa",
    "lat": 34.026291,
    "lon": -118.277687,
    "first": "2018-12-01",
    "last": "2022-03-31"
  },
  {
    "id": "4276",
    "name": "Mariachi Plaza",
    "lat": 34.04739,
    "lon": -118.218849,
    "first": "2018-12-02",
    "last": "2018-12-02"
  },
  {
    "id": "4275",
    "name": "Expo Park/LAFC",
    "lat": 34.01252,
    "lon": -118.285896,
    "first": "2018-12-18",
    "last": "2022-03-31"
  },
  {
    "id": "4293",
    "name": "Westlake & 3rd",
    "lat": 34.062279,
    "lon": -118.271523,
    "first": "2019-01-26",
    "last": "2022-03-31"
  },
  {
    "id": "4304",
    "name": "Shatto Pl & Wilshire",
    "lat": 34.06258,
    "lon": -118.290092,
    "first": "2019-01-30",
    "last": "2022-03-31"
  },
  {
    "id": "4306",
    "name": "8th & Vermont",
    "lat": 34.057652,
    "lon": -118.292183,
    "first": "2019-01-30",
    "last": "2022-03-31"
  },
  {
    "id": "4315",
    "name": "Union & 7th",
    "lat": 34.054031,
    "lon": -118.27092,
    "first": "2019-02-06",
    "last": "2022-03-31"
  },
  {
    "id": "4313",
    "name": "Westlake/Macarthur Park Station",
    "lat": 34.056808,
    "lon": -118.275002,
    "first": "2019-02-06",
    "last": "2022-03-31"
  },
  {
    "id": "4311",
    "name": "7th & Berendo",
    "lat": 34.059689,
    "lon": -118.294662,
    "first": "2019-02-07",
    "last": "2022-03-31"
  },
  {
    "id": "4344",
    "name": "Downtown Santa Monica Expo Line Station",
    "lat": 34.014309,
    "lon": -118.491341,
    "first": "2019-02-08",
    "last": "2020-09-30"
  },
  {
    "id": "4346",
    "name": "Ocean Front Walk & North Venice",
    "lat": 33.984341,
    "lon": -118.47155,
    "first": "2019-02-09",
    "last": "2020-09-30"
  },
  {
    "id": "4314",
    "name": "7th & Park View",
    "lat": 34.057709,
    "lon": -118.279762,
    "first": "2019-02-09",
    "last": "2022-03-31"
  },
  {
    "id": "4352",
    "name": "Washington & Abbot Kinney",
    "lat": 33.988419,
    "lon": -118.45163,
    "first": "2019-02-09",
    "last": "2020-09-30"
  },
  {
    "id": "4348",
    "name": "Rose & 7th",
    "lat": 34.000881,
    "lon": -118.46891,
    "first": "2019-02-09",
    "last": "2020-09-30"
  },
  {
    "id": "4342",
    "name": "Abbot Kinney & Cadiz",
    "lat": 33.991161,
    "lon": -118.468292,
    "first": "2019-02-11",
    "last": "2020-09-30"
  },
  {
    "id": "4343",
    "name": "California & Lincoln",
    "lat": 33.998322,
    "lon": -118.460983,
    "first": "2019-02-12",
    "last": "2020-09-30"
  },
  {
    "id": "4300",
    "name": "Union & Olympic",
    "lat": 34.04887,
    "lon": -118.2743,
    "first": "2019-02-16",
    "last": "2022-03-31"
  },
  {
    "id": "4312",
    "name": "4th & Vermont",
    "lat": 34.06699,
    "lon": -118.290878,
    "first": "2019-02-16",
    "last": "2020-09-30"
  },
  {
    "id": "4345",
    "name": "Ocean Front Walk & Navy",
    "lat": 33.99556,
    "lon": -118.481552,
    "first": "2019-02-28",
    "last": "2020-09-30"
  },
  {
    "id": "4353",
    "name": "Windward & Main",
    "lat": 33.988129,
    "lon": -118.471741,
    "first": "2019-02-28",
    "last": "2020-09-30"
  },
  {
    "id": "4325",
    "name": "Venice & Clarington",
    "lat": 34.022518,
    "lon": -118.400589,
    "first": "2019-02-28",
    "last": "2020-09-30"
  },
  {
    "id": "4354",
    "name": "Venice & Glendon",
    "lat": 34.017681,
    "lon": -118.409081,
    "first": "2019-02-28",
    "last": "2020-09-30"
  },
  {
    "id": "4331",
    "name": "Venice & Colonial",
    "lat": 34.00351,
    "lon": -118.43438,
    "first": "2019-02-28",
    "last": "2020-09-30"
  },
  {
    "id": "4324",
    "name": "Palms & Motor",
    "lat": 34.02655,
    "lon": -118.408463,
    "first": "2019-02-28",
    "last": "2020-09-30"
  },
  {
    "id": "4334",
    "name": "Venice & Motor",
    "lat": 34.02018,
    "lon": -118.40403,
    "first": "2019-02-28",
    "last": "2020-09-30"
  },
  {
    "id": "4329",
    "name": "Palms & National",
    "lat": 34.029121,
    "lon": -118.403168,
    "first": "2019-02-28",
    "last": "2020-09-30"
  },
  {
    "id": "4349",
    "name": "Rose & Main",
    "lat": 33.996239,
    "lon": -118.477448,
    "first": "2019-02-28",
    "last": "2020-09-30"
  },
  {
    "id": "4323",
    "name": "Venice & Beethoven",
    "lat": 33.99958,
    "lon": -118.44136,
    "first": "2019-03-01",
    "last": "2020-09-30"
  },
  {
    "id": "4347",
    "name": "Pacific & North Venice",
    "lat": 33.984928,
    "lon": -118.469963,
    "first": "2019-03-01",
    "last": "2020-09-30"
  },
  {
    "id": "4330",
    "name": "Bagley & Venice",
    "lat": 34.025688,
    "lon": -118.395302,
    "first": "2019-03-01",
    "last": "2020-09-30"
  },
  {
    "id": "4335",
    "name": "Venice & Hughes",
    "lat": 34.023392,
    "lon": -118.399223,
    "first": "2019-03-01",
    "last": "2020-09-30"
  },
  {
    "id": "4351",
    "name": "Venice & Lincoln",
    "lat": 33.993729,
    "lon": -118.45356,
    "first": "2019-03-01",
    "last": "2020-09-30"
  },
  {
    "id": "4336",
    "name": "Barrington & National",
    "lat": 34.022449,
    "lon": -118.438332,
    "first": "2019-03-02",
    "last": "2020-09-30"
  },
  {
    "id": "4322",
    "name": "Venice & Inglewood",
    "lat": 34.005871,
    "lon": -118.429161,
    "first": "2019-03-03",
    "last": "2020-09-30"
  },
  {
    "id": "4332",
    "name": "National & Motor",
    "lat": 34.02948,
    "lon": -118.410469,
    "first": "2019-03-03",
    "last": "2020-09-30"
  },
  {
    "id": "4333",
    "name": "Venice & Walgrove",
    "lat": 33.997231,
    "lon": -118.445969,
    "first": "2019-03-03",
    "last": "2020-09-30"
  },
  {
    "id": "4328",
    "name": "Sepulveda & Palms",
    "lat": 34.020061,
    "lon": -118.422684,
    "first": "2019-03-03",
    "last": "2020-09-30"
  },
  {
    "id": "4350",
    "name": "Rose & Rennie",
    "lat": 33.9986,
    "lon": -118.472977,
    "first": "2019-03-04",
    "last": "2020-09-30"
  },
  {
    "id": "4341",
    "name": "7th & Westminster",
    "lat": 33.9953,
    "lon": -118.464844,
    "first": "2019-03-05",
    "last": "2020-09-30"
  },
  {
    "id": "4340",
    "name": "17th St / SMC Expo Line Station",
    "lat": 34.02338,
    "lon": -118.479637,
    "first": "2019-03-07",
    "last": "2020-09-30"
  },
  {
    "id": "4382",
    "name": "Westwood & National",
    "lat": 34.030472,
    "lon": -118.420982,
    "first": "2019-03-21",
    "last": "2020-09-30"
  },
  {
    "id": "4380",
    "name": "Centinela & Lucile",
    "lat": 33.982922,
    "lon": -118.410927,
    "first": "2019-03-24",
    "last": "2020-09-30"
  },
  {
    "id": "4372",
    "name": "Public Bike Rack: Culver City Expo Line",
    "lat": 34.027882,
    "lon": -118.388901,
    "first": "2019-03-26",
    "last": "2020-09-30"
  },
  {
    "id": "4378",
    "name": "Palms & Kelton",
    "lat": 34.022331,
    "lon": -118.415771,
    "first": "2019-03-27",
    "last": "2020-09-30"
  },
  {
    "id": "4385",
    "name": "Public Bike Rack: Westwood/Rancho Park Expo Line",
    "lat": 34.036678,
    "lon": -118.425339,
    "first": "2019-03-28",
    "last": "2020-09-30"
  },
  {
    "id": "4381",
    "name": "Sepulveda & Lucerne",
    "lat": 34.000332,
    "lon": -118.402321,
    "first": "2019-03-28",
    "last": "2020-09-30"
  },
  {
    "id": "4387",
    "name": "Row DTLA",
    "lat": 34.03352,
    "lon": -118.241837,
    "first": "2019-04-02",
    "last": "2022-03-31"
  },
  {
    "id": "4389",
    "name": "Expo/Sepulveda Expo Line Station",
    "lat": 34.035351,
    "lon": -118.434143,
    "first": "2019-05-08",
    "last": "2020-09-30"
  },
  {
    "id": "4383",
    "name": "McLaughlin & Venice",
    "lat": 34.009022,
    "lon": -118.425011,
    "first": "2019-05-09",
    "last": "2020-09-30"
  },
  {
    "id": "4390",
    "name": "Kenmore & 3rd",
    "lat": 34.069271,
    "lon": -118.296593,
    "first": "2019-05-11",
    "last": "2022-03-31"
  },
  {
    "id": "4394",
    "name": "Westlawn & Beatrice",
    "lat": 33.980789,
    "lon": -118.414902,
    "first": "2019-05-17",
    "last": "2020-09-30"
  },
  {
    "id": "4397",
    "name": "Mar Vista Rec Center",
    "lat": 34.01688,
    "lon": -118.428452,
    "first": "2019-05-18",
    "last": "2020-09-30"
  },
  {
    "id": "4396",
    "name": "Sepulveda & National",
    "lat": 34.02697,
    "lon": -118.428207,
    "first": "2019-05-23",
    "last": "2020-09-30"
  },
  {
    "id": "4337",
    "name": "Inglewood & Braddock",
    "lat": 33.993019,
    "lon": -118.414909,
    "first": "2019-05-29",
    "last": "2020-09-30"
  },
  {
    "id": "4401",
    "name": "Vermont & Beverly",
    "lat": 34.075611,
    "lon": -118.291862,
    "first": "2019-06-01",
    "last": "2022-03-31"
  },
  {
    "id": "4393",
    "name": "Durango & Venice",
    "lat": 34.026829,
    "lon": -118.393517,
    "first": "2019-06-02",
    "last": "2020-09-30"
  },
  {
    "id": "4247",
    "name": "25th & Vermont",
    "lat": 34.033642,
    "lon": -118.291313,
    "first": "2019-06-02",
    "last": "2022-03-31"
  },
  {
    "id": "4404",
    "name": "Albany & Olympic",
    "lat": 34.04813,
    "lon": -118.271027,
    "first": "2019-06-06",
    "last": "2022-03-31"
  },
  {
    "id": "4410",
    "name": "Kenmore & 6th",
    "lat": 34.063351,
    "lon": -118.296799,
    "first": "2019-06-07",
    "last": "2022-03-31"
  },
  {
    "id": "4408",
    "name": "Venice & Sawtelle",
    "lat": 34.011799,
    "lon": -118.419533,
    "first": "2019-06-09",
    "last": "2020-09-30"
  },
  {
    "id": "4409",
    "name": "Maxella & Del Ray",
    "lat": 33.986511,
    "lon": -118.441917,
    "first": "2019-06-09",
    "last": "2020-09-30"
  },
  {
    "id": "4400",
    "name": "Newton & Central",
    "lat": 34.027828,
    "lon": -118.247139,
    "first": "2019-06-12",
    "last": "2020-09-30"
  },
  {
    "id": "4301",
    "name": "Maubert & Vermont",
    "lat": 34.099049,
    "lon": -118.291496,
    "first": "2019-06-19",
    "last": "2022-03-31"
  },
  {
    "id": "4303",
    "name": "Sunset & Virgil",
    "lat": 34.098011,
    "lon": -118.287071,
    "first": "2019-06-20",
    "last": "2022-03-31"
  },
  {
    "id": "4302",
    "name": "Vermont Pl & Vermont",
    "lat": 34.092491,
    "lon": -118.291443,
    "first": "2019-06-20",
    "last": "2022-03-31"
  },
  {
    "id": "4405",
    "name": "Berendo & Olympic",
    "lat": 34.051899,
    "lon": -118.293678,
    "first": "2019-06-27",
    "last": "2022-03-31"
  },
  {
    "id": "4338",
    "name": "Sepulveda & Venice",
    "lat": 34.01376,
    "lon": -118.417801,
    "first": "2019-07-03",
    "last": "2020-09-30"
  },
  {
    "id": "4384",
    "name": "Inglewood & Ballona",
    "lat": 33.990318,
    "lon": -118.412048,
    "first": "2019-07-03",
    "last": "2020-09-30"
  },
  {
    "id": "4415",
    "name": "Chandler & Laurel Canyon",
    "lat": 34.168331,
    "lon": -118.396156,
    "first": "2019-08-05",
    "last": "2021-12-31"
  },
  {
    "id": "4420",
    "name": "North Hollywood Station",
    "lat": 34.168629,
    "lon": -118.377068,
    "first": "2019-08-05",
    "last": "2021-12-31"
  },
  {
    "id": "4417",
    "name": "Magnolia & Cartwright",
    "lat": 34.164951,
    "lon": -118.363632,
    "first": "2019-08-05",
    "last": "2021-12-31"
  },
  {
    "id": "4428",
    "name": "Lankershim & Hesby",
    "lat": 34.161709,
    "lon": -118.372818,
    "first": "2019-08-05",
    "last": "2021-12-31"
  },
  {
    "id": "4429",
    "name": "Chandler & Cahuenga",
    "lat": 34.168751,
    "lon": -118.36187,
    "first": "2019-08-06",
    "last": "2021-12-31"
  },
  {
    "id": "4416",
    "name": "Riverside & Colfax",
    "lat": 34.157581,
    "lon": -118.38826,
    "first": "2019-08-06",
    "last": "2021-06-30"
  },
  {
    "id": "4418",
    "name": "Lankershim & Moorpark",
    "lat": 34.150688,
    "lon": -118.366127,
    "first": "2019-08-07",
    "last": "2021-06-30"
  },
  {
    "id": "4419",
    "name": "Magnolia & Clybourn",
    "lat": 34.165218,
    "lon": -118.355148,
    "first": "2019-08-07",
    "last": "2021-09-30"
  },
  {
    "id": "4427",
    "name": "Vineland & Otsego",
    "lat": 34.162891,
    "lon": -118.370163,
    "first": "2019-08-07",
    "last": "2021-09-30"
  },
  {
    "id": "4426",
    "name": "Tujunga & Moorpark",
    "lat": 34.149872,
    "lon": -118.378891,
    "first": "2019-08-07",
    "last": "2021-09-30"
  },
  {
    "id": "4413",
    "name": "Lankershim & Vineland",
    "lat": 34.158321,
    "lon": -118.370811,
    "first": "2019-08-07",
    "last": "2021-06-30"
  },
  {
    "id": "4422",
    "name": "Riverside & Cahuenga",
    "lat": 34.152142,
    "lon": -118.361954,
    "first": "2019-08-07",
    "last": "2021-12-31"
  },
  {
    "id": "4431",
    "name": "Lankershim & Califa",
    "lat": 34.177662,
    "lon": -118.382278,
    "first": "2019-08-08",
    "last": "2021-12-31"
  },
  {
    "id": "4430",
    "name": "Vineland & Burbank",
    "lat": 34.172451,
    "lon": -118.370369,
    "first": "2019-08-08",
    "last": "2021-12-31"
  },
  {
    "id": "4414",
    "name": "Chandler & Colfax",
    "lat": 34.16835,
    "lon": -118.387497,
    "first": "2019-08-08",
    "last": "2021-09-30"
  },
  {
    "id": "4425",
    "name": "Mariota & Riverside",
    "lat": 34.152,
    "lon": -118.350601,
    "first": "2019-08-13",
    "last": "2021-12-31"
  },
  {
    "id": "4406",
    "name": "Normandie & Hollywood",
    "lat": 34.101891,
    "lon": -118.300613,
    "first": "2019-08-15",
    "last": "2022-03-31"
  },
  {
    "id": "4402",
    "name": "Pop Hollywood Ciclavia Walk of Fame Hub",
    "lat": 34.101509,
    "lon": -118.33979,
    "first": "2019-08-18",
    "last": "2019-08-18"
  },
  {
    "id": "4407",
    "name": "Pop Hollywood Ciclavia Barnsdall Art Park Hub",
    "lat": 34.101871,
    "lon": -118.29377,
    "first": "2019-08-18",
    "last": "2019-08-18"
  },
  {
    "id": "4432",
    "name": "Public Bike Rack: Universal City/Studio City Red Line Station",
    "lat": 34.139568,
    "lon": -118.362251,
    "first": "2019-08-25",
    "last": "2021-09-30"
  },
  {
    "id": "4437",
    "name": "Franklin & Hillhurst",
    "lat": 34.105358,
    "lon": -118.28727,
    "first": "2019-09-05",
    "last": "2022-03-31"
  },
  {
    "id": "4438",
    "name": "Hoover & Fountain",
    "lat": 34.094929,
    "lon": -118.284561,
    "first": "2019-09-06",
    "last": "2022-03-31"
  },
  {
    "id": "4436",
    "name": "Vermont & Franklin",
    "lat": 34.105782,
    "lon": -118.291939,
    "first": "2019-09-06",
    "last": "2022-03-31"
  },
  {
    "id": "4441",
    "name": "University & 30th",
    "lat": 34.026619,
    "lon": -118.281807,
    "first": "2019-09-11",
    "last": "2022-03-31"
  },
  {
    "id": "4440",
    "name": "Wilshire & Alexandria",
    "lat": 34.061661,
    "lon": -118.298241,
    "first": "2019-09-11",
    "last": "2022-03-31"
  },
  {
    "id": "4443",
    "name": "Figueroa & Jefferson",
    "lat": 34.02166,
    "lon": -118.278687,
    "first": "2019-09-12",
    "last": "2022-03-31"
  },
  {
    "id": "4442",
    "name": "Normandie & Sunset",
    "lat": 34.098,
    "lon": -118.300468,
    "first": "2019-09-15",
    "last": "2022-03-31"
  },
  {
    "id": "4445",
    "name": "Sunset & Douglas",
    "lat": 34.073639,
    "lon": -118.251572,
    "first": "2019-09-18",
    "last": "2022-03-31"
  },
  {
    "id": "4444",
    "name": "Wilshire & Hobart",
    "lat": 34.061619,
    "lon": -118.305573,
    "first": "2019-09-18",
    "last": "2022-03-31"
  },
  {
    "id": "4453",
    "name": "Lucile & Hoover",
    "lat": 34.082649,
    "lon": -118.284393,
    "first": "2019-09-25",
    "last": "2022-03-31"
  },
  {
    "id": "4449",
    "name": "12th & Valencia",
    "lat": 34.04557,
    "lon": -118.274193,
    "first": "2019-09-26",
    "last": "2022-03-31"
  },
  {
    "id": "4447",
    "name": "Rampart & Wilshire",
    "lat": 34.0616,
    "lon": -118.28199,
    "first": "2019-10-03",
    "last": "2022-03-31"
  },
  {
    "id": "4448",
    "name": "23rd St & Flower",
    "lat": 34.03027,
    "lon": -118.273193,
    "first": "2019-10-04",
    "last": "2022-03-31"
  },
  {
    "id": "4446",
    "name": "James M. Wood & Alvarado",
    "lat": 34.05323,
    "lon": -118.278419,
    "first": "2019-10-06",
    "last": "2022-03-31"
  },
  {
    "id": "4451",
    "name": "Melbourne & Vermont",
    "lat": 34.10363,
    "lon": -118.291313,
    "first": "2019-10-09",
    "last": "2022-03-31"
  },
  {
    "id": "4452",
    "name": "Hillhurst & Kingswell",
    "lat": 34.102329,
    "lon": -118.28746,
    "first": "2019-10-10",
    "last": "2022-03-31"
  },
  {
    "id": "4458",
    "name": "Culver & Centinela",
    "lat": 33.990971,
    "lon": -118.421127,
    "first": "2019-10-16",
    "last": "2020-09-30"
  },
  {
    "id": "4461",
    "name": "Rose & Overland",
    "lat": 34.027649,
    "lon": -118.413559,
    "first": "2019-10-18",
    "last": "2020-09-30"
  },
  {
    "id": "4460",
    "name": "Culver & Inglewood",
    "lat": 33.99485,
    "lon": -118.417961,
    "first": "2019-10-19",
    "last": "2020-09-30"
  },
  {
    "id": "4463",
    "name": "Tujunga & Hatteras",
    "lat": 34.175671,
    "lon": -118.378967,
    "first": "2019-10-19",
    "last": "2021-09-30"
  },
  {
    "id": "4459",
    "name": "Culver & McConnell",
    "lat": 33.985611,
    "lon": -118.425438,
    "first": "2019-10-20",
    "last": "2020-09-30"
  },
  {
    "id": "4462",
    "name": "Overland & Charnock",
    "lat": 34.022018,
    "lon": -118.409378,
    "first": "2019-10-23",
    "last": "2020-09-30"
  },
  {
    "id": "4457",
    "name": "Hollywood & Rodney",
    "lat": 34.100109,
    "lon": -118.289864,
    "first": "2019-11-06",
    "last": "2022-03-31"
  },
  {
    "id": "4470",
    "name": "McConnell & Runway",
    "lat": 33.976189,
    "lon": -118.418419,
    "first": "2019-11-06",
    "last": "2020-09-30"
  },
  {
    "id": "4469",
    "name": "Playa Vista Library",
    "lat": 33.970242,
    "lon": -118.426071,
    "first": "2019-11-07",
    "last": "2020-09-30"
  },
  {
    "id": "4480",
    "name": "Figueroa Plaza",
    "lat": 34.05896,
    "lon": -118.250587,
    "first": "2019-11-07",
    "last": "2022-03-31"
  },
  {
    "id": "4454",
    "name": "Vermont & Exposition",
    "lat": 34.017899,
    "lon": -118.291718,
    "first": "2019-11-07",
    "last": "2022-03-31"
  },
  {
    "id": "4456",
    "name": "Ardmore & Olympic",
    "lat": 34.052429,
    "lon": -118.302017,
    "first": "2019-11-09",
    "last": "2022-03-31"
  },
  {
    "id": "4450",
    "name": "Virgil & 6th",
    "lat": 34.063492,
    "lon": -118.287163,
    "first": "2019-11-15",
    "last": "2022-03-31"
  },
  {
    "id": "4482",
    "name": "Wilcox & Fountain",
    "lat": 34.094372,
    "lon": -118.331009,
    "first": "2019-11-18",
    "last": "2022-03-31"
  },
  {
    "id": "4455",
    "name": "Rowena & Hyperion",
    "lat": 34.10936,
    "lon": -118.271812,
    "first": "2019-11-19",
    "last": "2022-03-31"
  },
  {
    "id": "4472",
    "name": "Santa Monica & Sunset",
    "lat": 34.092602,
    "lon": -118.28093,
    "first": "2019-11-21",
    "last": "2022-03-31"
  },
  {
    "id": "4483",
    "name": "Glendale & Silver Lake",
    "lat": 34.1007,
    "lon": -118.259117,
    "first": "2019-11-23",
    "last": "2022-03-31"
  },
  {
    "id": "4473",
    "name": "Vendome & Beverly",
    "lat": 34.07159,
    "lon": -118.282288,
    "first": "2019-12-01",
    "last": "2022-03-31"
  },
  {
    "id": "4484",
    "name": "Campus Center Drive",
    "lat": 33.978821,
    "lon": -118.407562,
    "first": "2019-12-07",
    "last": "2020-09-30"
  },
  {
    "id": "4491",
    "name": "Main & Winston",
    "lat": 34.04744,
    "lon": -118.24794,
    "first": "2019-12-11",
    "last": "2022-03-31"
  },
  {
    "id": "4439",
    "name": "Santa Monica & Virgil",
    "lat": 34.090969,
    "lon": -118.286247,
    "first": "2019-12-16",
    "last": "2022-03-31"
  },
  {
    "id": "4493",
    "name": "Sunset Triangle Plaza",
    "lat": 34.090279,
    "lon": -118.277191,
    "first": "2019-12-18",
    "last": "2022-03-31"
  },
  {
    "id": "4490",
    "name": "Figueroa & 4th",
    "lat": 34.053551,
    "lon": -118.255836,
    "first": "2019-12-31",
    "last": "2022-03-31"
  },
  {
    "id": "4494",
    "name": "Laveta Terrace & Sunset",
    "lat": 34.075981,
    "lon": -118.256012,
    "first": "2020-01-08",
    "last": "2022-03-31"
  },
  {
    "id": "4478",
    "name": "Tracy & Hyperion",
    "lat": 34.10424,
    "lon": -118.273697,
    "first": "2020-01-10",
    "last": "2022-03-31"
  },
  {
    "id": "4479",
    "name": "Ellendale Pl & Adams",
    "lat": 34.031502,
    "lon": -118.288742,
    "first": "2020-01-13",
    "last": "2022-03-31"
  },
  {
    "id": "4475",
    "name": "San Pedro & Winston",
    "lat": 34.045181,
    "lon": -118.243248,
    "first": "2020-01-16",
    "last": "2022-03-31"
  },
  {
    "id": "4474",
    "name": "Ambrose & Hillhurst",
    "lat": 34.110031,
    "lon": -118.287163,
    "first": "2020-01-17",
    "last": "2022-03-31"
  },
  {
    "id": "4505",
    "name": "Glen Alla Park",
    "lat": 33.98489,
    "lon": -118.431572,
    "first": "2020-02-15",
    "last": "2020-09-30"
  },
  {
    "id": "4476",
    "name": "Sunset & Silver Lake",
    "lat": 34.08252,
    "lon": -118.27272,
    "first": "2020-02-20",
    "last": "2022-03-31"
  },
  {
    "id": "4504",
    "name": "Vista Del Mar & Culver",
    "lat": 33.95879,
    "lon": -118.44828,
    "first": "2020-02-21",
    "last": "2020-09-30"
  },
  {
    "id": "4503",
    "name": "Stanford & Washington",
    "lat": 33.9897,
    "lon": -118.448883,
    "first": "2020-02-26",
    "last": "2020-09-30"
  },
  {
    "id": "4496",
    "name": "Concert Park",
    "lat": 33.97298,
    "lon": -118.423943,
    "first": "2020-03-03",
    "last": "2020-09-30"
  },
  {
    "id": "4500",
    "name": "Burbank & Cahuenga",
    "lat": 34.1721,
    "lon": -118.361816,
    "first": "2020-03-07",
    "last": "2021-09-30"
  },
  {
    "id": "4499",
    "name": "Victory & Colfax",
    "lat": 34.186569,
    "lon": -118.388008,
    "first": "2020-03-08",
    "last": "2021-09-30"
  },
  {
    "id": "4497",
    "name": "Riverside & Laurel Canyon",
    "lat": 34.15749,
    "lon": -118.39576,
    "first": "2020-04-15",
    "last": "2021-09-30"
  },
  {
    "id": "4524",
    "name": "Wilshire & Normandie",
    "lat": 34.06163,
    "lon": -118.301193,
    "first": "2020-04-17",
    "last": "2022-03-31"
  },
  {
    "id": "4498",
    "name": "Vineland & Oxnard",
    "lat": 34.17989,
    "lon": -118.370422,
    "first": "2020-04-18",
    "last": "2021-12-31"
  },
  {
    "id": "4523",
    "name": "Western & 3rd",
    "lat": 34.068748,
    "lon": -118.30928,
    "first": "2020-04-23",
    "last": "2022-03-31"
  },
  {
    "id": "4502",
    "name": "North Hollywood Plaza",
    "lat": 34.16552,
    "lon": -118.375153,
    "first": "2020-05-07",
    "last": "2021-12-31"
  },
  {
    "id": "4512",
    "name": "Figueroa & 11th",
    "lat": 34.043812,
    "lon": -118.264969,
    "first": "2020-05-12",
    "last": "2022-03-31"
  },
  {
    "id": "4538",
    "name": "5th & Western",
    "lat": 34.06543,
    "lon": -118.308823,
    "first": "2020-07-09",
    "last": "2022-03-31"
  },
  {
    "id": "4516",
    "name": "7th & Hill",
    "lat": 34.045849,
    "lon": -118.254402,
    "first": "2020-07-16",
    "last": "2022-03-31"
  },
  {
    "id": "4518",
    "name": "Normandie & 8th",
    "lat": 34.057968,
    "lon": -118.299751,
    "first": "2020-07-21",
    "last": "2022-03-31"
  },
  {
    "id": "4509",
    "name": "Western & Hollywood",
    "lat": 34.101639,
    "lon": -118.309174,
    "first": "2020-08-06",
    "last": "2022-03-31"
  },
  {
    "id": "4510",
    "name": "Mohawk Bend",
    "lat": 34.077351,
    "lon": -118.264549,
    "first": "2020-08-13",
    "last": "2022-03-31"
  },
  {
    "id": "4540",
    "name": "1st & Utah",
    "lat": 34.04776,
    "lon": -118.22541,
    "first": "2020-09-10",
    "last": "2022-03-31"
  },
  {
    "id": "4513",
    "name": "Edgemont & Melrose",
    "lat": 34.08371,
    "lon": -118.296021,
    "first": "2020-09-24",
    "last": "2022-03-31"
  },
  {
    "id": "4511",
    "name": "Union Station East Portal",
    "lat": 34.056278,
    "lon": -118.231773,
    "first": "2020-10-12",
    "last": "2022-03-31"
  },
  {
    "id": "4543",
    "name": "Toes Beach at Culver Blvd",
    "lat": 33.95718,
    "lon": -118.451248,
    "first": "2020-10-21",
    "last": "2022-03-31"
  },
  {
    "id": "4558",
    "name": "Bagley & Venice",
    "lat": 34.025688,
    "lon": -118.395302,
    "first": "2020-10-21",
    "last": "2022-03-31"
  },
  {
    "id": "4544",
    "name": "Dockweiler Beach at Imperial Hwy",
    "lat": 33.928459,
    "lon": -118.435204,
    "first": "2020-10-21",
    "last": "2022-03-31"
  },
  {
    "id": "4568",
    "name": "Palms E Line Station",
    "lat": 34.029121,
    "lon": -118.403168,
    "first": "2020-10-23",
    "last": "2022-03-31"
  },
  {
    "id": "4545",
    "name": "Vista Del Mar & Culver",
    "lat": 33.95879,
    "lon": -118.44828,
    "first": "2020-10-24",
    "last": "2022-03-31"
  },
  {
    "id": "4563",
    "name": "Venice & Glendon",
    "lat": 34.017681,
    "lon": -118.409081,
    "first": "2020-10-24",
    "last": "2022-03-31"
  },
  {
    "id": "4582",
    "name": "Westlawn & Beatrice",
    "lat": 33.980991,
    "lon": -118.414879,
    "first": "2020-11-07",
    "last": "2022-03-31"
  },
  {
    "id": "4583",
    "name": "McConnell & Runway",
    "lat": 33.976189,
    "lon": -118.418419,
    "first": "2020-11-07",
    "last": "2022-03-31"
  },
  {
    "id": "4556",
    "name": "McLaughlin & Venice",
    "lat": 34.009022,
    "lon": -118.425011,
    "first": "2020-11-14",
    "last": "2022-03-31"
  },
  {
    "id": "4554",
    "name": "Venice & Colonial",
    "lat": 34.00351,
    "lon": -118.43438,
    "first": "2020-11-19",
    "last": "2022-03-31"
  },
  {
    "id": "4571",
    "name": "Rose & Overland",
    "lat": 34.027649,
    "lon": -118.413559,
    "first": "2020-11-21",
    "last": "2022-03-31"
  },
  {
    "id": "4564",
    "name": "Expo/Sepulveda E Line Station",
    "lat": 34.035351,
    "lon": -118.434143,
    "first": "2020-11-21",
    "last": "2022-03-31"
  },
  {
    "id": "4572",
    "name": "National & Motor",
    "lat": 34.02948,
    "lon": -118.410469,
    "first": "2020-11-28",
    "last": "2022-03-31"
  },
  {
    "id": "4546",
    "name": "Expo/Bundy E Line Station",
    "lat": 34.031399,
    "lon": -118.453629,
    "first": "2020-11-28",
    "last": "2022-03-31"
  },
  {
    "id": "4560",
    "name": "Sepulveda & Charnock",
    "lat": 34.017368,
    "lon": -118.420601,
    "first": "2020-11-29",
    "last": "2022-03-31"
  },
  {
    "id": "4580",
    "name": "Centinela & Lucile",
    "lat": 33.982922,
    "lon": -118.410927,
    "first": "2020-11-30",
    "last": "2022-03-31"
  },
  {
    "id": "4567",
    "name": "Venice & Motor",
    "lat": 34.02018,
    "lon": -118.40403,
    "first": "2020-12-01",
    "last": "2022-03-31"
  },
  {
    "id": "4570",
    "name": "Sepulveda & Venice",
    "lat": 34.01376,
    "lon": -118.417801,
    "first": "2020-12-01",
    "last": "2022-03-31"
  },
  {
    "id": "4555",
    "name": "Venice & Inglewood",
    "lat": 34.005871,
    "lon": -118.429161,
    "first": "2020-12-03",
    "last": "2022-03-31"
  },
  {
    "id": "4557",
    "name": "Venice & Sawtelle",
    "lat": 34.011799,
    "lon": -118.419441,
    "first": "2020-12-03",
    "last": "2022-03-31"
  },
  {
    "id": "4573",
    "name": "Westwood & National",
    "lat": 34.030472,
    "lon": -118.420982,
    "first": "2020-12-04",
    "last": "2022-03-31"
  },
  {
    "id": "4559",
    "name": "Palms & Kelton",
    "lat": 34.021992,
    "lon": -118.416496,
    "first": "2020-12-04",
    "last": "2022-03-31"
  },
  {
    "id": "4569",
    "name": "Palms & Motor",
    "lat": 34.02655,
    "lon": -118.408463,
    "first": "2020-12-04",
    "last": "2022-03-31"
  },
  {
    "id": "4566",
    "name": "Venice & Hughes",
    "lat": 34.023392,
    "lon": -118.399223,
    "first": "2020-12-08",
    "last": "2022-03-31"
  },
  {
    "id": "4536",
    "name": "Venice & Abbot Kinney",
    "lat": 33.989079,
    "lon": -118.462257,
    "first": "2020-12-11",
    "last": "2022-03-31"
  },
  {
    "id": "4549",
    "name": "Barrington & National",
    "lat": 34.022449,
    "lon": -118.438332,
    "first": "2020-12-12",
    "last": "2022-03-31"
  },
  {
    "id": "4577",
    "name": "Inglewood & Braddock",
    "lat": 33.993019,
    "lon": -118.414909,
    "first": "2020-12-13",
    "last": "2022-03-31"
  },
  {
    "id": "4553",
    "name": "Venice & Beethoven",
    "lat": 33.99958,
    "lon": -118.44136,
    "first": "2021-01-15",
    "last": "2022-03-31"
  },
  {
    "id": "4562",
    "name": "Sepulveda & National",
    "lat": 34.02697,
    "lon": -118.428207,
    "first": "2021-01-15",
    "last": "2022-03-31"
  },
  {
    "id": "4561",
    "name": "Sepulveda & Palms",
    "lat": 34.020061,
    "lon": -118.422684,
    "first": "2021-01-16",
    "last": "2022-03-31"
  },
  {
    "id": "4486",
    "name": "Vista Hermosa Park",
    "lat": 34.06126,
    "lon": -118.258598,
    "first": "2021-02-03",
    "last": "2022-03-31"
  },
  {
    "id": "4548",
    "name": "Durango & Venice",
    "lat": 34.026829,
    "lon": -118.393517,
    "first": "2021-02-03",
    "last": "2022-03-31"
  },
  {
    "id": "4581",
    "name": "Playa Vista Library",
    "lat": 33.970242,
    "lon": -118.426071,
    "first": "2021-02-06",
    "last": "2022-03-31"
  },
  {
    "id": "4547",
    "name": "Stanford & Washington",
    "lat": 33.9897,
    "lon": -118.448883,
    "first": "2021-03-05",
    "last": "2022-03-31"
  },
  {
    "id": "4521",
    "name": "Inglewood & Ballona",
    "lat": 33.990318,
    "lon": -118.412048,
    "first": "2021-03-05",
    "last": "2022-03-31"
  },
  {
    "id": "4575",
    "name": "Lucerne & Sepulveda",
    "lat": 34.000309,
    "lon": -118.402527,
    "first": "2021-03-18",
    "last": "2022-03-31"
  },
  {
    "id": "4565",
    "name": "Alla & Maxella",
    "lat": 33.989948,
    "lon": -118.434669,
    "first": "2021-03-21",
    "last": "2022-03-31"
  },
  {
    "id": "4255",
    "name": "Seabluff & Runway",
    "lat": 33.97366,
    "lon": -118.422859,
    "first": "2021-03-26",
    "last": "2022-03-31"
  },
  {
    "id": "4492",
    "name": "Westwood/Rancho Park E Line Station",
    "lat": 34.036869,
    "lon": -118.425499,
    "first": "2021-05-06",
    "last": "2022-03-31"
  },
  {
    "id": "4217",
    "name": "Broadway & 11th",
    "lat": 34.04031,
    "lon": -118.25827,
    "first": "2021-04-13",
    "last": "2022-03-31"
  },
  {
    "id": "4576",
    "name": "Motor & Regent",
    "lat": 34.022579,
    "lon": -118.40551,
    "first": "2021-04-21",
    "last": "2022-03-31"
  },
  {
    "id": "4579",
    "name": "Alla & Glencoe",
    "lat": 33.984859,
    "lon": -118.431129,
    "first": "2021-04-15",
    "last": "2022-03-31"
  },
  {
    "id": "4587",
    "name": "Wiltern",
    "lat": 34.060791,
    "lon": -118.309067,
    "first": "2021-04-22",
    "last": "2022-03-31"
  },
  {
    "id": "4578",
    "name": "Main & 8th",
    "lat": 34.04298,
    "lon": -118.252953,
    "first": "2021-07-02",
    "last": "2022-03-31"
  },
  {
    "id": "4552",
    "name": "Culver & Centinela",
    "lat": 33.990971,
    "lon": -118.421303,
    "first": "2021-07-15",
    "last": "2022-03-31"
  },
  {
    "id": "4526",
    "name": "Franklin & Fuller",
    "lat": 34.103378,
    "lon": -118.34919,
    "first": "2021-09-28",
    "last": "2022-03-31"
  },
  {
    "id": "4477",
    "name": "Yucca & Argyle",
    "lat": 34.103851,
    "lon": -118.325462,
    "first": "2021-09-28",
    "last": "2022-03-31"
  },
  {
    "id": "4537",
    "name": "Highland & Sunset",
    "lat": 34.098228,
    "lon": -118.338821,
    "first": "2021-09-29",
    "last": "2022-03-31"
  },
  {
    "id": "4525",
    "name": "Hawthorn & Orange",
    "lat": 34.10038,
    "lon": -118.341797,
    "first": "2021-10-01",
    "last": "2022-03-31"
  },
  {
    "id": "4539",
    "name": "Cherokee & Hollywood",
    "lat": 34.101761,
    "lon": -118.33474,
    "first": "2021-10-03",
    "last": "2022-03-31"
  },
  {
    "id": "4529",
    "name": "Whitley & Hollywood",
    "lat": 34.10186,
    "lon": -118.33329,
    "first": "2021-10-03",
    "last": "2022-03-31"
  },
  {
    "id": "4534",
    "name": "Ivar & Hollywood",
    "lat": 34.10186,
    "lon": -118.32811,
    "first": "2021-10-06",
    "last": "2022-03-31"
  },
  {
    "id": "4584",
    "name": "Fountain & Vine",
    "lat": 34.094349,
    "lon": -118.326363,
    "first": "2021-10-06",
    "last": "2022-03-31"
  },
  {
    "id": "4517",
    "name": "Highland & Hollywood",
    "lat": 34.101959,
    "lon": -118.338852,
    "first": "2021-10-07",
    "last": "2022-03-31"
  },
  {
    "id": "4527",
    "name": "McCadden & Hollywood",
    "lat": 34.102001,
    "lon": -118.33741,
    "first": "2021-10-08",
    "last": "2022-03-31"
  },
  {
    "id": "4528",
    "name": "Glendon & Kinross",
    "lat": 34.06097,
    "lon": -118.444366,
    "first": "2021-12-15",
    "last": "2022-03-31"
  },
  {
    "id": "4487",
    "name": "Broxton & Weyburn",
    "lat": 34.062111,
    "lon": -118.446922,
    "first": "2022-01-16",
    "last": "2022-03-31"
  },
  {
    "id": "3021",
    "name": "3rd & Rose",
    "lat": 34.0456085,
    "lon": -118.23703,
    "first": "2016-07-07",
    "last": "2016-09-30"
  }
]
