[{"id": "115", "name": "Porter Square Station", "lat": 42.387995, "lon": -71.119084, "first": "2013-12-31", "last": "2022-06-30"}, {"id": "80", "name": "MIT Stata Center at Vassar St / Main St", "lat": 42.3619622, "lon": -71.0920526, "first": "2012-11-20", "last": "2022-06-30"}, {"id": "91", "name": "One Kendall Square at Hampshire St / Portland St", "lat": 42.366277, "lon": -71.09169, "first": "2012-11-20", "last": "2022-06-30"}, {"id": "105", "name": "Lower Cambridgeport at Magazine St/Riverside Rd", "lat": 42.356954, "lon": -71.113687, "first": "2012-11-20", "last": "2022-06-30"}, {"id": "88", "name": "Inman Square at Vellucci Plaza / Hampshire St", "lat": 42.374035, "lon": -71.101427, "first": "2012-11-20", "last": "2019-01-28"}, {"id": "68", "name": "Central Square at Mass Ave / Essex St", "lat": 42.36507, "lon": -71.1031, "first": "2012-11-20", "last": "2022-06-30"}, {"id": "117", "name": "Binney St / Sixth St", "lat": 42.366095, "lon": -71.086388, "first": "2013-12-31", "last": "2022-06-30"}, {"id": "67", "name": "MIT at Mass Ave / Amherst St", "lat": 42.3581, "lon": -71.093198, "first": "2012-11-20", "last": "2022-06-30"}, {"id": "75", "name": "Lafayette Square at Mass Ave / Main St / Columbia St", "lat": 42.36346469304347, "lon": -71.10057324171066, "first": "2012-11-20", "last": "2022-06-30"}, {"id": "90", "name": "Lechmere Station at Cambridge St / First St", "lat": 42.370677, "lon": -71.076529, "first": "2012-11-20", "last": "2022-04-30"}, {"id": "116", "name": "359 Broadway - Broadway at Fayette Street", "lat": 42.370803, "lon": -71.104412, "first": "2013-12-31", "last": "2022-06-30"}, {"id": "95", "name": "Cambridge St - at Columbia St / Webster Ave", "lat": 42.372969, "lon": -71.094445, "first": "2012-11-20", "last": "2022-06-30"}, {"id": "110", "name": "Harvard University Gund Hall at Quincy St / Kirkland S", "lat": 42.376369, "lon": -71.114025, "first": "2013-12-31", "last": "2022-06-30"}, {"id": "73", "name": "Harvard Square at Brattle St / Eliot St", "lat": 42.373231, "lon": -71.120886, "first": "2012-11-20", "last": "2022-06-30"}, {"id": "104", "name": "Harvard University Radcliffe Quadrangle at Shepard St / Garden St", "lat": 42.380287, "lon": -71.125107, "first": "2012-11-20", "last": "2022-06-30"}, {"id": "140", "name": "Danehy Park", "lat": 42.388966, "lon": -71.132788, "first": "2014-06-30", "last": "2022-06-30"}, {"id": "107", "name": "Ames St at Main St", "lat": 42.3625, "lon": -71.08822, "first": "2012-11-20", "last": "2022-06-30"}, {"id": "74", "name": "Harvard Square at Mass Ave/ Dunster", "lat": 42.373268, "lon": -71.118579, "first": "2012-11-20", "last": "2022-06-30"}, {"id": "89", "name": "Harvard Law School at Mass Ave / Jarvis St", "lat": 42.379011, "lon": -71.119945, "first": "2012-11-20", "last": "2022-06-30"}, {"id": "143", "name": "EF - North Point Park", "lat": 42.369885, "lon": -71.069957, "first": "2014-06-30", "last": "2022-06-30"}, {"id": "76", "name": "Central Sq Post Office / Cambridge City Hall at Mass Ave / Pleasant St", "lat": 42.366426, "lon": -71.105495, "first": "2012-11-20", "last": "2022-06-30"}, {"id": "141", "name": "Kendall Street", "lat": 42.36356015842989, "lon": -71.08216792345047, "first": "2014-06-30", "last": "2022-06-30"}, {"id": "72", "name": "One Broadway / Kendall Sq at Main St / 3rd St", "lat": 42.362613, "lon": -71.084105, "first": "2012-11-20", "last": "2022-06-30"}, {"id": "96", "name": "Cambridge Main Library at Broadway / Trowbridge St", "lat": 42.373379, "lon": -71.111075, "first": "2012-11-20", "last": "2022-06-30"}, {"id": "70", "name": "Harvard Kennedy School at Bennett St / Eliot St", "lat": 42.371196, "lon": -71.121473, "first": "2012-11-20", "last": "2022-06-30"}, {"id": "87", "name": "Harvard University Housing - 115 Putnam Ave at Peabody Terrace", "lat": 42.366621, "lon": -71.114214, "first": "2012-11-20", "last": "2022-06-30"}, {"id": "97", "name": "Harvard University River Houses at DeWolfe St / Cowperthwaite St", "lat": 42.36919031768079, "lon": -71.11714124679565, "first": "2015-01-01", "last": "2022-06-30"}, {"id": "108", "name": "Harvard University / SEAS Cruft-Pierce Halls at 29 Oxford St", "lat": 42.377945, "lon": -71.116865, "first": "2012-11-20", "last": "2022-06-30"}, {"id": "118", "name": "Linear Park - Mass. Ave. at Cameron Ave. ", "lat": 42.397828, "lon": -71.130516, "first": "2013-12-31", "last": "2022-06-30"}, {"id": "84", "name": "CambridgeSide Galleria - CambridgeSide PL at Land Blvd", "lat": 42.366981, "lon": -71.076472, "first": "2012-11-20", "last": "2022-06-30"}, {"id": "142", "name": "Alewife Station at Russell Field", "lat": 42.396105, "lon": -71.139459, "first": "2014-12-31", "last": "2022-06-30"}, {"id": "145", "name": "Rindge Avenue - O'Neill Library", "lat": 42.392766, "lon": -71.129042, "first": "2014-12-31", "last": "2022-06-30"}, {"id": "1", "name": "18 Dorrance Warehouse", "lat": 42.387151, "lon": -71.075978, "first": "2015-03-16", "last": "2022-04-30"}, {"id": "55", "name": "Boylston / Mass Ave", "lat": 42.347265, "lon": -71.088088, "first": "2011-11-30", "last": "2022-06-30"}, {"id": "125", "name": "Hyde Square at Barbara St", "lat": 42.320998, "lon": -71.110833, "first": "2013-12-31", "last": "2022-06-30"}, {"id": "54", "name": "Tremont St / West St", "lat": 42.354979, "lon": -71.063348, "first": "2011-11-30", "last": "2022-06-30"}, {"id": "41", "name": "Packard's Corner - Comm. Ave. at Brighton Ave.", "lat": 42.352261, "lon": -71.123831, "first": "2011-11-30", "last": "2022-06-30"}, {"id": "19", "name": "Buswell St. at Park Dr.", "lat": 42.347241, "lon": -71.105301, "first": "2012-11-20", "last": "2022-06-30"}, {"id": "60", "name": "Charles Circle - Charles St. at Cambridge St.", "lat": 42.360835, "lon": -71.0708399, "first": "2011-11-30", "last": "2022-06-30"}, {"id": "45", "name": "Yawkey Way at Boylston St.", "lat": 42.344706, "lon": -71.097515, "first": "2011-11-30", "last": "2018-11-30"}, {"id": "53", "name": "Beacon St / Mass Ave", "lat": 42.350851, "lon": -71.089886, "first": "2011-11-30", "last": "2022-06-30"}, {"id": "66", "name": "Allston Green District - Commonwealth Ave & Griggs St", "lat": 42.348607, "lon": -71.13401, "first": "2012-11-20", "last": "2022-06-30"}, {"id": "39", "name": "Washington St. at Rutland St.", "lat": 42.338623, "lon": -71.074182, "first": "2011-11-30", "last": "2022-06-30"}, {"id": "21", "name": "Prudential Center / Belvidere", "lat": 42.345959, "lon": -71.082578, "first": "2011-11-30", "last": "2022-06-30"}, {"id": "43", "name": "Rowes Wharf - Atlantic Ave", "lat": 42.357143, "lon": -71.050699, "first": "2011-11-30", "last": "2022-06-30"}, {"id": "58", "name": "The Esplanade - Beacon St. at Arlington St.", "lat": 42.355596, "lon": -71.07278, "first": "2011-11-30", "last": "2022-06-30"}, {"id": "57", "name": "Columbus Ave. at Mass. Ave.", "lat": 42.340799, "lon": -71.081572, "first": "2011-11-30", "last": "2022-06-30"}, {"id": "109", "name": "TD Garden - Causeway at Portal Park #1", "lat": 42.365942, "lon": -71.060515, "first": "2012-11-20", "last": "2022-06-30"}, {"id": "20", "name": "Aquarium Station - 200 Atlantic Ave.", "lat": 42.35977, "lon": -71.051601, "first": "2011-11-30", "last": "2022-06-30"}, {"id": "78", "name": "Union Square - Somerville", "lat": 42.379637, "lon": -71.095319, "first": "2012-11-20", "last": "2022-06-30"}, {"id": "71", "name": "Conway Park - Somerville Avenue", "lat": 42.383405, "lon": -71.107593, "first": "2012-11-20", "last": "2022-06-30"}, {"id": "98", "name": "Charlestown - Warren St at Chelsea St", "lat": 42.371848, "lon": -71.060292, "first": "2012-11-20", "last": "2022-06-30"}, {"id": "38", "name": "TD Garden - Causeway at Portal Park #2", "lat": 42.366222, "lon": -71.059914, "first": "2011-11-30", "last": "2016-09-30"}, {"id": "22", "name": "South Station - 700 Atlantic Ave.", "lat": 42.352175, "lon": -71.055547, "first": "2011-11-30", "last": "2022-06-30"}, {"id": "40", "name": "Lewis Wharf - Atlantic Ave.", "lat": 42.363871, "lon": -71.050877, "first": "2011-11-30", "last": "2022-06-30"}, {"id": "16", "name": "Back Bay / South End Station", "lat": 42.34807412317439, "lon": -71.07657015323639, "first": "2011-11-30", "last": "2022-06-30"}, {"id": "9", "name": "Agganis Arena - 925 Comm Ave.", "lat": 42.351246, "lon": -71.115639, "first": "2011-11-30", "last": "2022-06-30"}, {"id": "112", "name": "Somerville Hospital at Highland Ave / Crocker St", "lat": 42.39082, "lon": -71.10942, "first": "2013-12-31", "last": "2022-06-30"}, {"id": "6", "name": "Cambridge St. at Joy St.", "lat": 42.361174, "lon": -71.065142, "first": "2011-11-30", "last": "2022-06-30"}, {"id": "23", "name": "Mayor Martin J Walsh - 28 State St", "lat": 42.35892, "lon": -71.057629, "first": "2011-11-30", "last": "2022-06-30"}, {"id": "42", "name": "Boylston St. at Arlington St.", "lat": 42.352033, "lon": -71.070627, "first": "2011-11-30", "last": "2022-06-30"}, {"id": "32", "name": "Landmark Centre", "lat": 42.343912, "lon": -71.102221, "first": "2011-11-30", "last": "2022-06-30"}, {"id": "4", "name": "Tremont St. at Berkeley St.", "lat": 42.345392, "lon": -71.069616, "first": "2011-11-30", "last": "2022-06-30"}, {"id": "121", "name": "West Broadway at Dorchester St", "lat": 42.335693, "lon": -71.045859, "first": "2013-12-31", "last": "2022-06-30"}, {"id": "46", "name": "Christian Science Plaza", "lat": 42.343864, "lon": -71.085918, "first": "2011-11-30", "last": "2022-06-30"}, {"id": "13", "name": "Boston Medical Center -  East Concord at Harrison Ave", "lat": 42.336437, "lon": -71.073089, "first": "2011-11-30", "last": "2022-06-30"}, {"id": "85", "name": "Spaulding Rehabilitation Hospital - Charlestown Navy Yard", "lat": 42.378338, "lon": -71.048927, "first": "2012-11-20", "last": "2022-06-30"}, {"id": "99", "name": "Wilson Square", "lat": 42.385582, "lon": -71.113341, "first": "2012-11-20", "last": "2022-06-30"}, {"id": "44", "name": "Faneuil Hall - Union St. at North St.", "lat": 42.360613, "lon": -71.057452, "first": "2011-11-30", "last": "2022-06-30"}, {"id": "12", "name": "Ruggles Station / Columbus Ave.", "lat": 42.335911, "lon": -71.088496, "first": "2011-11-30", "last": "2022-06-30"}, {"id": "77", "name": "Somerville City Hall", "lat": 42.386844, "lon": -71.09812, "first": "2012-11-20", "last": "2022-06-30"}, {"id": "129", "name": "Hayes Square at Vine St.", "lat": 42.377022, "lon": -71.056605, "first": "2013-12-31", "last": "2022-06-30"}, {"id": "114", "name": "Teele Square at 239 Holland St", "lat": 42.402763, "lon": -71.126908, "first": "2013-12-31", "last": "2022-06-30"}, {"id": "119", "name": "South Boston Library - 646 East Broadway", "lat": 42.335741, "lon": -71.03877, "first": "2013-12-31", "last": "2022-06-30"}, {"id": "100", "name": "Davis Square", "lat": 42.396969, "lon": -71.123024, "first": "2012-11-20", "last": "2022-06-30"}, {"id": "8", "name": "Union Square - Brighton Ave. at Cambridge St.", "lat": 42.353334, "lon": -71.137313, "first": "2011-11-30", "last": "2022-06-30"}, {"id": "86", "name": "Brookline Village - Pearl Street @ MBTA", "lat": 42.332799, "lon": -71.116205, "first": "2015-04-17", "last": "2022-06-30"}, {"id": "27", "name": "Roxbury Crossing Station", "lat": 42.331184, "lon": -71.095171, "first": "2011-11-30", "last": "2022-06-30"}, {"id": "48", "name": "Post Office Square", "lat": 42.356755, "lon": -71.055407, "first": "2011-11-30", "last": "2022-06-30"}, {"id": "93", "name": "JFK / UMASS at MBTA Station", "lat": 42.320494, "lon": -71.051122, "first": "2015-04-17", "last": "2022-06-30"}, {"id": "3", "name": "Colleges of the Fenway", "lat": 42.340021, "lon": -71.100812, "first": "2011-11-30", "last": "2022-06-30"}, {"id": "26", "name": "Washington St. at Waltham St.", "lat": 42.341522, "lon": -71.068922, "first": "2011-11-30", "last": "2022-06-30"}, {"id": "122", "name": "BIDMC - Brookline at Burlington St", "lat": 42.345733, "lon": -71.100694, "first": "2013-12-31", "last": "2022-06-30"}, {"id": "15", "name": "Harvard Real Estate - Brighton Mills - 370 Western Ave", "lat": 42.361667, "lon": -71.13802, "first": "2011-11-30", "last": "2022-06-30"}, {"id": "133", "name": "Green St T", "lat": 42.310579, "lon": -71.107341, "first": "2013-12-31", "last": "2022-06-30"}, {"id": "47", "name": "Cross St. at Hanover St.", "lat": 42.362811, "lon": -71.056067, "first": "2011-11-30", "last": "2022-06-30"}, {"id": "17", "name": "Harvard University Housing - 111 Western Ave. at Soldiers Field Park ", "lat": 42.365064, "lon": -71.119233, "first": "2011-11-30", "last": "2022-06-30"}, {"id": "149", "name": "Harvard University Transportation Services - 175 North Harvard St", "lat": 42.363796, "lon": -71.129164, "first": "2014-06-30", "last": "2022-06-30"}, {"id": "111", "name": "Packard Ave / Powderhouse Blvd", "lat": 42.40449, "lon": -71.123413, "first": "2013-12-31", "last": "2022-06-30"}, {"id": "49", "name": "Stuart St. at Charles St.", "lat": 42.351146, "lon": -71.066289, "first": "2011-11-30", "last": "2022-06-30"}, {"id": "102", "name": "Powder House Circle - Nathan Tufts Park", "lat": 42.400877, "lon": -71.116772, "first": "2012-11-20", "last": "2022-06-30"}, {"id": "14", "name": "HMS / HSPH - Ave. Louis Pasteur at Longwood Ave.", "lat": 42.337171, "lon": -71.102797, "first": "2011-11-30", "last": "2022-06-30"}, {"id": "59", "name": "Chinatown Gate Plaza - Surface Rd. at Beach St.", "lat": 42.351356, "lon": -71.059367, "first": "2011-11-30", "last": "2022-06-30"}, {"id": "81", "name": "Boylston St / Washington St", "lat": 42.352409, "lon": -71.062679, "first": "2012-11-20", "last": "2022-06-30"}, {"id": "152", "name": "Ink Block", "lat": 42.345901, "lon": -71.063187, "first": "2015-04-17", "last": "2022-06-30"}, {"id": "150", "name": "State Street at Channel Center", "lat": 42.344137, "lon": -71.052608, "first": "2014-12-31", "last": "2022-06-30"}, {"id": "30", "name": "Brigham Cir / Huntington Ave", "lat": 42.334073, "lon": -71.105221, "first": "2011-11-30", "last": "2022-06-30"}, {"id": "10", "name": "B.U. Central - 725 Comm. Ave.", "lat": 42.350406, "lon": -71.108279, "first": "2011-11-30", "last": "2022-06-30"}, {"id": "124", "name": "Curtis Hall at South Street", "lat": 42.309054, "lon": -71.11543, "first": "2015-04-17", "last": "2022-06-30"}, {"id": "25", "name": "Tremont St / W Newton St", "lat": 42.341332, "lon": -71.076847, "first": "2011-11-30", "last": "2022-06-30"}, {"id": "123", "name": "JP Center - Centre Street at Myrtle Street", "lat": 42.313156, "lon": -71.11414, "first": "2013-12-31", "last": "2015-11-30"}, {"id": "130", "name": "Upham's Corner - Ramsey St at Dudley St", "lat": 42.317225, "lon": -71.065421, "first": "2013-12-31", "last": "2022-06-30"}, {"id": "64", "name": "Congress / Sleeper", "lat": 42.3511, "lon": -71.0496, "first": "2011-11-30", "last": "2022-06-30"}, {"id": "11", "name": "Longwood Ave / Binney St", "lat": 42.338629, "lon": -71.1065, "first": "2011-11-30", "last": "2022-06-30"}, {"id": "7", "name": "Fan Pier", "lat": 42.35328743453294, "lon": -71.04438900947571, "first": "2011-11-30", "last": "2022-06-30"}, {"id": "31", "name": "Seaport Hotel", "lat": 42.348833, "lon": -71.041747, "first": "2011-11-30", "last": "2022-06-30"}, {"id": "151", "name": "John F Fitzgerald - Surface Road at India Street", "lat": 42.358155, "lon": -71.052163, "first": "2015-04-17", "last": "2022-06-30"}, {"id": "29", "name": "Innovation Lab - 125 Western Ave. at Batten Way", "lat": 42.363732, "lon": -71.124565, "first": "2011-11-30", "last": "2022-06-30"}, {"id": "135", "name": "ID Building East", "lat": 42.344827, "lon": -71.028664, "first": "2014-06-30", "last": "2022-06-30"}, {"id": "139", "name": "Dana Park", "lat": 42.361589, "lon": -71.107437, "first": "2014-06-30", "last": "2022-06-30"}, {"id": "63", "name": "Dorchester Ave. at Gillette Park", "lat": 42.344023, "lon": -71.057054, "first": "2011-11-30", "last": "2022-06-30"}, {"id": "5", "name": "Northeastern U / North Parking Lot", "lat": 42.341814, "lon": -71.090179, "first": "2011-11-30", "last": "2022-06-30"}, {"id": "24", "name": "Seaport Square - Seaport Blvd. at Boston Wharf", "lat": 42.351205, "lon": -71.043983, "first": "2011-11-30", "last": "2022-06-30"}, {"id": "65", "name": "Boston Convention & Exhibition Center", "lat": 42.3475, "lon": -71.0441, "first": "2012-11-20", "last": "2022-06-30"}, {"id": "37", "name": "New Balance - 20 Guest St.", "lat": 42.357402, "lon": -71.147782, "first": "2011-11-30", "last": "2022-06-30"}, {"id": "126", "name": "Egleston Square at Columbus Ave", "lat": 42.315692, "lon": -71.098634, "first": "2013-12-31", "last": "2022-06-30"}, {"id": "136", "name": "ID Building West", "lat": 42.344796, "lon": -71.031614, "first": "2014-06-30", "last": "2022-06-30"}, {"id": "51", "name": "Washington St. at Lenox St.", "lat": 42.3348756, "lon": -71.0790969, "first": "2011-11-30", "last": "2022-06-30"}, {"id": "94", "name": "Charlestown - Main St at Austin St", "lat": 42.375603, "lon": -71.064608, "first": "2012-11-20", "last": "2022-06-30"}, {"id": "137", "name": "Magoun Square at Trum Field", "lat": 42.398365, "lon": -71.107818, "first": "2014-06-30", "last": "2022-06-30"}, {"id": "103", "name": "JFK Crossing at Harvard St. / Thorndike St.", "lat": 42.346563, "lon": -71.128374, "first": "2013-12-31", "last": "2022-06-30"}, {"id": "113", "name": "Andrew Station - Dorchester Ave at Humboldt Pl", "lat": 42.330716, "lon": -71.057044, "first": "2013-12-31", "last": "2022-06-30"}, {"id": "131", "name": "Jackson Square T at Centre St", "lat": 42.322701, "lon": -71.099533, "first": "2013-12-31", "last": "2022-06-30"}, {"id": "128", "name": "E. Cottage St at Columbia Rd", "lat": 42.320561, "lon": -71.06198, "first": "2013-12-31", "last": "2022-06-30"}, {"id": "120", "name": "Charles St at Beacon St", "lat": 42.356052, "lon": -71.069849, "first": "2013-12-31", "last": "2022-06-30"}, {"id": "138", "name": "Mass Ave at Newmarket Square", "lat": 42.326599, "lon": -71.066498, "first": "2015-04-19", "last": "2022-06-30"}, {"id": "35", "name": "Franklin St. / Arch St.", "lat": 42.355402, "lon": -71.058087, "first": "2011-11-30", "last": "2022-06-30"}, {"id": "69", "name": "Coolidge Corner - Beacon St @ Centre St", "lat": 42.341598, "lon": -71.123338, "first": "2012-11-20", "last": "2022-06-30"}, {"id": "106", "name": "Mt Pleasant Ave / Dudley Town Common", "lat": 42.325333, "lon": -71.075354, "first": "2012-11-20", "last": "2022-06-30"}, {"id": "56", "name": "Dudley Square", "lat": 42.328654, "lon": -71.084198, "first": "2011-11-30", "last": "2022-06-30"}, {"id": "61", "name": "Boylston at Fairfield", "lat": 42.348762, "lon": -71.082383, "first": "2011-11-30", "last": "2022-06-30"}, {"id": "33", "name": "Kenmore Sq / Comm Ave", "lat": 42.348706, "lon": -71.097009, "first": "2011-11-30", "last": "2022-06-30"}, {"id": "36", "name": "Boston Public Library - 700 Boylston St.", "lat": 42.349673, "lon": -71.077303, "first": "2011-11-30", "last": "2022-06-30"}, {"id": "134", "name": "New Balance Store - Boylston at Dartmouth", "lat": 42.350413, "lon": -71.07655, "first": "2013-12-31", "last": "2020-07-31"}, {"id": "50", "name": "Boylston St / Berkeley St", "lat": 42.350989, "lon": -71.073644, "first": "2011-11-30", "last": "2022-06-30"}, {"id": "52", "name": "Newbury St / Hereford St", "lat": 42.348717, "lon": -71.085954, "first": "2011-11-30", "last": "2022-06-30"}, {"id": "82", "name": "Washington Square at Washington St. / Beacon St.", "lat": 42.339335, "lon": -71.13493, "first": "2012-11-20", "last": "2022-06-30"}, {"id": "132", "name": "Summer St at Cutter St", "lat": 42.394002, "lon": -71.120406, "first": "2013-12-31", "last": "2015-11-30"}, {"id": "79", "name": "Beacon St at Washington / Kirkland", "lat": 42.37842, "lon": -71.105668, "first": "2012-11-20", "last": "2022-06-30"}, {"id": "92", "name": "UMass Boston Integrated Sciences Complex", "lat": 42.314507, "lon": -71.041269, "first": "2012-11-20", "last": "2022-06-30"}, {"id": "161", "name": "West Broadway at D Street", "lat": 42.3391085, "lon": -71.0514432, "first": "2015-10-02", "last": "2022-06-30"}, {"id": "160", "name": "Wentworth Institute of Technology", "lat": 42.337596, "lon": -71.096391, "first": "2015-10-02", "last": "2022-06-30"}, {"id": "162", "name": "Franklin Park - Seaver Street at Humbolt Ave", "lat": 42.309796, "lon": -71.092225, "first": "2015-10-05", "last": "2022-06-30"}, {"id": "167", "name": "Ryan Playground - Dorchester Avenue Station", "lat": 42.317642, "lon": -71.056664, "first": "2015-10-05", "last": "2022-06-30"}, {"id": "163", "name": "Lawn on D", "lat": 42.344792, "lon": -71.044024, "first": "2015-10-06", "last": "2022-06-30"}, {"id": "170", "name": "Franklin Park Zoo", "lat": 42.303469, "lon": -71.085347, "first": "2015-10-06", "last": "2022-06-30"}, {"id": "169", "name": "Edwards Playground - Main Street & Eden Street", "lat": 42.378965, "lon": -71.068607, "first": "2015-10-06", "last": "2022-06-30"}, {"id": "174", "name": "Washington St at Brock St", "lat": 42.34900494405213, "lon": -71.1604106426239, "first": "2015-10-09", "last": "2022-06-30"}, {"id": "175", "name": "Brighton Center", "lat": 42.34894857235593, "lon": -71.15027189254761, "first": "2015-10-11", "last": "2022-06-30"}, {"id": "159", "name": "Heath St at South Huntington", "lat": 42.32797270205962, "lon": -71.11089706420898, "first": "2015-10-15", "last": "2022-06-30"}, {"id": "171", "name": "Bunker Hill Community College", "lat": 42.37408991426522, "lon": -71.06905996799469, "first": "2015-10-15", "last": "2022-06-30"}, {"id": "178", "name": "MIT Pacific St at Purrington St", "lat": 42.35957320109044, "lon": -71.10129475593567, "first": "2015-11-04", "last": "2022-06-30"}, {"id": "177", "name": "University Park", "lat": 42.36264779118595, "lon": -71.10006093978882, "first": "2015-11-04", "last": "2022-06-30"}, {"id": "179", "name": "MIT Vassar St", "lat": 42.35560121327927, "lon": -71.10394477844238, "first": "2015-11-04", "last": "2022-06-30"}, {"id": "176", "name": "Lesley University", "lat": 42.38674802045056, "lon": -71.11901879310608, "first": "2015-11-05", "last": "2022-06-30"}, {"id": "180", "name": "Mt Auburn", "lat": 42.37478628706384, "lon": -71.13320231437683, "first": "2015-11-05", "last": "2022-06-30"}, {"id": "190", "name": "Nashua Street at Red Auerbach Way", "lat": 42.36559770612416, "lon": -71.06424808502197, "first": "2016-03-04", "last": "2022-06-30"}, {"id": "146", "name": "Day Boulevard", "lat": 42.336448, "lon": -71.023739, "first": "2014-06-30", "last": "2022-06-30"}, {"id": "189", "name": "Kendall T", "lat": 42.3624278429124, "lon": -71.08495473861694, "first": "2016-03-18", "last": "2022-06-30"}, {"id": "186", "name": "Congress St and Northern Ave", "lat": 42.3482032222746, "lon": -71.0376513004303, "first": "2016-04-11", "last": "2022-06-30"}, {"id": "192", "name": "Purchase St at Pearl St", "lat": 42.354686, "lon": -71.053292, "first": "2016-04-16", "last": "2022-06-30"}, {"id": "173", "name": "Savin Hill MBTA Station", "lat": 42.310599, "lon": -71.053927, "first": "2016-04-21", "last": "2022-06-30"}, {"id": "193", "name": "Brookline Village - Station Street @ MBTA", "lat": 42.33289074055233, "lon": -71.11658334732056, "first": "2012-11-20", "last": "2022-06-30"}, {"id": "194", "name": "Broadway St at Mt Pleasant St", "lat": 42.38614141163957, "lon": -71.07828140258789, "first": "2016-04-29", "last": "2022-06-30"}, {"id": "195", "name": "Brian P. Murphy Staircase at Child Street", "lat": 42.3720597013741, "lon": -71.07202649116516, "first": "2016-06-30", "last": "2022-06-30"}, {"id": "197", "name": "MLK Blvd at Washington St", "lat": 42.321678, "lon": -71.091822, "first": "2016-07-16", "last": "2022-06-30"}, {"id": "196", "name": "Roxbury YMCA", "lat": 42.317963, "lon": -71.082254, "first": "2016-07-21", "last": "2022-06-30"}, {"id": "200", "name": "Washington St at Melnea Cass Blvd", "lat": 42.33282815812448, "lon": -71.08126938343048, "first": "2016-07-21", "last": "2022-06-30"}, {"id": "199", "name": "Upham's Corner T Stop", "lat": 42.31884382360106, "lon": -71.06975734233856, "first": "2016-07-25", "last": "2022-06-30"}, {"id": "201", "name": "Walnut Ave at Crawford St", "lat": 42.316873, "lon": -71.091955, "first": "2016-08-07", "last": "2022-06-30"}, {"id": "203", "name": "Columbia Rd at Ceylon St", "lat": 42.309566, "lon": -71.072863, "first": "2016-08-08", "last": "2022-06-30"}, {"id": "204", "name": "Walnut Ave at Warren St", "lat": 42.324069, "lon": -71.083162, "first": "2016-08-08", "last": "2022-06-30"}, {"id": "205", "name": "Bowdoin St at Quincy St", "lat": 42.30791912678712, "lon": -71.06502056121826, "first": "2016-08-16", "last": "2022-06-30"}, {"id": "202", "name": "Grove Hall Library", "lat": 42.308035, "lon": -71.081159, "first": "2016-08-19", "last": "2022-06-30"}, {"id": "207", "name": "Market St at Faneuil St", "lat": 42.35480179069945, "lon": -71.15025043487549, "first": "2016-08-31", "last": "2018-10-31"}, {"id": "208", "name": "Oak Square YMCA", "lat": 42.35048161669747, "lon": -71.16636693499458, "first": "2016-08-31", "last": "2022-06-30"}, {"id": "183", "name": "Alewife MBTA at Steel Place", "lat": 42.39558845716709, "lon": -71.14260613918304, "first": "2016-09-01", "last": "2022-06-30"}, {"id": "210", "name": "Bennington St at Byron St", "lat": 42.38337841883669, "lon": -71.01612031481636, "first": "2016-09-27", "last": "2022-06-30"}, {"id": "209", "name": "Chelsea St at Saratoga St", "lat": 42.37980321246644, "lon": -71.02744817733765, "first": "2016-09-27", "last": "2021-04-30"}, {"id": "212", "name": "Maverick Sq - Lewis Mall", "lat": 42.3688385713652, "lon": -71.03976666949166, "first": "2016-09-28", "last": "2022-06-30"}, {"id": "214", "name": "Airport T Stop - Bremen St at Brooks St", "lat": 42.37536686015489, "lon": -71.03135883808136, "first": "2016-09-29", "last": "2022-06-30"}, {"id": "213", "name": "EBNHC - 20 Maverick Sq", "lat": 42.369562869377, "lon": -71.03942692279814, "first": "2016-09-29", "last": "2022-06-30"}, {"id": "215", "name": "The Eddy at New Street", "lat": 42.37078454600501, "lon": -71.04426160454749, "first": "2016-09-29", "last": "2022-06-30"}, {"id": "217", "name": "Orient Heights T Stop - Bennington St at Saratoga St", "lat": 42.38673178529929, "lon": -71.00621223455164, "first": "2016-09-30", "last": "2022-06-30"}, {"id": "211", "name": "Piers Park- Marginal St at East Boston Shipyard", "lat": 42.36489045541549, "lon": -71.0350424052376, "first": "2016-09-30", "last": "2022-06-30"}, {"id": "216", "name": "Glendon St at Condor St", "lat": 42.38244736415864, "lon": -71.0302323102951, "first": "2016-09-30", "last": "2022-06-30"}, {"id": "218", "name": "Watermark Seaport", "lat": 42.351543104723206, "lon": -71.04573011398315, "first": "2016-10-05", "last": "2022-06-30"}, {"id": "184", "name": "Sidney Research Campus/ Erie Street at Waverly", "lat": 42.35775309465199, "lon": -71.10393404960632, "first": "2016-10-05", "last": "2022-06-30"}, {"id": "185", "name": "Third at Binney", "lat": 42.36544486137399, "lon": -71.08277142047882, "first": "2016-10-27", "last": "2022-06-30"}, {"id": "219", "name": "Central Square East Boston - Porter Street at London Street", "lat": 42.37430131617823, "lon": -71.03808671246952, "first": "2016-11-16", "last": "2022-06-30"}, {"id": "182", "name": "Museum of Science", "lat": 42.36769018024484, "lon": -71.07116281986237, "first": "2017-05-11", "last": "2022-06-30"}, {"id": "221", "name": "Verizon Innovation Hub 10 Ware Street", "lat": 42.37250864997261, "lon": -71.11305356025696, "first": "2017-06-07", "last": "2022-06-30"}, {"id": "224", "name": "Fresh Pond Reservation", "lat": 42.38267827521855, "lon": -71.143478951426, "first": "2017-06-27", "last": "2022-06-30"}, {"id": "226", "name": "Commonwealth Ave At Babcock St", "lat": 42.35154734791375, "lon": -71.12126246094704, "first": "2017-07-26", "last": "2022-06-30"}, {"id": "227", "name": "Silber Way", "lat": 42.34949599514002, "lon": -71.10057592391968, "first": "2017-07-26", "last": "2022-06-30"}, {"id": "225", "name": "Cambridge Dept. of Public Works -147 Hampshire St.", "lat": 42.37119727759414, "lon": -71.09759867191315, "first": "2017-08-10", "last": "2022-06-30"}, {"id": "228", "name": "One Memorial Drive", "lat": 42.361619320766856, "lon": -71.0804355052096, "first": "2017-09-21", "last": "2022-06-30"}, {"id": "157", "name": "Seaport Blvd at Sleeper St", "lat": 42.35317809186252, "lon": -71.04817356923377, "first": "2017-10-26", "last": "2022-06-30"}, {"id": "181", "name": "Huron Ave. At Vassal Lane", "lat": 42.381650612901176, "lon": -71.13426981498378, "first": "2017-10-27", "last": "2022-06-30"}, {"id": "222", "name": "Troy Boston", "lat": 42.343749, "lon": -71.062256, "first": "2017-10-27", "last": "2022-06-30"}, {"id": "232", "name": "Four Corners - 157 Washington St", "lat": 42.30412792739016, "lon": -71.07929527759552, "first": "2017-12-19", "last": "2022-06-30"}, {"id": "206", "name": "Government Center - Cambridge St at Court St", "lat": 42.359802515995526, "lon": -71.05960782626425, "first": "2018-04-18", "last": "2022-06-30"}, {"id": "191", "name": "Tappan St at Brookline Hills MBTA", "lat": 42.33209606301936, "lon": -71.128458827734, "first": "2018-07-25", "last": "2022-06-30"}, {"id": "187", "name": "Cypress St at Clark Playground", "lat": 42.32784317478686, "lon": -71.1253622174263, "first": "2018-07-26", "last": "2022-06-30"}, {"id": "234", "name": "Broadway at Central St", "lat": 42.39517150121575, "lon": -71.09850591982195, "first": "2018-07-27", "last": "2022-06-30"}, {"id": "188", "name": "Foss Park", "lat": 42.39108438146733, "lon": -71.09039425849915, "first": "2018-07-31", "last": "2022-06-30"}, {"id": "235", "name": "East Somerville Library (Broadway and Illinois)", "lat": 42.3876281075134, "lon": -71.08318716287613, "first": "2018-07-31", "last": "2022-06-30"}, {"id": "220", "name": "Grove St at Community Path", "lat": 42.3963838795032, "lon": -71.12010508775711, "first": "2018-07-31", "last": "2022-06-30"}, {"id": "236", "name": "Assembly Square T", "lat": 42.39223284004628, "lon": -71.07746601104736, "first": "2018-07-31", "last": "2022-06-30"}, {"id": "156", "name": "Somerville Hospital", "lat": 42.39088801721338, "lon": -71.10962569713591, "first": "2018-07-31", "last": "2022-06-30"}, {"id": "231", "name": "Washington St at Myrtle St", "lat": 42.38172115782515, "lon": -71.08376650152422, "first": "2018-08-01", "last": "2022-06-30"}, {"id": "144", "name": "Rogers St & Land Blvd", "lat": 42.36575798214837, "lon": -71.07699394226073, "first": "2018-08-09", "last": "2022-06-30"}, {"id": "237", "name": "699 Mt Auburn St", "lat": 42.37497659215716, "lon": -71.14863030630659, "first": "2018-08-09", "last": "2022-06-30"}, {"id": "238", "name": "Mass Ave at Hadley/Walden", "lat": 42.39138548863825, "lon": -71.12288117408751, "first": "2018-08-01", "last": "2022-06-30"}, {"id": "168", "name": "Harvard Ave at Brainerd Rd", "lat": 42.34956188545412, "lon": -71.1302706227616, "first": "2018-08-10", "last": "2022-06-30"}, {"id": "239", "name": "Community Path at Cedar Street", "lat": 42.39407223665884, "lon": -71.11133694648743, "first": "2018-08-10", "last": "2022-06-30"}, {"id": "233", "name": "St Mary's", "lat": 42.346197076555455, "lon": -71.10728681087494, "first": "2018-08-13", "last": "2022-06-30"}, {"id": "240", "name": "Harvard St at Greene-Rose Heritage Park", "lat": 42.36599406030789, "lon": -71.09516322612761, "first": "2018-08-14", "last": "2022-06-30"}, {"id": "256", "name": "Washington St at Talbot Ave", "lat": 42.290333, "lon": -71.071806, "first": "2018-08-24", "last": "2022-06-30"}, {"id": "258", "name": "Gallivan Blvd at Adams St", "lat": 42.28297567840305, "lon": -71.05466698296368, "first": "2018-08-24", "last": "2022-06-30"}, {"id": "255", "name": "Park St at Norwell St", "lat": 42.2944167, "lon": -71.0783056, "first": "2018-08-24", "last": "2022-06-30"}, {"id": "257", "name": "Codman Square Library", "lat": 42.2873611, "lon": -71.0711111, "first": "2018-08-25", "last": "2022-06-30"}, {"id": "259", "name": "Washington St at Bradlee St", "lat": 42.297722, "lon": -71.073, "first": "2018-08-25", "last": "2022-06-30"}, {"id": "248", "name": "Morton St T", "lat": 42.28075382961448, "lon": -71.08621831150231, "first": "2018-08-25", "last": "2022-06-30"}, {"id": "260", "name": "Fields Corner T Stop", "lat": 42.2996667, "lon": -71.0605833, "first": "2018-08-26", "last": "2022-06-30"}, {"id": "263", "name": "Mattapan Library", "lat": 42.2773889, "lon": -71.09325, "first": "2018-08-26", "last": "2022-06-30"}, {"id": "245", "name": "Blue Hill Ave at Almont St", "lat": 42.27454525528758, "lon": -71.09372016051566, "first": "2018-08-26", "last": "2022-06-30"}, {"id": "242", "name": "Roslindale Village - South St", "lat": 42.287072, "lon": -71.127754, "first": "2018-08-30", "last": "2022-06-30"}, {"id": "246", "name": "Roslindale Village - Washington St", "lat": 42.2861532, "lon": -71.1283744, "first": "2018-08-30", "last": "2022-06-30"}, {"id": "264", "name": "Washington St at Egremont Rd", "lat": 42.3429444, "lon": -71.1413333, "first": "2018-08-30", "last": "2022-06-30"}, {"id": "241", "name": "Mattapan T Stop", "lat": 42.267902, "lon": -71.093641, "first": "2018-08-30", "last": "2022-06-30"}, {"id": "244", "name": "Archdale Rd at Washington St", "lat": 42.292706, "lon": -71.121145, "first": "2018-08-31", "last": "2022-06-30"}, {"id": "262", "name": "Faneuil St at Arlington St", "lat": 42.3528611, "lon": -71.1600278, "first": "2018-08-31", "last": "2022-06-30"}, {"id": "254", "name": "Talbot Ave At Blue Hill Ave", "lat": 42.2945833, "lon": -71.087111, "first": "2018-09-01", "last": "2022-06-30"}, {"id": "243", "name": "Commonwealth Ave at Kelton St", "lat": 42.348368023549895, "lon": -71.13997621466297, "first": "2018-09-05", "last": "2022-06-30"}, {"id": "249", "name": "Commonwealth Ave at Chiswick Rd", "lat": 42.3402177416592, "lon": -71.1517309399278, "first": "2018-09-05", "last": "2022-06-30"}, {"id": "155", "name": "Huntington Ave at Mass Art", "lat": 42.33651909304393, "lon": -71.0989692435578, "first": "2018-09-05", "last": "2022-06-30"}, {"id": "247", "name": "Boylston St at Jersey St", "lat": 42.344695708662215, "lon": -71.09723791480063, "first": "2018-09-06", "last": "2022-06-30"}, {"id": "252", "name": "Cleveland Circle", "lat": 42.33553091872319, "lon": -71.15072786808014, "first": "2018-09-07", "last": "2022-06-30"}, {"id": "253", "name": "Thetford Ave at Norfolk St", "lat": 42.286251, "lon": -71.079463, "first": "2018-09-07", "last": "2022-06-30"}, {"id": "281", "name": "Medford St at Charlestown BCYF", "lat": 42.380584, "lon": -71.060875, "first": "2018-09-19", "last": "2022-06-30"}, {"id": "283", "name": "Main St at Thompson Sq", "lat": 42.374917, "lon": -71.063829, "first": "2018-09-19", "last": "2022-06-30"}, {"id": "280", "name": "Main St at Baldwin St", "lat": 42.380857, "lon": -71.070629, "first": "2018-09-20", "last": "2022-06-30"}, {"id": "274", "name": "Bennington St at Constitution Beach", "lat": 42.385249, "lon": -71.010601, "first": "2018-09-20", "last": "2022-06-30"}, {"id": "277", "name": "Charlestown Navy Yard", "lat": 42.37401065384493, "lon": -71.0548335313797, "first": "2018-09-20", "last": "2022-06-30"}, {"id": "284", "name": "One Brigham Circle", "lat": 42.333919727205775, "lon": -71.10446777203833, "first": "2018-09-20", "last": "2022-06-30"}, {"id": "279", "name": "Williams St at Washington St", "lat": 42.306539, "lon": -71.107669, "first": "2018-09-20", "last": "2022-06-30"}, {"id": "282", "name": "Stony Brook T Stop", "lat": 42.316966, "lon": -71.104374, "first": "2018-09-20", "last": "2022-06-30"}, {"id": "278", "name": "Centre St at Seaverns Ave", "lat": 42.312120283566095, "lon": -71.11429806807791, "first": "2018-09-21", "last": "2022-06-30"}, {"id": "250", "name": "Park Plaza at Columbus Ave", "lat": 42.35186, "lon": -71.067688, "first": "2018-09-26", "last": "2018-10-31"}, {"id": "296", "name": "Farragut Rd at E. 6th St", "lat": 42.3334, "lon": -71.02495, "first": "2018-09-27", "last": "2022-06-30"}, {"id": "295", "name": "Columbia Rd at Tierney Community Center", "lat": 42.33023264684929, "lon": -71.0505741463021, "first": "2018-09-27", "last": "2022-06-30"}, {"id": "294", "name": "Deerfield St at Commonwealth Ave", "lat": 42.349205689770685, "lon": -71.09727063041646, "first": "2018-09-27", "last": "2022-06-30"}, {"id": "307", "name": "Broadway T Stop", "lat": 42.3428, "lon": -71.05751, "first": "2018-09-27", "last": "2020-08-31"}, {"id": "293", "name": "Bartlett St at John Elliot Sq", "lat": 42.32946325922549, "lon": -71.09015820552486, "first": "2018-09-30", "last": "2022-06-30"}, {"id": "306", "name": "Blue Hill Ave at Southwood St", "lat": 42.31784, "lon": -71.07796, "first": "2018-10-01", "last": "2022-06-30"}, {"id": "302", "name": "Harrison Ave at Bennet St", "lat": 42.3493102175903, "lon": -71.06210500001907, "first": "2018-10-03", "last": "2022-06-30"}, {"id": "299", "name": "Harrison Ave at Mullins Way", "lat": 42.34510857037852, "lon": -71.06392078119825, "first": "2018-10-09", "last": "2022-06-30"}, {"id": "300", "name": "Tremont St at Northampton St", "lat": 42.33884970690809, "lon": -71.08140613892829, "first": "2018-10-09", "last": "2022-06-30"}, {"id": "286", "name": "30 Dane St.", "lat": 42.38112284630097, "lon": -71.10410027224134, "first": "2018-10-12", "last": "2022-06-30"}, {"id": "311", "name": "Vassal Lane at Tobin/VLUS", "lat": 42.383928224564585, "lon": -71.13962350417751, "first": "2018-10-17", "last": "2022-06-30"}, {"id": "319", "name": "84 Cambridgepark Dr", "lat": 42.3936, "lon": -71.143941, "first": "2018-10-18", "last": "2022-06-30"}, {"id": "345", "name": "Park Plaza at Charles St", "lat": 42.35182806892068, "lon": -71.06781138111728, "first": "2018-10-24", "last": "2022-06-30"}, {"id": "318", "name": "Ames St at Broadway", "lat": 42.3636929, "lon": -71.0875672, "first": "2018-10-25", "last": "2022-06-30"}, {"id": "352", "name": "Ring Rd", "lat": 42.348278385426255, "lon": -71.08044855314802, "first": "2018-10-25", "last": "2022-06-30"}, {"id": "317", "name": "BCBS Quincy", "lat": 42.27600498756665, "lon": -71.03924982267927, "first": "2018-10-29", "last": "2022-06-30"}, {"id": "308", "name": "BCBS Hingham", "lat": 42.16722555541654, "lon": -70.90555783370291, "first": "2018-10-29", "last": "2022-06-30"}, {"id": "369", "name": "Boston Public Market", "lat": 42.36254854409333, "lon": -71.0573735833168, "first": "2018-11-01", "last": "2021-05-31"}, {"id": "370", "name": "Dartmouth St at Newbury St", "lat": 42.35096144421219, "lon": -71.07782810926437, "first": "2018-11-01", "last": "2022-06-30"}, {"id": "371", "name": "700 Huron Ave", "lat": 42.380788172914286, "lon": -71.15412890911102, "first": "2018-11-07", "last": "2022-06-30"}, {"id": "372", "name": "Boylston St at Exeter St", "lat": 42.349589423682445, "lon": -71.0794677917329, "first": "2018-11-08", "last": "2022-06-30"}, {"id": "373", "name": "Belgrade Ave at Walworth St", "lat": 42.28634589486312, "lon": -71.13672129828046, "first": "2018-11-11", "last": "2022-06-30"}, {"id": "374", "name": "Tremont St at Hamilton Place", "lat": 42.35668334969929, "lon": -71.06166645884514, "first": "2018-11-21", "last": "2022-06-30"}, {"id": "376", "name": "Honan Library", "lat": 42.36027370454934, "lon": -71.12852452327388, "first": "2018-12-01", "last": "2022-06-30"}, {"id": "377", "name": "Perry Park", "lat": 42.37927324600841, "lon": -71.10341902831351, "first": "2018-12-04", "last": "2022-06-30"}, {"id": "378", "name": "191 Beacon St", "lat": 42.38032335045416, "lon": -71.10878612855231, "first": "2018-12-06", "last": "2022-06-30"}, {"id": "380", "name": "Mass Ave at Albany St", "lat": 42.36135837662249, "lon": -71.09670273977825, "first": "2019-01-10", "last": "2022-06-30"}, {"id": "379", "name": "Tremont St at W. Dedham St", "lat": 42.34254913737952, "lon": -71.07421449387857, "first": "2019-01-10", "last": "2022-06-30"}, {"id": "381", "name": "Inman Square at Springfield St.", "lat": 42.37438408515815, "lon": -71.1001574621514, "first": "2019-01-17", "last": "2022-06-30"}, {"id": "384", "name": "Clarendon St at Commonwealth Ave", "lat": 42.35219035145307, "lon": -71.0760041699723, "first": "2019-04-18", "last": "2022-06-30"}, {"id": "385", "name": "Albany St at E. Brookline St", "lat": 42.33664795427071, "lon": -71.0689445958451, "first": "2019-05-13", "last": "2022-06-30"}, {"id": "386", "name": "Sennott Park  Broadway at Norfolk Street", "lat": 42.36860524248197, "lon": -71.09930185605663, "first": "2019-05-22", "last": "2022-06-30"}, {"id": "387", "name": "7 Acre Park", "lat": 42.41143222973408, "lon": -71.06823265090497, "first": "2019-06-14", "last": "2022-06-30"}, {"id": "389", "name": "Everett Square (Broadway at Chelsea St)", "lat": 42.40725945172653, "lon": -71.05546381333625, "first": "2019-06-15", "last": "2022-06-30"}, {"id": "388", "name": "Main Street at Carter Street", "lat": 42.406151572663504, "lon": -71.0604074504954, "first": "2019-06-16", "last": "2020-10-31"}, {"id": "390", "name": "Broadway at Lynde St", "lat": 42.39648358247693, "lon": -71.06546759905541, "first": "2019-06-16", "last": "2022-06-30"}, {"id": "392", "name": "Glendale Square (Ferry St at Broadway)", "lat": 42.41427294293992, "lon": -71.04479655659816, "first": "2019-06-20", "last": "2022-06-30"}, {"id": "394", "name": "Broadway at Maple St", "lat": 42.410346909767846, "lon": -71.05260457852637, "first": "2019-06-22", "last": "2022-06-30"}, {"id": "397", "name": "Broadway at Beacham St", "lat": 42.39836059620832, "lon": -71.06373842814719, "first": "2019-06-22", "last": "2022-06-30"}, {"id": "396", "name": "Wasgatt Playground", "lat": 42.4093300667225, "lon": -71.06381878293178, "first": "2019-06-22", "last": "2022-06-30"}, {"id": "391", "name": "Encore", "lat": 42.39329263225162, "lon": -71.0724475979805, "first": "2019-06-23", "last": "2022-06-30"}, {"id": "395", "name": "Chelsea St at Vine St", "lat": 42.40328056972533, "lon": -71.04762639859473, "first": "2019-06-25", "last": "2022-06-30"}, {"id": "393", "name": "Swan St. Park", "lat": 42.412504507772105, "lon": -71.05842225271772, "first": "2019-06-25", "last": "2022-06-30"}, {"id": "398", "name": "75 Binney St", "lat": 42.36550728505653, "lon": -71.0801375997653, "first": "2019-07-02", "last": "2022-06-30"}, {"id": "273", "name": "Forest Hills", "lat": 42.300923, "lon": -71.114249, "first": "2019-07-02", "last": "2022-06-30"}, {"id": "272", "name": "Shawmut T Stop", "lat": 42.292917, "lon": -71.06575, "first": "2019-07-02", "last": "2022-06-30"}, {"id": "399", "name": "Shawmut Ave at Oak St W", "lat": 42.34854543411198, "lon": -71.06559185315746, "first": "2019-07-09", "last": "2022-06-30"}, {"id": "271", "name": "Ashmont T Stop", "lat": 42.2856944, "lon": -71.0641389, "first": "2019-07-09", "last": "2022-06-30"}, {"id": "400", "name": "Lansdowne T Stop", "lat": 42.34734473177431, "lon": -71.1001680795016, "first": "2019-07-10", "last": "2022-06-30"}, {"id": "403", "name": "Marion St at Harvard St", "lat": 42.33978052668946, "lon": -71.12133350232398, "first": "2019-07-10", "last": "2022-06-30"}, {"id": "402", "name": "Washington St at Griggs Rd", "lat": 42.33833423719901, "lon": -71.13050930220197, "first": "2019-07-11", "last": "2022-06-30"}, {"id": "401", "name": "High St at Cypress St", "lat": 42.32538435700882, "lon": -71.12177595532557, "first": "2019-07-11", "last": "2022-06-30"}, {"id": "404", "name": "Mass Ave T Station", "lat": 42.34135615767354, "lon": -71.08336953450817, "first": "2019-07-15", "last": "2022-06-30"}, {"id": "406", "name": "Somerville City Hall Annex", "lat": 42.39189811591863, "lon": -71.09745375830244, "first": "2019-07-16", "last": "2022-06-30"}, {"id": "101", "name": "Ball Sq", "lat": 42.39918259930251, "lon": -71.11104454854285, "first": "2012-11-20", "last": "2022-06-30"}, {"id": "405", "name": "Sydney St at Carson St", "lat": 42.32039374304257, "lon": -71.05355408051764, "first": "2019-07-17", "last": "2022-06-30"}, {"id": "408", "name": "Edgerly Education Center", "lat": 42.38717463348314, "lon": -71.08714388528824, "first": "2019-07-23", "last": "2022-06-30"}, {"id": "407", "name": "Craigie at Summer St", "lat": 42.388305537644, "lon": -71.11067976811682, "first": "2019-07-23", "last": "2022-06-30"}, {"id": "409", "name": "Elm St at White St", "lat": 42.38952436305763, "lon": -71.11694140364307, "first": "2019-07-24", "last": "2022-06-30"}, {"id": "410", "name": "Adams St at Lonsdale St", "lat": 42.291679428741226, "lon": -71.05726346409938, "first": "2019-07-31", "last": "2022-06-30"}, {"id": "412", "name": "Washington St at Peters Park", "lat": 42.34303291130257, "lon": -71.06688730436872, "first": "2019-07-31", "last": "2022-06-30"}, {"id": "411", "name": "Dorchester Ave at King St", "lat": 42.29175621632091, "lon": -71.0625918023743, "first": "2019-08-01", "last": "2021-06-30"}, {"id": "413", "name": "Kennedy-Longfellow School 158 Spring St", "lat": 42.36955297756508, "lon": -71.08579014980933, "first": "2019-08-13", "last": "2022-06-30"}, {"id": "415", "name": "Stuart St at Berkeley St", "lat": 42.34954403114251, "lon": -71.0724207387284, "first": "2019-08-14", "last": "2022-06-30"}, {"id": "416", "name": "Blossom St at Charles St", "lat": 42.36435589027983, "lon": -71.0695936904267, "first": "2019-08-14", "last": "2022-06-30"}, {"id": "417", "name": "Columbus Ave at W. Canton St", "lat": 42.34474224772802, "lon": -71.07648162175792, "first": "2019-08-14", "last": "2022-06-30"}, {"id": "414", "name": "Discovery Park - 30 Acorn Park Drive", "lat": 42.39790817368333, "lon": -71.14797130814623, "first": "2019-08-14", "last": "2022-06-30"}, {"id": "420", "name": "Charles St at Pinckney St", "lat": 42.35872530462163, "lon": -71.07079532006537, "first": "2019-08-21", "last": "2019-11-30"}, {"id": "419", "name": "Central Square East Boston", "lat": 42.37544912547037, "lon": -71.03918548682486, "first": "2019-08-22", "last": "2022-06-30"}, {"id": "421", "name": "Northbourne Rd at Hyde Park Ave", "lat": 42.29118034790426, "lon": -71.117736660035, "first": "2019-08-22", "last": "2022-06-30"}, {"id": "422", "name": "American Legion Hwy at Canterbury St", "lat": 42.278811581565975, "lon": -71.11687703062671, "first": "2019-08-23", "last": "2022-06-30"}, {"id": "423", "name": "Mt. Hope St at Hyde Park Ave", "lat": 42.28484472443536, "lon": -71.11874517062459, "first": "2019-08-24", "last": "2022-06-30"}, {"id": "426", "name": "Surface Rd at Summer St", "lat": 42.35294569782581, "lon": -71.05656400803126, "first": "2019-08-27", "last": "2022-06-30"}, {"id": "425", "name": "The Dimock Center", "lat": 42.3193094317828, "lon": -71.09639923859504, "first": "2019-08-27", "last": "2022-06-30"}, {"id": "424", "name": "Jamaica St at South St", "lat": 42.3060456272408, "lon": -71.11570891001975, "first": "2019-08-28", "last": "2022-06-30"}, {"id": "428", "name": "Western Ave at Richardson St", "lat": 42.36178741066188, "lon": -71.14393111327445, "first": "2019-08-29", "last": "2022-06-30"}, {"id": "427", "name": "Washington St at Denton Terr", "lat": 42.280728147169015, "lon": -71.13423757273267, "first": "2019-08-30", "last": "2022-06-30"}, {"id": "430", "name": "Washington St at Walsh Playground", "lat": 42.27719469639791, "lon": -71.06955613950048, "first": "2019-09-04", "last": "2022-06-30"}, {"id": "432", "name": "Centre St at W. Roxbury Post Office", "lat": 42.28633199112775, "lon": -71.15344755369732, "first": "2019-09-05", "last": "2022-06-30"}, {"id": "431", "name": "Washington St at Fuller St", "lat": 42.281986277339136, "lon": -71.07147924620222, "first": "2019-09-07", "last": "2022-06-30"}, {"id": "433", "name": "Centre St at Parkway YMCA", "lat": 42.28277901074054, "lon": -71.15728851416861, "first": "2019-09-09", "last": "2022-06-30"}, {"id": "435", "name": "Central Ave at River St", "lat": 42.27094707029229, "lon": -71.07337901405117, "first": "2019-09-10", "last": "2022-06-30"}, {"id": "436", "name": "Maverick St at Massport Path", "lat": 42.36774122306014, "lon": -71.0333597474255, "first": "2019-09-11", "last": "2022-06-30"}, {"id": "437", "name": "Berkshire Street at Cambridge Street", "lat": 42.37207657915397, "lon": -71.08995433905875, "first": "2019-09-12", "last": "2022-06-30"}, {"id": "434", "name": "Spring St at Powell St", "lat": 42.277484442008216, "lon": -71.16341467955863, "first": "2019-09-17", "last": "2022-06-30"}, {"id": "440", "name": "Boston Landing", "lat": 42.35656092308941, "lon": -71.14167537549292, "first": "2019-10-16", "last": "2022-06-30"}, {"id": "441", "name": "Sullivan Square", "lat": 42.38445225635844, "lon": -71.07514854529654, "first": "2019-10-17", "last": "2022-06-30"}, {"id": "443", "name": "Whittier St Health Center", "lat": 42.33286288486264, "lon": -71.09218861916816, "first": "2019-10-17", "last": "2022-06-30"}, {"id": "442", "name": "Hyde Park Ave at Walk Hill St", "lat": 42.29606704649873, "lon": -71.11601199963843, "first": "2019-10-18", "last": "2022-06-30"}, {"id": "446", "name": "700 Commonwealth Ave.", "lat": 42.34960945333059, "lon": -71.10391523698127, "first": "2019-10-30", "last": "2022-06-30"}, {"id": "445", "name": "Geiger Gibson Community Health Center", "lat": 42.31886468217537, "lon": -71.04536797860419, "first": "2019-10-31", "last": "2022-06-30"}, {"id": "447", "name": "The Overlook at St. Gabriel's", "lat": 42.34679008347347, "lon": -71.14549813806661, "first": "2020-06-06", "last": "2022-06-30"}, {"id": "448", "name": "Hale Park", "lat": 42.414962648832656, "lon": -71.05279301009432, "first": "2020-06-12", "last": "2022-06-30"}, {"id": "450", "name": "Beacon St at Englewood Ave", "lat": 42.33736915370925, "lon": -71.14485977232107, "first": "2020-07-01", "last": "2020-08-31"}, {"id": "452", "name": "Beacon St at St. Paul St", "lat": 42.34373094998716, "lon": -71.11614107161584, "first": "2020-07-02", "last": "2022-06-30"}, {"id": "453", "name": "Beacon St at Hawes St", "lat": 42.34496783328529, "lon": -71.11040176903771, "first": "2020-07-02", "last": "2020-10-31"}, {"id": "451", "name": "Washington Sq", "lat": 42.33940659197945, "lon": -71.13489642273635, "first": "2020-07-03", "last": "2020-10-31"}, {"id": "454", "name": "Boylston St at Dartmouth St", "lat": 42.35010609546997, "lon": -71.07720464005979, "first": "2020-07-27", "last": "2022-06-30"}, {"id": "455", "name": "Coolidge Sq.", "lat": 42.37207611472287, "lon": -71.15683130688922, "first": "2020-07-31", "last": "2022-06-30"}, {"id": "458", "name": "Watertown Sq", "lat": 42.365260317694485, "lon": -71.18573324459247, "first": "2020-08-05", "last": "2022-06-30"}, {"id": "457", "name": "N. Beacon St at N. Beacon Ct", "lat": 42.36444157139109, "lon": -71.18091373646166, "first": "2020-08-05", "last": "2020-12-31"}, {"id": "456", "name": "Graham and Parks School \u2013 Linnaean St at Walker St", "lat": 42.38294430172271, "lon": -71.12449831038248, "first": "2020-08-05", "last": "2022-06-30"}, {"id": "459", "name": "Canal St at Causeway St", "lat": 42.36530094929082, "lon": -71.06092190993877, "first": "2020-08-19", "last": "2022-06-30"}, {"id": "460", "name": "Broad St at Central St", "lat": 42.35849449039304, "lon": -71.05426469875965, "first": "2020-08-25", "last": "2022-06-30"}, {"id": "461", "name": "Railroad Lot and Minuteman Bikeway", "lat": 42.416084844039744, "lon": -71.15315407052549, "first": "2020-09-10", "last": "2022-06-30"}, {"id": "462", "name": "Linwood St at Minuteman Bikeway", "lat": 42.40935395518158, "lon": -71.14906518727366, "first": "2020-09-11", "last": "2022-06-30"}, {"id": "463", "name": "Smith Pl at Wilson Rd", "lat": 42.39239749145834, "lon": -71.15058331757609, "first": "2020-09-12", "last": "2022-06-30"}, {"id": "464", "name": "Mass Ave at Grafton St", "lat": 42.40726052447951, "lon": -71.14382132425817, "first": "2020-09-16", "last": "2022-06-30"}, {"id": "465", "name": "Broadway at Grafton St", "lat": 42.40994213011757, "lon": -71.14009319811885, "first": "2020-09-16", "last": "2022-06-30"}, {"id": "467", "name": "Washington St at Crafts St", "lat": 42.35389024396587, "lon": -71.19943707257335, "first": "2020-10-01", "last": "2022-06-30"}, {"id": "470", "name": "Union St at Herrick Rd \u2013 Newton Centre Green Line", "lat": 42.32956868185623, "lon": -71.19367271661758, "first": "2020-10-02", "last": "2022-06-30"}, {"id": "466", "name": "Centre St at Washington St", "lat": 42.35574334805774, "lon": -71.18641942508475, "first": "2020-10-03", "last": "2022-06-30"}, {"id": "469", "name": "Bacon St at Washington St", "lat": 42.35711920909866, "lon": -71.1860453666327, "first": "2020-10-03", "last": "2022-06-30"}, {"id": "468", "name": "Nonantum Library", "lat": 42.36068455768156, "lon": -71.20146199598821, "first": "2020-10-03", "last": "2022-06-30"}, {"id": "476", "name": "Boylston St at Charles St", "lat": 42.3525760946701, "lon": -71.06764405041758, "first": "2020-10-04", "last": "2021-04-30"}, {"id": "478", "name": "Gove St at Orleans St", "lat": 42.37057753242139, "lon": -71.03558540113227, "first": "2020-10-06", "last": "2022-06-30"}, {"id": "471", "name": "MIT Carleton St at Amherst St", "lat": 42.36054174140606, "lon": -71.08669817447662, "first": "2020-10-07", "last": "2022-06-30"}, {"id": "472", "name": "MIT Hayward St at Amherst St", "lat": 42.36085937353302, "lon": -71.08551858007559, "first": "2020-10-07", "last": "2022-06-30"}, {"id": "477", "name": "Marion St at White St", "lat": 42.38066930871317, "lon": -71.03907315999093, "first": "2020-10-07", "last": "2022-06-30"}, {"id": "475", "name": "Arsenal Yards", "lat": 42.36277388549605, "lon": -71.15764854490408, "first": "2020-10-08", "last": "2022-06-30"}, {"id": "474", "name": "West Newton Armory", "lat": 42.34947178098653, "lon": -71.22000678911718, "first": "2020-10-09", "last": "2022-06-30"}, {"id": "473", "name": "West Newton", "lat": 42.34960049864208, "lon": -71.2262749671936, "first": "2020-10-10", "last": "2022-06-30"}, {"id": "479", "name": "Galileo Galilei Way at Main Street", "lat": 42.363003781560096, "lon": -71.08974037706501, "first": "2020-10-14", "last": "2022-06-30"}, {"id": "480", "name": "Thorndike Field at Minuteman Bikeway", "lat": 42.40016804853787, "lon": -71.14456963094199, "first": "2020-10-15", "last": "2022-06-30"}, {"id": "481", "name": "645 Summer St", "lat": 42.341780891371904, "lon": -71.03987016504107, "first": "2020-10-16", "last": "2022-06-30"}, {"id": "482", "name": "Kearins Playground", "lat": 42.40616124132245, "lon": -71.06041654944418, "first": "2020-10-18", "last": "2022-06-30"}, {"id": "483", "name": "Porzio Park", "lat": 42.364119035231525, "lon": -71.02876782417297, "first": "2020-10-23", "last": "2022-06-30"}, {"id": "485", "name": "Revere City Hall", "lat": 42.40741, "lon": -71.0139, "first": "2020-10-28", "last": "2022-06-30"}, {"id": "487", "name": "Community Path at Lowell St", "lat": 42.392525, "lon": -71.105587, "first": "2020-10-28", "last": "2022-06-30"}, {"id": "489", "name": "Day Sq", "lat": 42.379295, "lon": -71.027733, "first": "2020-10-31", "last": "2022-06-30"}, {"id": "486", "name": "Langley Lot", "lat": 42.330528, "lon": -71.192861, "first": "2020-11-01", "last": "2022-06-30"}, {"id": "488", "name": "Martha Eliot Health Center", "lat": 42.324173, "lon": -71.10196, "first": "2020-11-02", "last": "2022-06-30"}, {"id": "490", "name": "Blue Hill Ave at Havelock St", "lat": 42.286012, "lon": -71.090986, "first": "2020-11-05", "last": "2022-06-30"}, {"id": "484", "name": "Revere Public Library", "lat": 42.408088, "lon": -71.008942, "first": "2020-11-09", "last": "2022-06-30"}, {"id": "491", "name": "Harrison Ave at E. Dedham St", "lat": 42.339194, "lon": -71.06975, "first": "2020-11-12", "last": "2022-06-30"}, {"id": "492", "name": "Harvard Stadium: N. Harvard St at Soldiers Field Rd", "lat": 42.368019, "lon": -71.1242, "first": "2020-11-17", "last": "2022-06-30"}, {"id": "494", "name": "Watertown Town Hall", "lat": 42.367621, "lon": -71.187936, "first": "2020-12-09", "last": "2022-06-30"}, {"id": "497", "name": "Washington St @ New Washington St (Temp Winter Station)", "lat": 42.381056, "lon": -71.087083, "first": "2020-12-09", "last": "2022-03-31"}, {"id": "496", "name": "Trum Field @ Cedar St (Temp Winter Station)", "lat": 42.398444, "lon": -71.107833, "first": "2020-12-09", "last": "2022-03-31"}, {"id": "495", "name": "Union Square East (Temp Winter Station)", "lat": 42.380078, "lon": -71.090098, "first": "2020-12-09", "last": "2022-06-30"}, {"id": "498", "name": "Broadway Opposite Norwood Ave  (Temp Winter Station)", "lat": 42.396764, "lon": -71.102376, "first": "2020-12-10", "last": "2022-03-31"}, {"id": "499", "name": "Conway Park @ Bleachery Ct (Temp Winter Station)", "lat": 42.3836409294306, "lon": -71.10868692398071, "first": "2020-12-10", "last": "2022-03-31"}, {"id": "493", "name": "2 Hummingbird Lane at Olmsted Green", "lat": 42.28887, "lon": -71.095003, "first": "2020-12-26", "last": "2022-06-30"}, {"id": "504", "name": "Bellingham Square", "lat": 42.39301409032274, "lon": -71.0339249682147, "first": "2021-03-03", "last": "2022-06-30"}, {"id": "505", "name": "Chelsea Square", "lat": 42.39022671103383, "lon": -71.03857017704286, "first": "2021-03-04", "last": "2022-06-30"}, {"id": "506", "name": "Broadway at Gerrish Ave", "lat": 42.39453079292221, "lon": -71.03085594484583, "first": "2021-03-05", "last": "2022-06-30"}, {"id": "502", "name": "160 Arsenal", "lat": 42.36466403441681, "lon": -71.17569386959076, "first": "2021-03-06", "last": "2022-06-30"}, {"id": "503", "name": "Cary Square", "lat": 42.398135645582464, "lon": -71.030709722545, "first": "2021-03-06", "last": "2022-06-30"}, {"id": "507", "name": "Chelsea Station", "lat": 42.39636527849676, "lon": -71.03987179230899, "first": "2021-03-07", "last": "2022-06-30"}, {"id": "508", "name": "855 Broadway", "lat": 42.398417726101584, "lon": -71.02390923402707, "first": "2021-03-17", "last": "2022-06-30"}, {"id": "509", "name": "Nichols Ave. at Watertown Greenway", "lat": 42.36762048745005, "lon": -71.1565663665533, "first": "2021-03-27", "last": "2022-06-30"}, {"id": "510", "name": "Mass Ave at Broadway", "lat": 42.414202132001854, "lon": -71.15051883389242, "first": "2021-04-08", "last": "2022-06-30"}, {"id": "511", "name": "Bellevue T Stop", "lat": 42.28611420958351, "lon": -71.14636927843094, "first": "2021-06-02", "last": "2022-06-30"}, {"id": "512", "name": "Knoll St at Centre St", "lat": 42.29376656473529, "lon": -71.1365658044815, "first": "2021-06-05", "last": "2022-06-30"}, {"id": "514", "name": "Pearl St at Medford St", "lat": 42.38815705419525, "lon": -71.09588742256165, "first": "2021-06-08", "last": "2021-12-31"}, {"id": "515", "name": "955 Mass Ave", "lat": 42.36895180540729, "lon": -71.10998779535294, "first": "2021-06-10", "last": "2022-06-30"}, {"id": "513", "name": "Roseland St At Dorchester Ave", "lat": 42.2911685327193, "lon": -71.06300890445709, "first": "2021-06-11", "last": "2022-06-30"}, {"id": "516", "name": "Salem Ferry Landing", "lat": 42.52189284110247, "lon": -70.8806911110878, "first": "2021-06-16", "last": "2022-06-30"}, {"id": "520", "name": "Salem MBTA - Washington at Federal St", "lat": 42.52345239346618, "lon": -70.89611113071442, "first": "2021-06-16", "last": "2022-06-30"}, {"id": "519", "name": "Mayor Salvo Path at Mill St", "lat": 42.51803519796769, "lon": -70.89570075273514, "first": "2021-06-16", "last": "2022-06-30"}, {"id": "518", "name": "Shetland Park - Congress at Peabody St", "lat": 42.51836788262243, "lon": -70.88952362537384, "first": "2021-06-16", "last": "2022-06-30"}, {"id": "517", "name": "Salem Willows Park", "lat": 42.53466911383265, "lon": -70.87021440267563, "first": "2021-06-16", "last": "2022-06-30"}, {"id": "521", "name": "Lafayette at Leach St", "lat": 42.51142784358897, "lon": -70.89183300733566, "first": "2021-06-18", "last": "2022-06-30"}, {"id": "522", "name": "Salem State University - Bike Path at Loring Ave", "lat": 42.50182398896298, "lon": -70.89478075504303, "first": "2021-06-18", "last": "2022-06-30"}, {"id": "524", "name": "Newton Highlands T", "lat": 42.322065656952944, "lon": -71.2063729763031, "first": "2021-06-20", "last": "2022-06-30"}, {"id": "523", "name": "Boston College T", "lat": 42.33987891612856, "lon": -71.16708934307098, "first": "2021-06-20", "last": "2022-06-30"}, {"id": "525", "name": "California at Chapel", "lat": 42.365148708129546, "lon": -71.20236039161682, "first": "2021-06-23", "last": "2022-06-30"}, {"id": "526", "name": "Beacon at Walnut", "lat": 42.330062324403, "lon": -71.20668411254883, "first": "2021-06-24", "last": "2022-06-30"}, {"id": "527", "name": "Newton Library", "lat": 42.33620336883013, "lon": -71.207794547081, "first": "2021-06-26", "last": "2022-06-30"}, {"id": "528", "name": "Washington St at Walnut St", "lat": 42.351458116963016, "lon": -71.20764970779419, "first": "2021-07-07", "last": "2022-06-30"}, {"id": "529", "name": "One Beacon St", "lat": 42.358477644348106, "lon": -71.06135129928589, "first": "2021-07-08", "last": "2022-06-30"}, {"id": "530", "name": "Foley St at Grand Union Blvd", "lat": 42.39301840035393, "lon": -71.08071684837341, "first": "2021-07-08", "last": "2022-06-30"}, {"id": "531", "name": "Harvard St and Stedman St", "lat": 42.3443517550051, "lon": -71.12490355968475, "first": "2021-07-23", "last": "2022-06-30"}, {"id": "532", "name": "Concord Ave at Spinelli Place", "lat": 42.390719, "lon": -71.1538877, "first": "2021-07-27", "last": "2022-06-30"}, {"id": "533", "name": "Danehy Park at New Street", "lat": 42.389456, "lon": -71.139019, "first": "2021-07-28", "last": "2022-06-30"}, {"id": "534", "name": "Adams Branch Library", "lat": 42.286011, "lon": -71.054689, "first": "2021-07-30", "last": "2021-11-30"}, {"id": "536", "name": "Clinton St at North St", "lat": 42.3607028354884, "lon": -71.05524927377701, "first": "2021-08-05", "last": "2022-06-30"}, {"id": "535", "name": "Auburndale", "lat": 42.34805541493346, "lon": -71.2477594614029, "first": "2021-08-06", "last": "2022-06-30"}, {"id": "537", "name": "Charles River Greenway - California St. at Fifth Ave", "lat": 42.36455361053197, "lon": -71.19100391864777, "first": "2021-08-06", "last": "2022-06-30"}, {"id": "538", "name": "Circuit Drive at American Legion Hwy", "lat": 42.29704126420948, "lon": -71.09171926975249, "first": "2021-08-24", "last": "2022-06-30"}, {"id": "539", "name": "Walnut Ave at School St", "lat": 42.31242399029812, "lon": -71.09616905450821, "first": "2021-08-25", "last": "2022-06-30"}, {"id": "541", "name": "Orr Sq (Shirley Ave)", "lat": 42.40715655698643, "lon": -70.99272429943085, "first": "2021-08-26", "last": "2022-06-30"}, {"id": "540", "name": "Sumner St at Shirley Ave", "lat": 42.40833705812975, "lon": -70.99804848432541, "first": "2021-08-26", "last": "2022-06-30"}, {"id": "544", "name": "Old Morse Park at Putnam Ave", "lat": 42.35766247889882, "lon": -71.1084133386612, "first": "2021-09-10", "last": "2022-06-30"}, {"id": "549", "name": "Valenti Way at Haverhill St", "lat": 42.36473898691789, "lon": -71.05934903025626, "first": "2021-09-30", "last": "2022-06-30"}, {"id": "547", "name": "606 American Legion Hwy at Canterbury St", "lat": 42.28578, "lon": -71.109725, "first": "2021-09-30", "last": "2022-06-30"}, {"id": "550", "name": "Somerville High School & Central Library", "lat": 42.3864, "lon": -71.09601, "first": "2021-10-12", "last": "2022-06-30"}, {"id": "553", "name": "Cambridge Crossing at North First Street", "lat": 42.371141, "lon": -71.076198, "first": "2021-10-29", "last": "2022-06-30"}, {"id": "554", "name": "Forsyth St at Huntington Ave", "lat": 42.339202, "lon": -71.090511, "first": "2021-12-01", "last": "2022-06-30"}, {"id": "557", "name": "Galileo Galilei Way at Fulkerson St/Binney St", "lat": 42.3664204, "lon": -71.0885418, "first": "2022-01-27", "last": "2022-06-30"}, {"id": "558", "name": "St. Alphonsus St at Tremont St", "lat": 42.33329254719182, "lon": -71.10124647617339, "first": "2022-02-16", "last": "2022-06-30"}, {"id": "561", "name": "Pier 4 Blvd at Autumn Ln", "lat": 42.3502102, "lon": -71.0446705, "first": "2022-03-03", "last": "2022-06-30"}, {"id": "560", "name": "Flat 9 at Whittier", "lat": 42.33420351352245, "lon": -71.08767616843123, "first": "2022-03-05", "last": "2022-06-30"}, {"id": "562", "name": "Hawthorne Boulevard", "lat": 42.5223714, "lon": -70.8903331, "first": "2022-03-30", "last": "2022-06-30"}, {"id": "563", "name": "Addison St at Saratoga St", "lat": 42.38518146513944, "lon": -71.0151367, "first": "2022-05-14", "last": "2022-06-30"}, {"id": "564", "name": "Raymond Park at Walden St", "lat": 42.38736953747185, "lon": -71.12761001482795, "first": "2022-05-27", "last": "2022-06-30"}, {"id": "565", "name": "Wellington MBTA", "lat": 42.4023682, "lon": -71.07573182424781, "first": "2022-06-11", "last": "2022-06-30"}, {"id": "A32007", "name": "Harvard Real Estate - North Harvard St at Western Ave", "lat": 42.363905, "lon": -71.128906, "first": "2011-11-30", "last": "2013-09-25"}, {"id": "B32019", "name": "Longwood Ave/Riverway", "lat": 42.340299, "lon": -71.109927, "first": "2011-11-30", "last": "2014-07-01"}, {"id": "B32009", "name": "Overland St at Brookline Ave", "lat": 42.346171, "lon": -71.099855, "first": "2011-11-30", "last": "2013-09-25"}, {"id": "M32038", "name": "Harvard University River Houses - DeWolfe St at Grant St", "lat": 42.36919032, "lon": -71.11714125, "first": "2012-11-20", "last": "2014-07-01"}, {"id": "C32013", "name": "JFK / UMASS Station", "lat": 42.32033974, "lon": -71.05118036, "first": "2012-11-20", "last": "2014-07-01"}, {"id": "C32011", "name": "South Bay Plaza", "lat": 42.325941, "lon": -71.065928, "first": "2012-11-20", "last": "2013-09-25"}, {"id": "E32001", "name": "JP Monument - South St at Centre St", "lat": 42.309054, "lon": -71.11543, "first": "2013-12-31", "last": "2014-07-01"}, {"id": "D32025", "name": "Milk St at India St", "lat": 42.358483, "lon": -71.052979, "first": "2013-12-31", "last": "2014-07-01"}, {"id": "C32022", "name": "Newmarket Square", "lat": 42.326599, "lon": -71.066498, "first": "2014-06-30", "last": "2014-07-01"}]