[{"id": "9", "name": "Agganis Arena - 925 Comm Ave.", "lat": 42.351246, "lon": -71.115639, "first": "2011-11-30", "last": "2019-10-31"}, {"id": "41", "name": "Packard's Corner - Comm. Ave. at Brighton Ave.", "lat": 42.352261, "lon": -71.12383100000001, "first": "2011-11-30", "last": "2019-10-31"}, {"id": "75", "name": "Lafayette Square at Mass Ave / Main St / Columbia St", "lat": 42.36346469304347, "lon": -71.10057324171065, "first": "2012-11-20", "last": "2019-10-31"}, {"id": "68", "name": "Central Square at Mass Ave / Essex St", "lat": 42.36507, "lon": -71.1031, "first": "2012-11-20", "last": "2019-10-31"}, {"id": "36", "name": "Boston Public Library - 700 Boylston St.", "lat": 42.349672999999996, "lon": -71.077303, "first": "2011-11-30", "last": "2019-10-31"}, {"id": "31", "name": "Seaport Hotel", "lat": 42.348833, "lon": -71.041747, "first": "2011-11-30", "last": "2019-10-31"}, {"id": "10", "name": "B.U. Central - 725 Comm. Ave.", "lat": 42.350406, "lon": -71.10827900000001, "first": "2011-11-30", "last": "2019-10-31"}, {"id": "54", "name": "Tremont St / West St", "lat": 42.354979, "lon": -71.063348, "first": "2011-11-30", "last": "2019-10-31"}, {"id": "59", "name": "Chinatown Gate Plaza - Surface Rd. at Beach St.", "lat": 42.351356, "lon": -71.05936700000001, "first": "2011-11-30", "last": "2019-10-31"}, {"id": "74", "name": "Harvard Square at Mass Ave/ Dunster", "lat": 42.373267999999996, "lon": -71.118579, "first": "2012-11-20", "last": "2019-10-31"}, {"id": "110", "name": "Harvard University Gund Hall at Quincy St / Kirkland S", "lat": 42.376369, "lon": -71.114025, "first": "2013-12-31", "last": "2019-10-31"}, {"id": "46", "name": "Christian Science Plaza", "lat": 42.343864, "lon": -71.085918, "first": "2011-11-30", "last": "2019-10-31"}, {"id": "67", "name": "MIT at Mass Ave / Amherst St", "lat": 42.3581, "lon": -71.093198, "first": "2012-11-20", "last": "2019-10-31"}, {"id": "3", "name": "Colleges of the Fenway", "lat": 42.340021, "lon": -71.100812, "first": "2011-11-30", "last": "2019-10-31"}, {"id": "6", "name": "Cambridge St. at Joy St.", "lat": 42.361174, "lon": -71.06514200000001, "first": "2011-11-30", "last": "2019-10-31"}, {"id": "17", "name": "Harvard University Housing - 111 Western Ave. at Soldiers Field Park ", "lat": 42.365064000000004, "lon": -71.119233, "first": "2011-11-30", "last": "2019-10-31"}, {"id": "40", "name": "Lewis Wharf - Atlantic Ave.", "lat": 42.363871, "lon": -71.050877, "first": "2011-11-30", "last": "2019-10-31"}, {"id": "47", "name": "Cross St. at Hanover St.", "lat": 42.362811, "lon": -71.056067, "first": "2011-11-30", "last": "2019-10-31"}, {"id": "150", "name": "State Street at Channel Center", "lat": 42.344136999999996, "lon": -71.05260799999999, "first": "2014-12-31", "last": "2019-10-31"}, {"id": "119", "name": "South Boston Library - 646 East Broadway", "lat": 42.335741, "lon": -71.03877, "first": "2013-12-31", "last": "2019-10-31"}, {"id": "57", "name": "Columbus Ave. at Mass. Ave.", "lat": 42.340799, "lon": -71.081572, "first": "2011-11-30", "last": "2019-10-31"}, {"id": "176", "name": "Lesley University", "lat": 42.38674802045056, "lon": -71.11901879310608, "first": "2015-11-01", "last": "2019-10-31"}, {"id": "98", "name": "Charlestown - Warren St at Chelsea St", "lat": 42.371848, "lon": -71.060292, "first": "2012-11-20", "last": "2019-10-31"}, {"id": "78", "name": "Union Square - Somerville", "lat": 42.379637, "lon": -71.09531899999999, "first": "2012-11-20", "last": "2019-10-31"}, {"id": "85", "name": "Spaulding Rehabilitation Hospital - Charlestown Navy Yard", "lat": 42.378338, "lon": -71.048927, "first": "2012-11-20", "last": "2019-10-31"}, {"id": "73", "name": "Harvard Square at Brattle St / Eliot St", "lat": 42.373231, "lon": -71.120886, "first": "2012-11-20", "last": "2019-10-31"}, {"id": "118", "name": "Linear Park - Mass. Ave. at Cameron Ave. ", "lat": 42.397828000000004, "lon": -71.130516, "first": "2013-12-31", "last": "2019-10-31"}, {"id": "109", "name": "TD Garden - Causeway at Portal Park #1", "lat": 42.365942, "lon": -71.06051500000001, "first": "2012-11-20", "last": "2019-10-31"}, {"id": "38", "name": "TD Garden - Causeway at Portal Park #2", "lat": 42.366222, "lon": -71.059914, "first": "2011-11-30", "last": "2016-09-30"}, {"id": "104", "name": "Harvard University Radcliffe Quadrangle at Shepard St / Garden St", "lat": 42.380287, "lon": -71.125107, "first": "2012-11-20", "last": "2019-10-31"}, {"id": "94", "name": "Charlestown - Main St at Austin St", "lat": 42.375603000000005, "lon": -71.06460799999999, "first": "2012-11-20", "last": "2019-10-31"}, {"id": "20", "name": "Aquarium Station - 200 Atlantic Ave.", "lat": 42.359770000000005, "lon": -71.051601, "first": "2011-11-30", "last": "2019-10-31"}, {"id": "4", "name": "Tremont St. at Berkeley St.", "lat": 42.345392, "lon": -71.069616, "first": "2011-11-30", "last": "2019-10-31"}, {"id": "121", "name": "West Broadway at Dorchester St", "lat": 42.335693, "lon": -71.045859, "first": "2013-12-31", "last": "2019-10-31"}, {"id": "5", "name": "Northeastern U / North Parking Lot", "lat": 42.341814, "lon": -71.090179, "first": "2011-11-30", "last": "2019-10-31"}, {"id": "105", "name": "Lower Cambridgeport at Magazine St/Riverside Rd", "lat": 42.356953999999995, "lon": -71.113687, "first": "2012-11-20", "last": "2019-10-31"}, {"id": "16", "name": "Back Bay / South End Station", "lat": 42.34807412317439, "lon": -71.07657015323639, "first": "2011-11-30", "last": "2019-10-31"}, {"id": "44", "name": "Faneuil Hall - Union St. at North St.", "lat": 42.360613, "lon": -71.057452, "first": "2011-11-30", "last": "2019-10-31"}, {"id": "124", "name": "Curtis Hall at South Street", "lat": 42.309053999999996, "lon": -71.11543, "first": "2015-04-01", "last": "2019-10-31"}, {"id": "27", "name": "Roxbury Crossing Station", "lat": 42.331184, "lon": -71.095171, "first": "2011-11-30", "last": "2019-10-31"}, {"id": "12", "name": "Ruggles Station / Columbus Ave.", "lat": 42.335910999999996, "lon": -71.08849599999999, "first": "2011-11-30", "last": "2019-10-31"}, {"id": "152", "name": "Ink Block", "lat": 42.345901, "lon": -71.063187, "first": "2015-04-01", "last": "2019-10-31"}, {"id": "49", "name": "Stuart St. at Charles St.", "lat": 42.351146, "lon": -71.066289, "first": "2011-11-30", "last": "2019-10-31"}, {"id": "21", "name": "Prudential Center / Belvidere", "lat": 42.345959, "lon": -71.082578, "first": "2011-11-30", "last": "2019-10-31"}, {"id": "23", "name": "Mayor Martin J Walsh - 28 State St", "lat": 42.35892, "lon": -71.057629, "first": "2011-11-30", "last": "2019-10-31"}, {"id": "76", "name": "Central Sq Post Office / Cambridge City Hall at Mass Ave / Pleasant St", "lat": 42.366426000000004, "lon": -71.10549499999999, "first": "2012-11-20", "last": "2019-10-31"}, {"id": "178", "name": "MIT Pacific St at Purrington St", "lat": 42.359573201090434, "lon": -71.10129475593567, "first": "2015-11-01", "last": "2019-10-31"}, {"id": "117", "name": "Binney St / Sixth St", "lat": 42.366095, "lon": -71.086388, "first": "2013-12-31", "last": "2019-10-31"}, {"id": "87", "name": "Harvard University Housing - 115 Putnam Ave at Peabody Terrace", "lat": 42.366621, "lon": -71.114214, "first": "2012-11-20", "last": "2019-10-31"}, {"id": "81", "name": "Boylston St / Washington St", "lat": 42.352409, "lon": -71.062679, "first": "2012-11-20", "last": "2019-10-31"}, {"id": "43", "name": "Rowes Wharf - Atlantic Ave", "lat": 42.357143, "lon": -71.050699, "first": "2011-11-30", "last": "2019-10-31"}, {"id": "25", "name": "Tremont St / W Newton St", "lat": 42.341332, "lon": -71.076847, "first": "2011-11-30", "last": "2019-10-31"}, {"id": "88", "name": "Inman Square at Vellucci Plaza / Hampshire St", "lat": 42.374035, "lon": -71.101427, "first": "2012-11-20", "last": "2019-01-28"}, {"id": "91", "name": "One Kendall Square at Hampshire St / Portland St", "lat": 42.366277000000004, "lon": -71.09169, "first": "2012-11-20", "last": "2019-10-31"}, {"id": "169", "name": "Edwards Playground - Main Street & Eden Street", "lat": 42.378965, "lon": -71.068607, "first": "2015-10-01", "last": "2019-10-31"}, {"id": "96", "name": "Cambridge Main Library at Broadway / Trowbridge St", "lat": 42.373379, "lon": -71.111075, "first": "2012-11-20", "last": "2019-10-31"}, {"id": "100", "name": "Davis Square", "lat": 42.396969, "lon": -71.123024, "first": "2012-11-20", "last": "2019-10-31"}, {"id": "161", "name": "West Broadway at D Street", "lat": 42.3391085, "lon": -71.05144320000001, "first": "2015-10-01", "last": "2019-10-31"}, {"id": "116", "name": "359 Broadway - Broadway at Fayette Street", "lat": 42.370803, "lon": -71.104412, "first": "2013-12-31", "last": "2019-10-31"}, {"id": "51", "name": "Washington St. at Lenox St.", "lat": 42.3348756, "lon": -71.07909690000001, "first": "2011-11-30", "last": "2019-10-31"}, {"id": "126", "name": "Egleston Square at Columbus Ave", "lat": 42.315692, "lon": -71.09863399999999, "first": "2013-12-31", "last": "2019-10-31"}, {"id": "32", "name": "Landmark Centre", "lat": 42.343911999999996, "lon": -71.102221, "first": "2011-11-30", "last": "2018-10-31"}, {"id": "115", "name": "Porter Square Station", "lat": 42.387995000000004, "lon": -71.119084, "first": "2013-12-31", "last": "2019-10-31"}, {"id": "29", "name": "Innovation Lab - 125 Western Ave. at Batten Way", "lat": 42.363732, "lon": -71.124565, "first": "2011-11-30", "last": "2019-10-31"}, {"id": "143", "name": "EF - North Point Park", "lat": 42.369885, "lon": -71.06995699999999, "first": "2014-06-30", "last": "2019-10-31"}, {"id": "149", "name": "Harvard University Transportation Services - 175 North Harvard St", "lat": 42.363796, "lon": -71.129164, "first": "2014-06-30", "last": "2019-10-31"}, {"id": "142", "name": "Alewife Station at Russell Field", "lat": 42.396105, "lon": -71.139459, "first": "2014-12-31", "last": "2019-10-31"}, {"id": "22", "name": "South Station - 700 Atlantic Ave.", "lat": 42.352175, "lon": -71.055547, "first": "2011-11-30", "last": "2019-10-31"}, {"id": "65", "name": "Boston Convention & Exhibition Center", "lat": 42.3475, "lon": -71.0441, "first": "2012-11-20", "last": "2019-10-31"}, {"id": "140", "name": "Danehy Park", "lat": 42.388965999999996, "lon": -71.132788, "first": "2014-06-30", "last": "2019-10-31"}, {"id": "95", "name": "Cambridge St - at Columbia St / Webster Ave", "lat": 42.372969, "lon": -71.094445, "first": "2012-11-20", "last": "2019-10-31"}, {"id": "163", "name": "Lawn on D", "lat": 42.344792, "lon": -71.044024, "first": "2015-10-01", "last": "2019-10-31"}, {"id": "93", "name": "JFK / UMASS at MBTA Station", "lat": 42.320494000000004, "lon": -71.05112199999999, "first": "2015-04-01", "last": "2019-10-31"}, {"id": "133", "name": "Green St T", "lat": 42.310579, "lon": -71.107341, "first": "2013-12-31", "last": "2019-10-31"}, {"id": "63", "name": "Dorchester Ave. at Gillette Park", "lat": 42.344023, "lon": -71.05705400000001, "first": "2011-11-30", "last": "2019-10-31"}, {"id": "131", "name": "Jackson Square T at Centre St", "lat": 42.322701, "lon": -71.099533, "first": "2013-12-31", "last": "2019-10-31"}, {"id": "90", "name": "Lechmere Station at Cambridge St / First St", "lat": 42.370677, "lon": -71.07652900000001, "first": "2012-11-20", "last": "2019-10-31"}, {"id": "58", "name": "The Esplanade - Beacon St. at Arlington St.", "lat": 42.355596000000006, "lon": -71.07278000000001, "first": "2011-11-30", "last": "2019-10-31"}, {"id": "33", "name": "Kenmore Sq / Comm Ave", "lat": 42.348706, "lon": -71.097009, "first": "2011-11-30", "last": "2019-10-31"}, {"id": "19", "name": "Buswell St. at Park Dr.", "lat": 42.347241, "lon": -71.105301, "first": "2012-11-20", "last": "2019-10-31"}, {"id": "11", "name": "Longwood Ave / Binney St", "lat": 42.338629, "lon": -71.1065, "first": "2011-11-30", "last": "2019-10-31"}, {"id": "72", "name": "One Broadway / Kendall Sq at Main St / 3rd St", "lat": 42.362613, "lon": -71.08410500000001, "first": "2012-11-20", "last": "2019-10-31"}, {"id": "80", "name": "MIT Stata Center at Vassar St / Main St", "lat": 42.3619622, "lon": -71.0920526, "first": "2012-11-20", "last": "2019-10-31"}, {"id": "151", "name": "John F Fitzgerald - Surface Road at India Street", "lat": 42.358155, "lon": -71.05216300000001, "first": "2015-04-01", "last": "2019-10-31"}, {"id": "84", "name": "CambridgeSide Galleria - CambridgeSide PL at Land Blvd", "lat": 42.366981, "lon": -71.076472, "first": "2012-11-20", "last": "2019-10-31"}, {"id": "24", "name": "Seaport Square - Seaport Blvd. at Boston Wharf", "lat": 42.351205, "lon": -71.043983, "first": "2011-11-30", "last": "2019-10-31"}, {"id": "97", "name": "Harvard University River Houses at DeWolfe St / Cowperthwaite St", "lat": 42.36919031768079, "lon": -71.11714124679565, "first": "2015-01-01", "last": "2019-10-31"}, {"id": "108", "name": "Harvard University / SEAS Cruft-Pierce Halls at 29 Oxford St", "lat": 42.377945000000004, "lon": -71.116865, "first": "2012-11-20", "last": "2019-10-31"}, {"id": "7", "name": "Fan Pier", "lat": 42.35328743453294, "lon": -71.0443890094757, "first": "2011-11-30", "last": "2019-10-31"}, {"id": "8", "name": "Union Square - Brighton Ave. at Cambridge St.", "lat": 42.353334000000004, "lon": -71.137313, "first": "2011-11-30", "last": "2019-10-31"}, {"id": "145", "name": "Rindge Avenue - O'Neill Library", "lat": 42.392765999999995, "lon": -71.129042, "first": "2014-12-31", "last": "2019-10-31"}, {"id": "171", "name": "Bunker Hill Community College", "lat": 42.37408991426522, "lon": -71.06905996799469, "first": "2015-10-01", "last": "2019-10-31"}, {"id": "70", "name": "Harvard Kennedy School at Bennett St / Eliot St", "lat": 42.371196000000005, "lon": -71.121473, "first": "2012-11-20", "last": "2019-10-31"}, {"id": "180", "name": "Mt Auburn", "lat": 42.37478628706384, "lon": -71.13320231437683, "first": "2015-11-01", "last": "2019-10-31"}, {"id": "141", "name": "Kendall Street", "lat": 42.36356015842989, "lon": -71.08216792345047, "first": "2014-06-30", "last": "2019-10-31"}, {"id": "15", "name": "Harvard Real Estate - Brighton Mills - 370 Western Ave", "lat": 42.361667, "lon": -71.13802, "first": "2011-11-30", "last": "2019-10-31"}, {"id": "179", "name": "MIT Vassar St", "lat": 42.35560121327927, "lon": -71.10394477844237, "first": "2015-11-01", "last": "2019-10-31"}, {"id": "136", "name": "ID Building West", "lat": 42.344796, "lon": -71.031614, "first": "2014-06-30", "last": "2019-10-31"}, {"id": "175", "name": "Brighton Center", "lat": 42.34894857235593, "lon": -71.15027189254761, "first": "2015-10-01", "last": "2019-10-31"}, {"id": "14", "name": "HMS / HSPH - Ave. Louis Pasteur at Longwood Ave.", "lat": 42.337171000000005, "lon": -71.102797, "first": "2011-11-30", "last": "2019-10-31"}, {"id": "89", "name": "Harvard Law School at Mass Ave / Jarvis St", "lat": 42.379011, "lon": -71.119945, "first": "2012-11-20", "last": "2019-10-31"}, {"id": "56", "name": "Dudley Square", "lat": 42.328654, "lon": -71.084198, "first": "2011-11-30", "last": "2019-10-31"}, {"id": "107", "name": "Ames St at Main St", "lat": 42.3625, "lon": -71.08821999999999, "first": "2012-11-20", "last": "2019-10-31"}, {"id": "135", "name": "ID Building East", "lat": 42.344827, "lon": -71.028664, "first": "2014-06-30", "last": "2019-10-31"}, {"id": "92", "name": "UMass Boston Integrated Sciences Complex", "lat": 42.314507, "lon": -71.041269, "first": "2012-11-20", "last": "2019-10-31"}, {"id": "177", "name": "University Park", "lat": 42.36264779118595, "lon": -71.1000609397888, "first": "2015-11-01", "last": "2019-10-31"}, {"id": "160", "name": "Wentworth Institute of Technology", "lat": 42.337596000000005, "lon": -71.096391, "first": "2015-10-01", "last": "2019-10-31"}, {"id": "170", "name": "Franklin Park Zoo", "lat": 42.303469, "lon": -71.085347, "first": "2015-10-01", "last": "2019-10-31"}, {"id": "162", "name": "Franklin Park - Seaver Street at Humbolt Ave", "lat": 42.309796, "lon": -71.092225, "first": "2015-10-01", "last": "2019-10-31"}, {"id": "138", "name": "Mass Ave at Newmarket Square", "lat": 42.326599, "lon": -71.066498, "first": "2015-04-01", "last": "2019-10-31"}, {"id": "37", "name": "New Balance - 20 Guest St.", "lat": 42.357402, "lon": -71.14778199999999, "first": "2011-11-30", "last": "2019-10-31"}, {"id": "1", "name": "18 Dorrance Warehouse", "lat": 42.387151, "lon": -71.075978, "first": "2015-03-01", "last": "2019-10-31"}, {"id": "60", "name": "Charles Circle - Charles St. at Cambridge St.", "lat": 42.360834999999994, "lon": -71.07083990000001, "first": "2011-11-30", "last": "2019-10-31"}, {"id": "139", "name": "Dana Park", "lat": 42.361589, "lon": -71.107437, "first": "2014-06-30", "last": "2019-10-31"}, {"id": "132", "name": "Summer St at Cutter St", "lat": 42.394002, "lon": -71.120406, "first": "2013-12-31", "last": "2015-11-30"}, {"id": "66", "name": "Allston Green District - Commonwealth Ave & Griggs St", "lat": 42.348607, "lon": -71.13401, "first": "2012-11-20", "last": "2019-10-31"}, {"id": "52", "name": "Newbury St / Hereford St", "lat": 42.348717, "lon": -71.085954, "first": "2011-11-30", "last": "2019-10-31"}, {"id": "79", "name": "Beacon St at Washington / Kirkland", "lat": 42.37842, "lon": -71.10566800000001, "first": "2012-11-20", "last": "2019-10-31"}, {"id": "123", "name": "JP Center - Centre Street at Myrtle Street", "lat": 42.313156, "lon": -71.11414, "first": "2013-12-31", "last": "2015-11-30"}, {"id": "13", "name": "Boston Medical Center -  East Concord at Harrison Ave", "lat": 42.336437, "lon": -71.073089, "first": "2011-11-30", "last": "2019-10-31"}, {"id": "64", "name": "Congress / Sleeper", "lat": 42.3511, "lon": -71.0496, "first": "2011-11-30", "last": "2019-10-31"}, {"id": "53", "name": "Beacon St / Mass Ave", "lat": 42.350851, "lon": -71.08988599999999, "first": "2011-11-30", "last": "2019-10-31"}, {"id": "50", "name": "Boylston St / Berkeley St", "lat": 42.350989, "lon": -71.07364399999999, "first": "2011-11-30", "last": "2019-10-31"}, {"id": "71", "name": "Conway Park - Somerville Avenue", "lat": 42.383404999999996, "lon": -71.10759300000001, "first": "2012-11-20", "last": "2019-10-31"}, {"id": "69", "name": "Coolidge Corner - Beacon St @ Centre St", "lat": 42.341598, "lon": -71.123338, "first": "2012-11-20", "last": "2019-10-31"}, {"id": "42", "name": "Boylston St. at Arlington St.", "lat": 42.352033, "lon": -71.070627, "first": "2011-11-30", "last": "2019-10-31"}, {"id": "61", "name": "Boylston at Fairfield", "lat": 42.348762, "lon": -71.082383, "first": "2011-11-30", "last": "2019-10-31"}, {"id": "99", "name": "Wilson Square", "lat": 42.385582, "lon": -71.113341, "first": "2012-11-20", "last": "2019-10-31"}, {"id": "45", "name": "Yawkey Way at Boylston St.", "lat": 42.344706, "lon": -71.097515, "first": "2011-11-30", "last": "2018-11-30"}, {"id": "55", "name": "Boylston / Mass Ave", "lat": 42.347265, "lon": -71.088088, "first": "2011-11-30", "last": "2019-10-31"}, {"id": "134", "name": "New Balance Store - Boylston at Dartmouth", "lat": 42.350413, "lon": -71.07655, "first": "2013-12-31", "last": "2019-10-31"}, {"id": "102", "name": "Powder House Circle - Nathan Tufts Park", "lat": 42.400877, "lon": -71.116772, "first": "2012-11-20", "last": "2019-10-31"}, {"id": "113", "name": "Andrew Station - Dorchester Ave at Humboldt Pl", "lat": 42.330715999999995, "lon": -71.05704399999999, "first": "2013-12-31", "last": "2019-10-31"}, {"id": "114", "name": "Teele Square at 239 Holland St", "lat": 42.402763, "lon": -71.126908, "first": "2013-12-31", "last": "2019-10-31"}, {"id": "82", "name": "Washington Square at Washington St. / Beacon St.", "lat": 42.339335, "lon": -71.13493000000001, "first": "2012-11-20", "last": "2019-10-31"}, {"id": "30", "name": "Brigham Cir / Huntington Ave", "lat": 42.334073, "lon": -71.105221, "first": "2011-11-30", "last": "2019-10-31"}, {"id": "39", "name": "Washington St. at Rutland St.", "lat": 42.338623, "lon": -71.074182, "first": "2011-11-30", "last": "2019-10-31"}, {"id": "103", "name": "JFK Crossing at Harvard St. / Thorndike St.", "lat": 42.346563, "lon": -71.128374, "first": "2013-12-31", "last": "2019-10-31"}, {"id": "129", "name": "Hayes Square at Vine St.", "lat": 42.377022, "lon": -71.056605, "first": "2013-12-31", "last": "2019-10-31"}, {"id": "112", "name": "Somerville Hospital at Highland Ave / Crocker St", "lat": 42.39082, "lon": -71.10942, "first": "2013-12-31", "last": "2019-10-31"}, {"id": "122", "name": "BIDMC - Brookline at Burlington St", "lat": 42.345733, "lon": -71.10069399999999, "first": "2013-12-31", "last": "2019-10-31"}, {"id": "130", "name": "Upham's Corner - Ramsey St at Dudley St", "lat": 42.317225, "lon": -71.065421, "first": "2013-12-31", "last": "2019-10-31"}, {"id": "125", "name": "Hyde Square at Barbara St", "lat": 42.320997999999996, "lon": -71.110833, "first": "2013-12-31", "last": "2019-10-31"}, {"id": "48", "name": "Post Office Square", "lat": 42.356755, "lon": -71.05540699999999, "first": "2011-11-30", "last": "2019-10-31"}, {"id": "35", "name": "Franklin St. / Arch St.", "lat": 42.355402000000005, "lon": -71.058087, "first": "2011-11-30", "last": "2019-10-31"}, {"id": "26", "name": "Washington St. at Waltham St.", "lat": 42.341522, "lon": -71.068922, "first": "2011-11-30", "last": "2019-10-31"}, {"id": "120", "name": "Charles St at Beacon St", "lat": 42.356052000000005, "lon": -71.069849, "first": "2013-12-31", "last": "2019-10-31"}, {"id": "86", "name": "Brookline Village - Pearl Street @ MBTA", "lat": 42.332799, "lon": -71.11620500000001, "first": "2015-04-01", "last": "2019-10-31"}, {"id": "77", "name": "Somerville City Hall", "lat": 42.386844, "lon": -71.09812, "first": "2012-11-20", "last": "2019-10-31"}, {"id": "137", "name": "Magoun Square at Trum Field", "lat": 42.398365000000005, "lon": -71.10781800000001, "first": "2014-06-30", "last": "2019-10-31"}, {"id": "111", "name": "Packard Ave / Powderhouse Blvd", "lat": 42.40449, "lon": -71.123413, "first": "2013-12-31", "last": "2019-10-31"}, {"id": "128", "name": "E. Cottage St at Columbia Rd", "lat": 42.320561, "lon": -71.06198, "first": "2013-12-31", "last": "2019-10-31"}, {"id": "106", "name": "Mt Pleasant Ave / Dudley Town Common", "lat": 42.325333, "lon": -71.075354, "first": "2012-11-20", "last": "2019-10-31"}, {"id": "174", "name": "Washington St at Brock St", "lat": 42.34900494405213, "lon": -71.16041064262392, "first": "2015-10-01", "last": "2019-10-31"}, {"id": "167", "name": "Ryan Playground - Dorchester Avenue Station", "lat": 42.317642, "lon": -71.056664, "first": "2015-10-01", "last": "2019-10-31"}, {"id": "159", "name": "Heath St at South Huntington", "lat": 42.32797270205962, "lon": -71.11089706420898, "first": "2015-10-01", "last": "2019-10-31"}, {"id": "226", "name": "Commonwealth Ave At Babcock St", "lat": 42.35154734791375, "lon": -71.12126246094705, "first": "2017-07-01", "last": "2019-10-31"}, {"id": "193", "name": "Brookline Village - Station Street @ MBTA TEMPORARY WINTER LOCATION", "lat": 42.33376472623494, "lon": -71.12046446660315, "first": "2016-04-01", "last": "2019-10-31"}, {"id": "157", "name": "Seaport Blvd at Sleeper St", "lat": 42.353178091862524, "lon": -71.04817356923377, "first": "2017-10-01", "last": "2019-10-31"}, {"id": "221", "name": "Verizon Innovation Hub 10 Ware Street", "lat": 42.37250864997261, "lon": -71.11305356025694, "first": "2017-06-01", "last": "2019-10-31"}, {"id": "211", "name": "Piers Park", "lat": 42.36543154627481, "lon": -71.03625655174254, "first": "2016-09-01", "last": "2019-10-31"}, {"id": "185", "name": "Third at Binney", "lat": 42.365444861373994, "lon": -71.0827714204788, "first": "2016-10-01", "last": "2019-10-31"}, {"id": "196", "name": "Roxbury YMCA - Warren St at MLK Blvd", "lat": 42.317873293456024, "lon": -71.08243077993394, "first": "2016-07-01", "last": "2019-10-31"}, {"id": "190", "name": "Nashua Street at Red Auerbach Way", "lat": 42.365673, "lon": -71.064263, "first": "2016-03-01", "last": "2019-10-31"}, {"id": "228", "name": "One Memorial Drive", "lat": 42.36161932076685, "lon": -71.08043550520959, "first": "2017-09-01", "last": "2019-10-31"}, {"id": "195", "name": "Brian P. Murphy Staircase at Child Street", "lat": 42.3720597013741, "lon": -71.07202649116515, "first": "2016-06-01", "last": "2019-10-31"}, {"id": "207", "name": "Faneuil St at Market St", "lat": 42.35484, "lon": -71.150226, "first": "2016-08-01", "last": "2018-10-31"}, {"id": "205", "name": "Bowdoin St at Quincy St", "lat": 42.30785224238503, "lon": -71.06512248516083, "first": "2016-08-01", "last": "2019-10-31"}, {"id": "186", "name": "Congress St at Northern Ave", "lat": 42.3481, "lon": -71.03764, "first": "2016-04-01", "last": "2019-10-31"}, {"id": "225", "name": "Cambridge Dept. of Public Works -147 Hampshire St.", "lat": 42.37119727759414, "lon": -71.09759867191316, "first": "2017-08-01", "last": "2019-10-31"}, {"id": "181", "name": "Huron Ave. At Vassal Lane", "lat": 42.381650612901176, "lon": -71.13426981498378, "first": "2017-10-01", "last": "2019-10-31"}, {"id": "222", "name": "Troy Boston", "lat": 42.343749, "lon": -71.062256, "first": "2017-10-01", "last": "2019-10-31"}, {"id": "208", "name": "Oak Square - 615 Washington St", "lat": 42.350570000000005, "lon": -71.16649100000001, "first": "2016-08-01", "last": "2019-10-31"}, {"id": "184", "name": "Sidney Research Campus/ Erie Street at Waverly", "lat": 42.35775309465199, "lon": -71.10393404960631, "first": "2016-10-01", "last": "2019-10-31"}, {"id": "189", "name": "Kendall T", "lat": 42.362427842912396, "lon": -71.08495473861693, "first": "2016-03-01", "last": "2019-10-31"}, {"id": "209", "name": "Chelsea St at Saratoga St", "lat": 42.379771999999996, "lon": -71.02744799999999, "first": "2016-09-01", "last": "2019-10-31"}, {"id": "192", "name": "Purchase St at Pearl St", "lat": 42.354659000000005, "lon": -71.05318100000001, "first": "2016-04-01", "last": "2019-10-31"}, {"id": "197", "name": "MLK Blvd at Washington St", "lat": 42.32143814183195, "lon": -71.09126061201096, "first": "2016-07-01", "last": "2019-10-31"}, {"id": "183", "name": "Alewife MBTA at Steel Place", "lat": 42.395588457167094, "lon": -71.14260613918304, "first": "2016-09-01", "last": "2019-10-31"}, {"id": "210", "name": "Bennington St at Byron St", "lat": 42.38337841883669, "lon": -71.01612031481636, "first": "2016-09-01", "last": "2019-10-31"}, {"id": "173", "name": "Savin Hill T Stop - S Sydney St at Bay St", "lat": 42.3106, "lon": -71.0539, "first": "2016-04-01", "last": "2019-10-31"}, {"id": "194", "name": "Broadway St at Mt Pleasant St", "lat": 42.38614141163957, "lon": -71.07828140258789, "first": "2016-04-01", "last": "2019-10-31"}, {"id": "182", "name": "Museum of Science", "lat": 42.36769018024484, "lon": -71.07116281986238, "first": "2017-05-01", "last": "2019-10-31"}, {"id": "200", "name": "Washington St at Melnea Cass Blvd", "lat": 42.332817, "lon": -71.081198, "first": "2016-07-01", "last": "2019-10-31"}, {"id": "224", "name": "Fresh Pond Reservation", "lat": 42.38267827521855, "lon": -71.143478951426, "first": "2017-06-01", "last": "2019-10-31"}, {"id": "217", "name": "Orient Heights T Stop - Bennington St at Saratoga St", "lat": 42.386781, "lon": -71.006098, "first": "2016-09-01", "last": "2019-10-31"}, {"id": "218", "name": "Watermark Seaport - Boston Wharf Rd at Seaport Blvd", "lat": 42.351586001198456, "lon": -71.04569256305693, "first": "2016-10-01", "last": "2019-10-31"}, {"id": "202", "name": "Grove Hall Library - 41 Geneva Ave", "lat": 42.30791, "lon": -71.080952, "first": "2016-08-01", "last": "2019-10-31"}, {"id": "201", "name": "NCAAA - Walnut Ave at Crawford St", "lat": 42.316902, "lon": -71.091946, "first": "2016-08-01", "last": "2019-10-31"}, {"id": "214", "name": "Airport T Stop - Bremen St at Brooks St", "lat": 42.375339000000004, "lon": -71.031304, "first": "2016-09-01", "last": "2019-10-31"}, {"id": "212", "name": "Maverick Square - Lewis Mall", "lat": 42.368844082898356, "lon": -71.03977829217911, "first": "2016-09-01", "last": "2019-10-31"}, {"id": "146", "name": "Murphy Skating Rink - 1880 Day Blvd", "lat": 42.336448, "lon": -71.023739, "first": "2016-03-01", "last": "2019-10-31"}, {"id": "215", "name": "The Eddy - New St at Sumner St", "lat": 42.370744, "lon": -71.044201, "first": "2016-09-01", "last": "2019-10-31"}, {"id": "213", "name": "East Boston Neighborhood Health Center - 20 Maverick Square", "lat": 42.369536, "lon": -71.03943100000001, "first": "2016-09-01", "last": "2019-10-31"}, {"id": "203", "name": "Columbia Rd at Ceylon St", "lat": 42.309571999999996, "lon": -71.0729, "first": "2016-08-01", "last": "2019-10-31"}, {"id": "219", "name": "Central Square East Boston", "lat": 42.37430732260765, "lon": -71.03807777166365, "first": "2016-11-01", "last": "2019-10-31"}, {"id": "232", "name": "Four Corners - 157 Washington St", "lat": 42.304127927390155, "lon": -71.07929527759552, "first": "2017-12-19", "last": "2019-10-31"}, {"id": "294", "name": "Deerfield St at Commonwealth Ave", "lat": 42.34920568977069, "lon": -71.09727063041645, "first": "2018-09-01", "last": "2019-10-31"}, {"id": "227", "name": "Silber Way", "lat": 42.349495995140025, "lon": -71.10057592391969, "first": "2017-07-01", "last": "2019-10-31"}, {"id": "233", "name": "St Mary's", "lat": 42.346197076555455, "lon": -71.10728681087494, "first": "2018-08-01", "last": "2019-10-31"}, {"id": "250", "name": "Park Plaza at Charles St", "lat": 42.351859999999995, "lon": -71.067688, "first": "2018-09-01", "last": "2019-10-31"}, {"id": "264", "name": "Washington St at Egremont Rd", "lat": 42.34294439999999, "lon": -71.1413333, "first": "2018-08-01", "last": "2019-10-31"}, {"id": "243", "name": "Commonwealth Ave at Kelton St", "lat": 42.3483680235499, "lon": -71.13997621466297, "first": "2018-09-01", "last": "2019-10-31"}, {"id": "281", "name": "Medford St at Charlestown BCYF", "lat": 42.380584000000006, "lon": -71.060875, "first": "2018-09-01", "last": "2019-10-31"}, {"id": "282", "name": "Stony Brook T Stop", "lat": 42.316966, "lon": -71.10437399999999, "first": "2018-09-01", "last": "2019-10-31"}, {"id": "280", "name": "Main St at Baldwin St", "lat": 42.380857, "lon": -71.070629, "first": "2018-09-01", "last": "2019-10-31"}, {"id": "278", "name": "Centre St at Seaverns Ave", "lat": 42.312120283566095, "lon": -71.11429806807791, "first": "2018-09-01", "last": "2019-10-31"}, {"id": "240", "name": "Harvard St at Greene-Rose Heritage Park", "lat": 42.36599406030789, "lon": -71.09516322612761, "first": "2018-08-01", "last": "2019-10-31"}, {"id": "238", "name": "Mass Ave at Hadley/Walden", "lat": 42.39138548863825, "lon": -71.12288117408751, "first": "2018-08-01", "last": "2019-10-31"}, {"id": "216", "name": "Glendon St at Condor St", "lat": 42.38240377674137, "lon": -71.03024303913115, "first": "2016-09-01", "last": "2019-10-31"}, {"id": "156", "name": "Somerville Hospital", "lat": 42.390888017213385, "lon": -71.10962569713591, "first": "2018-07-01", "last": "2019-10-31"}, {"id": "277", "name": "Charlestown Navy Yard", "lat": 42.37401065384493, "lon": -71.0548335313797, "first": "2018-09-01", "last": "2019-10-31"}, {"id": "247", "name": "Boylston St at Jersey St", "lat": 42.34469570866222, "lon": -71.09723791480063, "first": "2018-09-01", "last": "2019-10-31"}, {"id": "168", "name": "Harvard Ave at Brainerd Rd", "lat": 42.349561885454115, "lon": -71.1302706227616, "first": "2018-08-01", "last": "2019-10-31"}, {"id": "237", "name": "699 Mt Auburn St", "lat": 42.374976592157154, "lon": -71.14863030630659, "first": "2018-08-01", "last": "2019-10-31"}, {"id": "239", "name": "Community Path at Cedar Street", "lat": 42.39407223665884, "lon": -71.11133694648744, "first": "2018-08-01", "last": "2019-10-31"}, {"id": "244", "name": "Archdale Rd at Washington St", "lat": 42.292706, "lon": -71.121145, "first": "2018-08-01", "last": "2019-10-31"}, {"id": "206", "name": "Government Center - Cambridge St at Court St", "lat": 42.35980251599553, "lon": -71.05960782626425, "first": "2018-04-01", "last": "2019-10-31"}, {"id": "249", "name": "Commonwealth Ave at Chiswick Rd", "lat": 42.3402177416592, "lon": -71.1517309399278, "first": "2018-09-01", "last": "2019-10-31"}, {"id": "144", "name": "Rogers St & Land Blvd", "lat": 42.36575798214837, "lon": -71.07699394226073, "first": "2018-08-01", "last": "2019-10-31"}, {"id": "283", "name": "Main St at Thompson Sq", "lat": 42.374916999999996, "lon": -71.063829, "first": "2018-09-01", "last": "2019-10-31"}, {"id": "279", "name": "Williams St at Washington St", "lat": 42.306539, "lon": -71.107669, "first": "2018-09-01", "last": "2019-10-31"}, {"id": "188", "name": "Foss Park", "lat": 42.39108438146733, "lon": -71.09039425849916, "first": "2018-07-01", "last": "2019-10-31"}, {"id": "204", "name": "Walnut Ave at Warren St", "lat": 42.324081, "lon": -71.083235, "first": "2016-08-01", "last": "2019-10-31"}, {"id": "234", "name": "Broadway at Central St", "lat": 42.39517150121575, "lon": -71.09850591982195, "first": "2018-07-01", "last": "2019-10-31"}, {"id": "231", "name": "Washington St at Myrtle St", "lat": 42.38172115782515, "lon": -71.08376650152422, "first": "2018-08-01", "last": "2019-10-31"}, {"id": "235", "name": "East Somerville Library (Broadway and Illinois)", "lat": 42.3876281075134, "lon": -71.08318716287613, "first": "2018-07-01", "last": "2019-10-31"}, {"id": "187", "name": "Cypress St at Clark Playground", "lat": 42.32784317478686, "lon": -71.1253622174263, "first": "2018-07-01", "last": "2019-10-31"}, {"id": "155", "name": "Huntington Ave at Mass Art", "lat": 42.336519093043925, "lon": -71.0989692435578, "first": "2018-09-01", "last": "2019-10-31"}, {"id": "295", "name": "Columbia Rd at Tierney Community Center", "lat": 42.33023264684929, "lon": -71.0505741463021, "first": "2018-09-01", "last": "2019-10-31"}, {"id": "220", "name": "Grove St at Community Path", "lat": 42.396383879503205, "lon": -71.12010508775711, "first": "2018-07-01", "last": "2019-10-31"}, {"id": "242", "name": "Roslindale Village - South St", "lat": 42.287071999999995, "lon": -71.12775400000001, "first": "2018-08-01", "last": "2019-10-31"}, {"id": "284", "name": "One Brigham Circle", "lat": 42.333919727205775, "lon": -71.10446777203833, "first": "2018-09-01", "last": "2019-10-31"}, {"id": "255", "name": "Park St at Norwell St", "lat": 42.2944167, "lon": -71.0783056, "first": "2018-08-01", "last": "2019-10-31"}, {"id": "252", "name": "Cleveland Circle", "lat": 42.33553091872319, "lon": -71.15072786808014, "first": "2018-09-01", "last": "2019-10-31"}, {"id": "258", "name": "Gallivan Blvd at Adams St", "lat": 42.28297567840305, "lon": -71.05466698296368, "first": "2018-08-01", "last": "2019-10-31"}, {"id": "296", "name": "Farragut Rd at E. 6th St", "lat": 42.3334, "lon": -71.02495, "first": "2018-09-01", "last": "2019-10-31"}, {"id": "262", "name": "Faneuil St at Arlington St", "lat": 42.352861100000005, "lon": -71.1600278, "first": "2018-08-01", "last": "2019-10-31"}, {"id": "236", "name": "Assembly Square T", "lat": 42.39223284004628, "lon": -71.07746601104736, "first": "2018-07-01", "last": "2019-10-31"}, {"id": "199", "name": "Upham's Corner T Stop - Magnolia St at Dudley St", "lat": 42.318697341722434, "lon": -71.06978148221971, "first": "2016-07-01", "last": "2019-10-31"}, {"id": "307", "name": "Broadway T Stop", "lat": 42.3428, "lon": -71.05751, "first": "2018-09-01", "last": "2019-10-31"}, {"id": "191", "name": "Tappan St at Brookline Hills MBTA", "lat": 42.332096063019364, "lon": -71.12845882773401, "first": "2018-07-01", "last": "2019-10-31"}, {"id": "260", "name": "Fields Corner T Stop", "lat": 42.2996667, "lon": -71.0605833, "first": "2018-08-01", "last": "2019-10-31"}, {"id": "302", "name": "Harrison Ave at Bennet St", "lat": 42.3493102175903, "lon": -71.06210500001906, "first": "2018-10-03", "last": "2019-10-31"}, {"id": "259", "name": "Washington St at Bradlee St", "lat": 42.297918076221606, "lon": -71.07271846392905, "first": "2018-08-01", "last": "2019-10-31"}, {"id": "299", "name": "Harrison Ave at Mullins Way", "lat": 42.34510857037852, "lon": -71.06392078119825, "first": "2018-10-09", "last": "2019-10-31"}, {"id": "300", "name": "Tremont St at Northampton St", "lat": 42.33884970690809, "lon": -71.0814061389283, "first": "2018-10-09", "last": "2019-10-31"}, {"id": "286", "name": "30 Dane St.", "lat": 42.38112284630097, "lon": -71.10410027224134, "first": "2018-10-12", "last": "2019-10-31"}, {"id": "319", "name": "84 Cambridgepark Dr", "lat": 42.3936, "lon": -71.143941, "first": "2018-10-18", "last": "2019-10-31"}, {"id": "336", "name": "Mattapan T Stop", "lat": 42.267902, "lon": -71.093641, "first": "2018-10-24", "last": "2019-10-31"}, {"id": "348", "name": "Talbot Ave At Blue Hill Ave", "lat": 42.2945833, "lon": -71.087111, "first": "2018-10-25", "last": "2019-10-31"}, {"id": "318", "name": "Ames St at Broadway", "lat": 42.363692900000004, "lon": -71.0875672, "first": "2018-10-25", "last": "2019-10-31"}, {"id": "352", "name": "Ring Rd", "lat": 42.34827838542626, "lon": -71.08044855314802, "first": "2018-10-25", "last": "2019-10-31"}, {"id": "340", "name": "Blue Hill Ave at Almont St", "lat": 42.274620671812244, "lon": -71.09372552493369, "first": "2018-10-25", "last": "2019-10-31"}, {"id": "347", "name": "Thetford Ave at Norfolk St", "lat": 42.286212948246096, "lon": -71.07942931372236, "first": "2018-10-26", "last": "2019-10-31"}, {"id": "350", "name": "Codman Square Library", "lat": 42.287361100000005, "lon": -71.071111, "first": "2018-10-26", "last": "2019-10-31"}, {"id": "349", "name": "Washington St at Talbot Ave", "lat": 42.290333000000004, "lon": -71.07180600000001, "first": "2018-10-26", "last": "2019-10-31"}, {"id": "341", "name": "Roslindale Village - Washington St", "lat": 42.28630716010807, "lon": -71.12820532182013, "first": "2018-10-28", "last": "2019-10-31"}, {"id": "317", "name": "BCBS Quincy", "lat": 42.27600498756665, "lon": -71.03924982267927, "first": "2018-10-29", "last": "2019-10-31"}, {"id": "308", "name": "BCBS Hingham", "lat": 42.16722555541654, "lon": -70.90555783370291, "first": "2018-10-29", "last": "2019-10-31"}, {"id": "353", "name": "Mattapan Library", "lat": 42.2773889, "lon": -71.09325, "first": "2018-10-30", "last": "2019-10-31"}, {"id": "360", "name": "Bartlett St at John Elliot Sq", "lat": 42.3294633, "lon": -71.0901582, "first": "2018-10-31", "last": "2019-10-31"}, {"id": "367", "name": "Vassal Lane at Tobin/VLUS", "lat": 42.3839322489048, "lon": -71.13961271959852, "first": "2018-10-31", "last": "2019-10-31"}, {"id": "355", "name": "Bennington St at Constitution Beach", "lat": 42.385223935870535, "lon": -71.01063068965232, "first": "2018-10-31", "last": "2019-10-31"}, {"id": "396", "name": "Main St at Beacon St", "lat": 42.41072713868097, "lon": -71.06266822675025, "first": "2019-06-01", "last": "2019-10-31"}, {"id": "380", "name": "Mass Ave at Albany St", "lat": 42.36135837662249, "lon": -71.09670273977825, "first": "2019-01-01", "last": "2019-10-31"}, {"id": "273", "name": "Forest Hills", "lat": 42.300923, "lon": -71.114249, "first": "2019-07-01", "last": "2019-10-31"}, {"id": "403", "name": "Marion St at Harvard St", "lat": 42.33978052668946, "lon": -71.12133350232398, "first": "2019-07-01", "last": "2019-10-31"}, {"id": "397", "name": "Broadway at Beacham St", "lat": 42.39836059620832, "lon": -71.06373842814719, "first": "2019-06-01", "last": "2019-10-31"}, {"id": "404", "name": "Mass Ave T Station", "lat": 42.34135615767354, "lon": -71.08336953450817, "first": "2019-07-01", "last": "2019-10-31"}, {"id": "378", "name": "191 Beacon St", "lat": 42.380323350454155, "lon": -71.10878612855231, "first": "2018-12-01", "last": "2019-10-31"}, {"id": "381", "name": "Inman Square at Springfield St.", "lat": 42.37438408515815, "lon": -71.1001574621514, "first": "2019-01-01", "last": "2019-10-31"}, {"id": "369", "name": "Boston Public Market", "lat": 42.36254854409333, "lon": -71.05737358331679, "first": "2018-11-01", "last": "2019-10-31"}, {"id": "420", "name": "Charles St at Pinckney St", "lat": 42.358725304621636, "lon": -71.07079532006537, "first": "2019-08-01", "last": "2019-10-31"}, {"id": "412", "name": "Washington St at Peters Park", "lat": 42.34303291130257, "lon": -71.06688730436872, "first": "2019-07-01", "last": "2019-10-31"}, {"id": "379", "name": "Tremont St at W. Dedham St", "lat": 42.34254913737952, "lon": -71.07421449387857, "first": "2019-01-01", "last": "2019-10-31"}, {"id": "370", "name": "Dartmouth St at Newbury St", "lat": 42.35096144421219, "lon": -71.07782810926437, "first": "2018-11-01", "last": "2019-10-31"}, {"id": "414", "name": "Discovery Park - 30 Acorn Park Drive", "lat": 42.39790817368333, "lon": -71.14797130814624, "first": "2019-08-01", "last": "2019-10-31"}, {"id": "417", "name": "Columbus Ave at W. Canton St", "lat": 42.34474224772802, "lon": -71.07648162175792, "first": "2019-08-01", "last": "2019-10-31"}, {"id": "416", "name": "Blossom St at Charles St", "lat": 42.364355890279825, "lon": -71.0695936904267, "first": "2019-08-01", "last": "2019-10-31"}, {"id": "390", "name": "Broadway at Lynde St", "lat": 42.39648358247693, "lon": -71.06546759905541, "first": "2019-06-01", "last": "2019-10-31"}, {"id": "400", "name": "Big Papi Station", "lat": 42.347344731774314, "lon": -71.10016807950159, "first": "2019-07-01", "last": "2019-10-31"}, {"id": "402", "name": "Washington St at Griggs Rd", "lat": 42.33833423719901, "lon": -71.13050930220197, "first": "2019-07-01", "last": "2019-10-31"}, {"id": "377", "name": "Perry Park", "lat": 42.3792732460084, "lon": -71.10341902831351, "first": "2018-12-01", "last": "2019-10-31"}, {"id": "384", "name": "Clarendon St at Newbury St", "lat": 42.35155308466532, "lon": -71.0756903143556, "first": "2019-04-01", "last": "2019-10-31"}, {"id": "407", "name": "Craigie at Summer St", "lat": 42.38828872616418, "lon": -71.11071459967206, "first": "2019-07-01", "last": "2019-10-31"}, {"id": "413", "name": "Kennedy-Longfellow School 158 Spring St", "lat": 42.36955297756508, "lon": -71.08579014980933, "first": "2019-08-01", "last": "2019-10-31"}, {"id": "388", "name": "Main Street at Carter Street", "lat": 42.40413, "lon": -71.0613, "first": "2019-06-01", "last": "2019-10-31"}, {"id": "409", "name": "Elm St at White St", "lat": 42.38952436305763, "lon": -71.11694140364307, "first": "2019-07-01", "last": "2019-10-31"}, {"id": "386", "name": "Sennott Park  Broadway at Norfolk Street", "lat": 42.36860524248197, "lon": -71.09930185605663, "first": "2019-05-01", "last": "2019-10-31"}, {"id": "101", "name": "Ball Sq", "lat": 42.399155887145724, "lon": -71.11102573591778, "first": "2012-11-20", "last": "2019-10-31"}, {"id": "437", "name": "Berkshire Street at Cambridge Street", "lat": 42.37207657915397, "lon": -71.08995433905875, "first": "2019-09-01", "last": "2019-10-31"}, {"id": "406", "name": "Somerville City Hall Annex", "lat": 42.39189811591863, "lon": -71.09745375830244, "first": "2019-07-01", "last": "2019-10-31"}, {"id": "374", "name": "Tremont St at Hamilton Pl", "lat": 42.35668334969929, "lon": -71.06166645884514, "first": "2018-11-01", "last": "2019-10-31"}, {"id": "398", "name": "75 Binney St", "lat": 42.36550728505653, "lon": -71.0801375997653, "first": "2019-07-01", "last": "2019-10-31"}, {"id": "427", "name": "Washington St at Denton Terr", "lat": 42.280728147169015, "lon": -71.13423757273267, "first": "2019-08-01", "last": "2019-10-31"}, {"id": "415", "name": "Stuart St at Berkeley St", "lat": 42.34954403114251, "lon": -71.07242073872841, "first": "2019-08-01", "last": "2019-10-31"}, {"id": "428", "name": "Western Ave at Richardson St", "lat": 42.36178741066188, "lon": -71.14393111327445, "first": "2019-08-01", "last": "2019-10-31"}, {"id": "426", "name": "Surface Rd at Summer St", "lat": 42.35294569782582, "lon": -71.05656400803126, "first": "2019-08-01", "last": "2019-10-31"}, {"id": "376", "name": "Honan Library", "lat": 42.36027370454934, "lon": -71.12852452327388, "first": "2018-12-01", "last": "2019-10-31"}, {"id": "408", "name": "Edgerly Education Center", "lat": 42.38717463348314, "lon": -71.08714388528824, "first": "2019-07-01", "last": "2019-10-31"}, {"id": "368", "name": "Blue Hill Ave at Southwood St", "lat": 42.31786020589988, "lon": -71.07798628527235, "first": "2018-11-01", "last": "2019-10-31"}, {"id": "411", "name": "Dorchester Ave at King St", "lat": 42.291756216320906, "lon": -71.0625918023743, "first": "2019-08-01", "last": "2019-10-31"}, {"id": "393", "name": "Ferry St at Pleasantview Ave", "lat": 42.40914877754532, "lon": -71.04597684005057, "first": "2019-06-01", "last": "2019-10-31"}, {"id": "401", "name": "High St at Cypress St", "lat": 42.32538435700882, "lon": -71.12177595532556, "first": "2019-07-01", "last": "2019-10-31"}, {"id": "385", "name": "Albany St at E. Brookline St", "lat": 42.33664795427071, "lon": -71.0689445958451, "first": "2019-05-01", "last": "2019-10-31"}, {"id": "421", "name": "Northbourne Rd at Hyde Park Ave", "lat": 42.29118034790426, "lon": -71.117736660035, "first": "2019-08-01", "last": "2019-10-31"}, {"id": "272", "name": "Shawmut T Stop", "lat": 42.292916999999996, "lon": -71.06575, "first": "2019-07-01", "last": "2019-10-31"}, {"id": "389", "name": "Everett Square (Broadway at Chelsea St)", "lat": 42.40725945172653, "lon": -71.05546381333625, "first": "2019-06-01", "last": "2019-10-31"}, {"id": "392", "name": "Glendale Square (Ferry St at Broadway)", "lat": 42.41480160999569, "lon": -71.04772560316633, "first": "2019-06-01", "last": "2019-10-31"}, {"id": "425", "name": "The Dimock Center", "lat": 42.3193094317828, "lon": -71.09639923859504, "first": "2019-08-01", "last": "2019-10-31"}, {"id": "424", "name": "Jamaica St at South St", "lat": 42.3060456272408, "lon": -71.11570891001975, "first": "2019-08-01", "last": "2019-10-31"}, {"id": "371", "name": "700 Huron Ave", "lat": 42.38078817291429, "lon": -71.15412890911101, "first": "2018-11-01", "last": "2019-10-31"}, {"id": "343", "name": "Morton St T", "lat": 42.280725142920296, "lon": -71.08617242434775, "first": "2018-11-01", "last": "2019-10-31"}, {"id": "372", "name": "Boylston St at Exeter St", "lat": 42.34958942368245, "lon": -71.07946779173291, "first": "2018-11-01", "last": "2019-10-31"}, {"id": "391", "name": "Encore", "lat": 42.393292632251615, "lon": -71.0724475979805, "first": "2019-06-01", "last": "2019-10-31"}, {"id": "271", "name": "Ashmont T Stop", "lat": 42.2856944, "lon": -71.0641389, "first": "2019-07-01", "last": "2019-10-31"}, {"id": "399", "name": "Shawmut Ave at Oak St W", "lat": 42.348545434111976, "lon": -71.06559185315746, "first": "2019-07-01", "last": "2019-10-31"}, {"id": "405", "name": "Sydney St at Carson St", "lat": 42.32039374304257, "lon": -71.05355408051764, "first": "2019-07-01", "last": "2019-10-31"}, {"id": "387", "name": "Norman St at Kelvin St", "lat": 42.40581171700586, "lon": -71.06708850720679, "first": "2019-06-01", "last": "2019-10-31"}, {"id": "410", "name": "Adams St at Lonsdale St", "lat": 42.291679428741226, "lon": -71.05726346409938, "first": "2019-07-01", "last": "2019-10-31"}, {"id": "373", "name": "Belgrade Ave at Walworth St", "lat": 42.28634589486312, "lon": -71.13672129828045, "first": "2018-11-01", "last": "2019-10-31"}, {"id": "394", "name": "Broadway at Maple St", "lat": 42.41034690976785, "lon": -71.05260457852637, "first": "2019-06-01", "last": "2019-10-31"}, {"id": "395", "name": "Chelsea St at Vine St", "lat": 42.403280569725325, "lon": -71.04762639859473, "first": "2019-06-01", "last": "2019-10-31"}, {"id": "A32007", "name": "Harvard Real Estate - North Harvard St at Western Ave", "lat": 42.363904999999995, "lon": -71.128906, "first": "2011-11-30", "last": "2013-09-25"}, {"id": "B32019", "name": "Longwood Ave/Riverway", "lat": 42.340299, "lon": -71.109927, "first": "2011-11-30", "last": "2014-07-01"}, {"id": "B32009", "name": "Overland St at Brookline Ave", "lat": 42.346171000000005, "lon": -71.099855, "first": "2011-11-30", "last": "2013-09-25"}, {"id": "K32003", "name": "Brookline Village - Station Street @ MBTA", "lat": 42.332799, "lon": -71.11620500000001, "first": "2012-11-20", "last": "2014-07-01"}, {"id": "M32038", "name": "Harvard University River Houses - DeWolfe St at Grant St", "lat": 42.36919032, "lon": -71.11714125, "first": "2012-11-20", "last": "2014-07-01"}, {"id": "C32013", "name": "JFK / UMASS Station", "lat": 42.32033974, "lon": -71.05118036, "first": "2012-11-20", "last": "2014-07-01"}, {"id": "C32011", "name": "South Bay Plaza", "lat": 42.325941, "lon": -71.065928, "first": "2012-11-20", "last": "2013-09-25"}, {"id": "E32001", "name": "JP Monument - South St at Centre St", "lat": 42.309053999999996, "lon": -71.11543, "first": "2013-12-31", "last": "2014-07-01"}, {"id": "D32025", "name": "Milk St at India St", "lat": 42.358483, "lon": -71.05297900000001, "first": "2013-12-31", "last": "2014-07-01"}, {"id": "C32023", "name": "Day Boulevard", "lat": 42.336448, "lon": -71.023739, "first": "2014-06-30", "last": "2014-12-02"}, {"id": "C32022", "name": "Newmarket Square", "lat": 42.326599, "lon": -71.066498, "first": "2014-06-30", "last": "2014-12-31"}]